[{"business_status": "OPERATIONAL", "geometry": {"location": {"lat": 49.4489179, "lng": 11.0693777}, "viewport": {"northeast": {"lat": 49.45025357989272, "lng": 11.07067512989272}, "southwest": {"lat": 49.44755392010727, "lng": 11.06797547010728}}}, "icon": "https://maps.gstatic.com/mapfiles/place_api/icons/v1/png_71/bar-71.png", "icon_background_color": "#FF9E67", "icon_mask_base_uri": "https://maps.gstatic.com/mapfiles/place_api/icons/v2/bar_pinlet", "name": "The King's Arms - N\u00fcrnberg", "opening_hours": {"open_now": true}, "photos": [{"height": 960, "html_attributions": ["<a href=\"https://maps.google.com/maps/contrib/113912283880299318621\">A Google User</a>"], "photo_reference": "AUGGfZlHUnwRMi3ZF6dSwXswWoRGr6nG5i-FoV-WcZo0YK8AIKGrTJhSCa9DSjNLZub4ppvL-lVoVabb_Q5XDqQd7Gv3WR1AsEjjtT1QYh-kSUV0ryXnKOK63nsgLt54Yg5gcMtldTcBwms0bXHDeOELetwDwR0xJVl28F1EErgRiaxpdJMy", "width": 2400}], "place_id": "ChIJFSX5j6lXn0cRdacA4IWDn2U", "plus_code": {"compound_code": "C3X9+HP Nuremberg, Germany", "global_code": "8FXHC3X9+HP"}, "price_level": 2, "rating": 4.5, "reference": "ChIJFSX5j6lXn0cRdacA4IWDn2U", "scope": "GOOGLE", "types": ["bar", "restaurant", "food", "point_of_interest", "establishment"], "user_ratings_total": 764, "vicinity": "Jakobspl. 6, N\u00fcrnberg"}, {"business_status": "OPERATIONAL", "geometry": {"location": {"lat": 49.449351, "lng": 11.0796826}, "viewport": {"northeast": {"lat": 49.45048617989271, "lng": 11.08093102989272}, "southwest": {"lat": 49.44778652010727, "lng": 11.07823137010728}}}, "icon": "https://maps.gstatic.com/mapfiles/place_api/icons/v1/png_71/bar-71.png", "icon_background_color": "#FF9E67", "icon_mask_base_uri": "https://maps.gstatic.com/mapfiles/place_api/icons/v2/bar_pinlet", "name": "Finnegan's Harp Irish Pub", "opening_hours": {"open_now": true}, "photos": [{"height": 2592, "html_attributions": ["<a href=\"https://maps.google.com/maps/contrib/111990174733875185310\">Heinz Baier</a>"], "photo_reference": "AUGGfZnlgXb-CNEdqM572A9xTrcsRtC7ZSoyY8S6tGesYfbV1jUH2ouUxMEKmVmmUGRbaPWtP42ylHTpzAFeyvyr4SWcHhd39_8UPzffl7Pdq9dkMPaxssgTS3i5uXmlMGmr1teKDllYrVXGOWQgYljqfPojmBWvdLee-AlOG3-Rh1bpYAw7", "width": 4608}], "place_id": "ChIJuXUjL6dXn0cR0E8N_W2KcmM", "plus_code": {"compound_code": "C3XH+PV Nuremberg, Germany", "global_code": "8FXHC3XH+PV"}, "price_level": 2, "rating": 4.4, "reference": "ChIJuXUjL6dXn0cR0E8N_W2KcmM", "scope": "GOOGLE", "types": ["bar", "restaurant", "food", "point_of_interest", "establishment"], "user_ratings_total": 2783, "vicinity": "K\u00f6nigstra\u00dfe 51, N\u00fcrnberg"}, {"business_status": "OPERATIONAL", "geometry": {"location": {"lat": 49.4488638, "lng": 11.0782148}, "viewport": {"northeast": {"lat": 49.45016167989273, "lng": 11.07950897989272}, "southwest": {"lat": 49.44746202010729, "lng": 11.07680932010728}}}, "icon": "https://maps.gstatic.com/mapfiles/place_api/icons/v1/png_71/bar-71.png", "icon_background_color": "#FF9E67", "icon_mask_base_uri": "https://maps.gstatic.com/mapfiles/place_api/icons/v2/bar_pinlet", "name": "Kilians Irish Pub - N\u00fcrnberg", "opening_hours": {"open_now": true}, "photos": [{"height": 3280, "html_attributions": ["<a href=\"https://maps.google.com/maps/contrib/112831145334553177482\">Dimitrie van Dijk</a>"], "photo_reference": "AUGGfZnGIc3UGVuNzqS-NBrHRgR405AUFbSWcnoC09h1uAvarkZEQ73uuF9_87OP2KBbg6MUDvzxE1DGQxisr2PsoTFKXk8REWbfvgMZWUvygsTx2CfO-tmSB9BuFM-royHqQpqPFT51SadtS4PFGNEK5mYI8swmIITKR_xZnT0TQEbDUwf4", "width": 1476}], "place_id": "ChIJn7p9ErdXn0cREBQfN6iMbMQ", "plus_code": {"compound_code": "C3XH+G7 Nuremberg, Germany", "global_code": "8FXHC3XH+G7"}, "price_level": 2, "rating": 4.5, "reference": "ChIJn7p9ErdXn0cREBQfN6iMbMQ", "scope": "GOOGLE", "types": ["bar", "restaurant", "food", "point_of_interest", "establishment"], "user_ratings_total": 470, "vicinity": "Hallpl. 21, N\u00fcrnberg"}, {"business_status": "OPERATIONAL", "geometry": {"location": {"lat": 49.4486187, "lng": 11.0805091}, "viewport": {"northeast": {"lat": 49.45006467989272, "lng": 11.08175377989272}, "southwest": {"lat": 49.44736502010727, "lng": 11.07905412010728}}}, "icon": "https://maps.gstatic.com/mapfiles/place_api/icons/v1/png_71/bar-71.png", "icon_background_color": "#FF9E67", "icon_mask_base_uri": "https://maps.gstatic.com/mapfiles/place_api/icons/v2/bar_pinlet", "name": "MULLIGAN'S - Irish Pub, Bar und Grill", "opening_hours": {"open_now": true}, "photos": [{"height": 3024, "html_attributions": ["<a href=\"https://maps.google.com/maps/contrib/101221472949997978826\">Rajender Bajarh</a>"], "photo_reference": "AUGGfZmk9l5aJF_OXpj-E9f434PlF8BpbpM92pdMGcmgUU0tdSVSa5CYQxsrZJeCOmyrmZ2G3IdfAmdu26SytWi2cM31QbCY8sJ-VyXAaJM6H5feSyl6WW8tZY9mxQDEkPxi_tG2a_3V7u3szjir8docRsElmCVAHj0YkKPnvdVHNZ7LYJN0", "width": 4032}], "place_id": "ChIJg2-BO6dXn0cRO46DsJjCboM", "plus_code": {"compound_code": "C3XJ+C6 Nuremberg, Germany", "global_code": "8FXHC3XJ+C6"}, "price_level": 2, "rating": 4.6, "reference": "ChIJg2-BO6dXn0cRO46DsJjCboM", "scope": "GOOGLE", "types": ["bar", "restaurant", "food", "point_of_interest", "establishment"], "user_ratings_total": 474, "vicinity": "K\u00f6nigstra\u00dfe 71, N\u00fcrnberg"}, {"business_status": "OPERATIONAL", "geometry": {"location": {"lat": 49.4520874, "lng": 11.0821456}, "viewport": {"northeast": {"lat": 49.45347032989272, "lng": 11.08302007989272}, "southwest": {"lat": 49.45077067010727, "lng": 11.08032042010728}}}, "icon": "https://maps.gstatic.com/mapfiles/place_api/icons/v1/png_71/bar-71.png", "icon_background_color": "#FF9E67", "icon_mask_base_uri": "https://maps.gstatic.com/mapfiles/place_api/icons/v2/bar_pinlet", "name": "Biergarten O\u2019Sheas Irish Pub", "opening_hours": {"open_now": true}, "photos": [{"height": 2736, "html_attributions": ["<a href=\"https://maps.google.com/maps/contrib/102415687605086125246\">Marco Hirsch</a>"], "photo_reference": "AUGGfZnuwRRZ02n38rkuSfAoTfs1CQVyWzLYWGyfQK5FOj5pBhZr9vgxGqXEq0Hqfr0wsEzLo-uPN-lTWYOhhkn0LzWKp5gUL8ZRXjhUbBuM0rMp7CZfkZ9tXjVSj8mEZi29z6u06bgj4PRG3tWvWh4tuBk0ZxzdCTldRr5b5DbXNZDypBB4", "width": 3648}], "place_id": "ChIJjZd4OKRXn0cR8cNPY3Xvpbw", "plus_code": {"compound_code": "F32J+RV Nuremberg, Germany", "global_code": "8FXHF32J+RV"}, "price_level": 2, "rating": 4.5, "reference": "ChIJjZd4OKRXn0cR8cNPY3Xvpbw", "scope": "GOOGLE", "types": ["bar", "restaurant", "food", "point_of_interest", "establishment"], "user_ratings_total": 2748, "vicinity": "Wespennest 6, N\u00fcrnberg"}, {"business_status": "OPERATIONAL", "geometry": {"location": {"lat": 49.4668397, "lng": 11.0732256}, "viewport": {"northeast": {"lat": 49.46817237989272, "lng": 11.07459577989272}, "southwest": {"lat": 49.46547272010728, "lng": 11.07189612010728}}}, "icon": "https://maps.gstatic.com/mapfiles/place_api/icons/v1/png_71/bar-71.png", "icon_background_color": "#FF9E67", "icon_mask_base_uri": "https://maps.gstatic.com/mapfiles/place_api/icons/v2/bar_pinlet", "name": "The Druid Bar and Grill", "opening_hours": {"open_now": true}, "place_id": "ChIJVw3zhbVXn0cR6-SlGkzr5bo", "plus_code": {"compound_code": "F38F+P7 Nuremberg, Germany", "global_code": "8FXHF38F+P7"}, "rating": 3.7, "reference": "ChIJVw3zhbVXn0cR6-SlGkzr5bo", "scope": "GOOGLE", "types": ["bar", "restaurant", "food", "point_of_interest", "establishment"], "user_ratings_total": 3, "vicinity": "Pleydenwurffstra\u00dfe 1, N\u00fcrnberg"}, {"business_status": "OPERATIONAL", "geometry": {"location": {"lat": 49.4526328, "lng": 11.0530497}, "viewport": {"northeast": {"lat": 49.45401662989272, "lng": 11.05445327989272}, "southwest": {"lat": 49.45131697010728, "lng": 11.05175362010728}}}, "icon": "https://maps.gstatic.com/mapfiles/place_api/icons/v1/png_71/bar-71.png", "icon_background_color": "#FF9E67", "icon_mask_base_uri": "https://maps.gstatic.com/mapfiles/place_api/icons/v2/bar_pinlet", "name": "O'Toole's Schmiede Irish Pub, Restaurant, Biergarten", "opening_hours": {"open_now": true}, "photos": [{"height": 1356, "html_attributions": ["<a href=\"https://maps.google.com/maps/contrib/108795972500084872183\">A Google User</a>"], "photo_reference": "AUGGfZknth5v5h1nbHlGyBrA7khjPVN93Igh3swYgatEl33v8k6fHSnmhJunWlTFIu0leiAhki5CDLFwNEmRL9XnJsZcc2XipfdmSBbSVU_95s7vk6aN8vSnJi-L_SLCs3fCoRd1t2eYlXCVVjYPzTcYe_GSLZncmy7CmPW-RnJb3fPw0NUH", "width": 2048}], "place_id": "ChIJWXKaIFdWn0cRt453lY-8_3E", "plus_code": {"compound_code": "F333+36 Nuremberg, Germany", "global_code": "8FXHF333+36"}, "price_level": 2, "rating": 4.4, "reference": "ChIJWXKaIFdWn0cRt453lY-8_3E", "scope": "GOOGLE", "types": ["bar", "restaurant", "food", "point_of_interest", "establishment"], "user_ratings_total": 303, "vicinity": "B\u00e4renschanzstra\u00dfe 89, N\u00fcrnberg"}, {"business_status": "OPERATIONAL", "geometry": {"location": {"lat": 49.45035, "lng": 11.07676}, "viewport": {"northeast": {"lat": 49.45174512989272, "lng": 11.07810037989272}, "southwest": {"lat": 49.44904547010728, "lng": 11.07540072010728}}}, "icon": "https://maps.gstatic.com/mapfiles/place_api/icons/v1/png_71/restaurant-71.png", "icon_background_color": "#FF9E67", "icon_mask_base_uri": "https://maps.gstatic.com/mapfiles/place_api/icons/v2/restaurant_pinlet", "name": "CHILLERS American Diner & Bar N\u00fcrnberg", "opening_hours": {"open_now": true}, "photos": [{"height": 2736, "html_attributions": ["<a href=\"https://maps.google.com/maps/contrib/102019053558410233002\">A Google User</a>"], "photo_reference": "AUGGfZnAr9dNWNmWLFKQydxvRyTPlVs7pAQ8ruUh7mRT368VjBAMPLlfClK9bTmfeBooZU7cmwXmNsgT7ZpTN5FfITiT4GrYjpocuGg5EL1hsCE-8yd7NvMjg7c_rfaaAtO5HYUsbdZxPiO15qgJ0v0AJ8DlgJZvCFr4iAKhUeHTjShriNFJ", "width": 3648}], "place_id": "ChIJl7xR0iFXn0cR5OCT75YVI24", "plus_code": {"compound_code": "F32G+4P Nuremberg, Germany", "global_code": "8FXHF32G+4P"}, "price_level": 2, "rating": 4.1, "reference": "ChIJl7xR0iFXn0cR5OCT75YVI24", "scope": "GOOGLE", "types": ["bar", "cafe", "restaurant", "food", "point_of_interest", "establishment"], "user_ratings_total": 778, "vicinity": "Brunnengasse 11, N\u00fcrnberg"}, {"business_status": "OPERATIONAL", "geometry": {"location": {"lat": 49.4548891, "lng": 11.0788234}, "viewport": {"northeast": {"lat": 49.45622557989272, "lng": 11.08007647989272}, "southwest": {"lat": 49.45352592010727, "lng": 11.07737682010728}}}, "icon": "https://maps.gstatic.com/mapfiles/place_api/icons/v1/png_71/restaurant-71.png", "icon_background_color": "#FF9E67", "icon_mask_base_uri": "https://maps.gstatic.com/mapfiles/place_api/icons/v2/restaurant_pinlet", "name": "Australian Bar & Kitchen", "opening_hours": {"open_now": true}, "photos": [{"height": 2448, "html_attributions": ["<a href=\"https://maps.google.com/maps/contrib/114500997052486890349\">Margit Haas</a>"], "photo_reference": "AUGGfZkJcdipkLQktQ7VleTHb436hROAk2Yv9W3caUIus2xLoG0pdXPG_WqH-msYH9KvO-fEh6Q41yh_9BABDpjIy6N6jj-W9qi0YhuwRvKOdT83NqVcnE32BFIhmPN76vYCH-mYWgKNimx0rjKQRRtrbjCwYwVMNe0sxvWUhdAGqQXpgVI8", "width": 3264}], "place_id": "ChIJOcpGaaVXn0cRf2ibgtFDwbk", "plus_code": {"compound_code": "F33H+XG Nuremberg, Germany", "global_code": "8FXHF33H+XG"}, "price_level": 2, "rating": 4.3, "reference": "ChIJOcpGaaVXn0cRf2ibgtFDwbk", "scope": "GOOGLE", "types": ["bar", "restaurant", "food", "point_of_interest", "establishment"], "user_ratings_total": 2015, "vicinity": "Obstmarkt 26, N\u00fcrnberg"}, {"business_status": "OPERATIONAL", "geometry": {"location": {"lat": 49.4438488, "lng": 11.0967943}, "viewport": {"northeast": {"lat": 49.44518317989272, "lng": 11.09818187989272}, "southwest": {"lat": 49.44248352010728, "lng": 11.09548222010728}}}, "icon": "https://maps.gstatic.com/mapfiles/place_api/icons/v1/png_71/bar-71.png", "icon_background_color": "#FF9E67", "icon_mask_base_uri": "https://maps.gstatic.com/mapfiles/place_api/icons/v2/bar_pinlet", "name": "Die Zwiebel", "opening_hours": {"open_now": true}, "photos": [{"height": 2048, "html_attributions": ["<a href=\"https://maps.google.com/maps/contrib/104466740663005261526\">Die Zwiebel</a>"], "photo_reference": "AUGGfZkgE3yCSAEqvAQcNy8E_GOZkd3shNgjn1ww0nzWuJuFnXzYEs2y6Yk9HlCWqwawLukPrELsXL_--uM33Mol6XJMAhVf08fOa5AWy_l1E7Pk4x_ePfr-kMtirnaMw86PjsuLl3xffWowqFcE3WyJezMijqWLUD0q-ozYC7MjT2Hq3_Dn", "width": 1721}], "place_id": "ChIJ92WCLnZXn0cRVYO8vaLhXJ0", "plus_code": {"compound_code": "C3VW+GP Nuremberg, Germany", "global_code": "8FXHC3VW+GP"}, "rating": 4.5, "reference": "ChIJ92WCLnZXn0cRVYO8vaLhXJ0", "scope": "GOOGLE", "types": ["bar", "restaurant", "food", "point_of_interest", "establishment"], "user_ratings_total": 68, "vicinity": "Kirchenstra\u00dfe 25, N\u00fcrnberg"}, {"business_status": "OPERATIONAL", "geometry": {"location": {"lat": 49.4634082, "lng": 11.0758452}, "viewport": {"northeast": {"lat": 49.46475737989272, "lng": 11.07726897989272}, "southwest": {"lat": 49.46205772010728, "lng": 11.07456932010728}}}, "icon": "https://maps.gstatic.com/mapfiles/place_api/icons/v1/png_71/bar-71.png", "icon_background_color": "#FF9E67", "icon_mask_base_uri": "https://maps.gstatic.com/mapfiles/place_api/icons/v2/bar_pinlet", "name": "Cantina", "opening_hours": {"open_now": true}, "photos": [{"height": 3096, "html_attributions": ["<a href=\"https://maps.google.com/maps/contrib/114569592910203186690\">Sam Amthor</a>"], "photo_reference": "AUGGfZm2HG6QlwqpnXZI-N-Bxn53tySv5zRGVA1bV-3W9v06-t6YxXWK7Ub0l7PEZrvI3qmzmCQvYiFzbX_eR9OzMOm5G6yRtWn4q3op7j2eZwDKI3vTg-ZRBOe1-djE_uylHodO_BP44PpvfvBds-9FwautPRyPysHfYej_3n5liU3GwYij", "width": 4128}], "place_id": "ChIJBfqUlLZXn0cRUAKrkKiVSkY", "plus_code": {"compound_code": "F37G+98 Nuremberg, Germany", "global_code": "8FXHF37G+98"}, "price_level": 2, "rating": 4.4, "reference": "ChIJBfqUlLZXn0cRUAKrkKiVSkY", "scope": "GOOGLE", "types": ["bar", "restaurant", "food", "point_of_interest", "establishment"], "user_ratings_total": 305, "vicinity": "Uhlandstra\u00dfe 9, N\u00fcrnberg"}, {"business_status": "OPERATIONAL", "geometry": {"location": {"lat": 49.453585, "lng": 11.0805802}, "viewport": {"northeast": {"lat": 49.45492672989272, "lng": 11.08189062989272}, "southwest": {"lat": 49.45222707010727, "lng": 11.07919097010728}}}, "icon": "https://maps.gstatic.com/mapfiles/place_api/icons/v1/png_71/cafe-71.png", "icon_background_color": "#FF9E67", "icon_mask_base_uri": "https://maps.gstatic.com/mapfiles/place_api/icons/v2/cafe_pinlet", "name": "Cafe Bar Katz", "opening_hours": {"open_now": true}, "photos": [{"height": 3060, "html_attributions": ["<a href=\"https://maps.google.com/maps/contrib/103803946646889082837\">Philipp Schreiber</a>"], "photo_reference": "AUGGfZni-HgbztZwGsAEfzqx1O5W_PqjIQkSxqZoRKL0HID8G7r2Wsmm-4VG9NPYf9y2RZT6J1lomBPxkErtYEnPk55_yt7m05KJ0K1x9_oNAlVXEWDyNJ0-RoDeczEDcKSCACMYRhwaO1tZayqLdhUZ9kV-xi5gOMvL3fgx_qlICLaJNq0Q", "width": 4080}], "place_id": "ChIJhayhqqVXn0cRLidkk61X6S4", "plus_code": {"compound_code": "F33J+F7 Nuremberg, Germany", "global_code": "8FXHF33J+F7"}, "price_level": 2, "rating": 4.5, "reference": "ChIJhayhqqVXn0cRLidkk61X6S4", "scope": "GOOGLE", "types": ["cafe", "bar", "restaurant", "food", "point_of_interest", "store", "establishment"], "user_ratings_total": 1282, "vicinity": "Hans-Sachs-Platz 8, N\u00fcrnberg"}, {"business_status": "OPERATIONAL", "geometry": {"location": {"lat": 49.4497814, "lng": 11.0800826}, "viewport": {"northeast": {"lat": 49.45129637989272, "lng": 11.08144202989272}, "southwest": {"lat": 49.44859672010728, "lng": 11.07874237010728}}}, "icon": "https://maps.gstatic.com/mapfiles/place_api/icons/v1/png_71/bar-71.png", "icon_background_color": "#FF9E67", "icon_mask_base_uri": "https://maps.gstatic.com/mapfiles/place_api/icons/v2/bar_pinlet", "name": "Trichter - N\u00fcrnberg", "opening_hours": {"open_now": false}, "photos": [{"height": 3024, "html_attributions": ["<a href=\"https://maps.google.com/maps/contrib/115770721530371470848\">schmidt1112</a>"], "photo_reference": "AUGGfZldmMqsLf990XJCV0HDSZeUeYS5_boUhnM02ewGUwWZZcp3pm5mWhM4psnJUXE5EFbjl3_w6kpRMe9c3g06TNk4clk8rph9ENtTcsVCFdn74VT0CS5I1PjgxqBCMEVCE3eggHMPlP7kmSwiDGj9d4jrzqmVYlvpyB_C9B6vYdDofPs", "width": 4032}], "place_id": "ChIJlcJF7aZXn0cRLrg5dnP54ME", "plus_code": {"compound_code": "C3XJ+W2 Nuremberg, Germany", "global_code": "8FXHC3XJ+W2"}, "price_level": 2, "rating": 4.4, "reference": "ChIJlcJF7aZXn0cRLrg5dnP54ME", "scope": "GOOGLE", "types": ["bar", "restaurant", "food", "point_of_interest", "establishment"], "user_ratings_total": 240, "vicinity": "Theatergasse 15, N\u00fcrnberg"}, {"business_status": "OPERATIONAL", "geometry": {"location": {"lat": 49.4525843, "lng": 11.0733386}, "viewport": {"northeast": {"lat": 49.45386287989272, "lng": 11.07436757989272}, "southwest": {"lat": 49.45116322010728, "lng": 11.07166792010728}}}, "icon": "https://maps.gstatic.com/mapfiles/place_api/icons/v1/png_71/restaurant-71.png", "icon_background_color": "#FF9E67", "icon_mask_base_uri": "https://maps.gstatic.com/mapfiles/place_api/icons/v2/restaurant_pinlet", "name": "KonTiki", "opening_hours": {"open_now": true}, "photos": [{"height": 3000, "html_attributions": ["<a href=\"https://maps.google.com/maps/contrib/100969830578312011691\">A Google User</a>"], "photo_reference": "AUGGfZkkM3A1VI62S1peBE7pbByyewCoN7PufeNHYbBFrb7fDs1EW5P70jJd5taLd4LuivU6LSELAyLtQO_gbCpc40LLFyDE22D0KHMUv4JGct4KLZJd1Y5hGXrrHMXfSdNgrXJyo_fl703RwTuks_T6EXKr--rFKn6TgyBV1rpZ5QIkWwQ", "width": 4000}], "place_id": "ChIJncb22q5Xn0cRY9UiBBewo1k", "plus_code": {"compound_code": "F33F+28 Nuremberg, Germany", "global_code": "8FXHF33F+28"}, "price_level": 2, "rating": 4.4, "reference": "ChIJncb22q5Xn0cRY9UiBBewo1k", "scope": "GOOGLE", "types": ["restaurant", "bar", "food", "point_of_interest", "establishment"], "user_ratings_total": 2153, "vicinity": "Untere W\u00f6rthstra\u00dfe 10-14, N\u00fcrnberg"}, {"business_status": "OPERATIONAL", "geometry": {"location": {"lat": 49.4555325, "lng": 11.0737528}, "viewport": {"northeast": {"lat": 49.45688707989272, "lng": 11.07476852989272}, "southwest": {"lat": 49.45418742010727, "lng": 11.07206887010728}}}, "icon": "https://maps.gstatic.com/mapfiles/place_api/icons/v1/png_71/bar-71.png", "icon_background_color": "#FF9E67", "icon_mask_base_uri": "https://maps.gstatic.com/mapfiles/place_api/icons/v2/bar_pinlet", "name": "The Flower of Hawaii - N\u00fcrnberg", "opening_hours": {"open_now": true}, "photos": [{"height": 2667, "html_attributions": ["<a href=\"https://maps.google.com/maps/contrib/118143924447683765326\">Die Blume von Hawaii</a>"], "photo_reference": "AUGGfZmqs3BGVvbamglM0hfx5PjJCQJs8k8jVEKCGs9wTC9oZR-JAE3qkkwX9iPBjAwq1eXeI9qJJ3kUZU5BFD-k2vyT53Z1yqu3pN07ogpJJjxQTtBiPyWY7vqvD9SDF8rZHxl1ZNuMbLsKHKeh04FmF9F0spGypIZ19tyzQXoh06Cmf6Jb", "width": 3999}], "place_id": "ChIJo7b7qaRXn0cRYd4QSu_HxMk", "plus_code": {"compound_code": "F34F+6G Nuremberg, Germany", "global_code": "8FXHF34F+6G"}, "price_level": 3, "rating": 4.7, "reference": "ChIJo7b7qaRXn0cRYd4QSu_HxMk", "scope": "GOOGLE", "types": ["bar", "night_club", "restaurant", "food", "point_of_interest", "establishment"], "user_ratings_total": 649, "vicinity": "Weinmarkt 16, N\u00fcrnberg"}, {"business_status": "OPERATIONAL", "geometry": {"location": {"lat": 49.4482247, "lng": 11.0536362}, "viewport": {"northeast": {"lat": 49.44956572989271, "lng": 11.05505047989272}, "southwest": {"lat": 49.44686607010727, "lng": 11.05235082010728}}}, "icon": "https://maps.gstatic.com/mapfiles/place_api/icons/v1/png_71/bar-71.png", "icon_background_color": "#FF9E67", "icon_mask_base_uri": "https://maps.gstatic.com/mapfiles/place_api/icons/v2/bar_pinlet", "name": "Palais Schaumburg", "opening_hours": {"open_now": true}, "photos": [{"height": 3264, "html_attributions": ["<a href=\"https://maps.google.com/maps/contrib/117581273184946024092\">Jiri Lokvenc</a>"], "photo_reference": "AUGGfZkTRwTAlgPyCgfliVxiBHhj8pRVXNkoTktYLO-hbyJvxufv9l_1izGxmUrn83Lt3ywnVNpR-TnKSPEcO2x-xLjNF2wQCinZDV96Zsn_E1cC-LYjh1k6EaBsKHwBC7AIv3TV66Ee0jLJRklsC-LFwGva9qt6punM2QZWauSStg4Riisr", "width": 1836}], "place_id": "ChIJufaVpfhWn0cR4z5wlE3JBOQ", "plus_code": {"compound_code": "C3X3+7C Nuremberg, Germany", "global_code": "8FXHC3X3+7C"}, "price_level": 2, "rating": 4.5, "reference": "ChIJufaVpfhWn0cR4z5wlE3JBOQ", "scope": "GOOGLE", "types": ["bar", "restaurant", "food", "point_of_interest", "establishment"], "user_ratings_total": 1339, "vicinity": "Kernstra\u00dfe 46, N\u00fcrnberg"}, {"business_status": "OPERATIONAL", "geometry": {"location": {"lat": 49.4630088, "lng": 11.101627}, "viewport": {"northeast": {"lat": 49.46436297989272, "lng": 11.10301512989272}, "southwest": {"lat": 49.46166332010728, "lng": 11.10031547010728}}}, "icon": "https://maps.gstatic.com/mapfiles/place_api/icons/v1/png_71/restaurant-71.png", "icon_background_color": "#FF9E67", "icon_mask_base_uri": "https://maps.gstatic.com/mapfiles/place_api/icons/v2/restaurant_pinlet", "name": "Gasthaus Engel", "opening_hours": {"open_now": true}, "photos": [{"height": 2160, "html_attributions": ["<a href=\"https://maps.google.com/maps/contrib/113898613790364088981\">Stefanie Thielmann</a>"], "photo_reference": "AUGGfZmdtrBSGT1zd7SHEmAsSEIvGl71eEn3jew52pHzmku7-HX2a6VbQzbK95oLafNNUwqCN9NrtzVtKU95mWJgR1KjhB_xRisQw3_FlNP6oZ1B0euhkYFnfnK2D0K2sI6Xa48w2_4TAReZqbkyIh1GiIof9pTlvrVXEJrYjiP5r5AYK_BG", "width": 3840}], "place_id": "ChIJE6GpYZNXn0cRe692pnN8XWg", "plus_code": {"compound_code": "F472+5J Nuremberg, Germany", "global_code": "8FXHF472+5J"}, "price_level": 1, "rating": 4.7, "reference": "ChIJE6GpYZNXn0cRe692pnN8XWg", "scope": "GOOGLE", "types": ["bar", "restaurant", "food", "point_of_interest", "establishment"], "user_ratings_total": 599, "vicinity": "Schoppershofstra\u00dfe 53, N\u00fcrnberg"}, {"business_status": "OPERATIONAL", "geometry": {"location": {"lat": 49.4702364, "lng": 11.1007992}, "viewport": {"northeast": {"lat": 49.47153452989272, "lng": 11.10209242989272}, "southwest": {"lat": 49.46883487010728, "lng": 11.09939277010728}}}, "icon": "https://maps.gstatic.com/mapfiles/place_api/icons/v1/png_71/bar-71.png", "icon_background_color": "#FF9E67", "icon_mask_base_uri": "https://maps.gstatic.com/mapfiles/place_api/icons/v2/bar_pinlet", "name": "BAR NORDOST 90409", "opening_hours": {"open_now": true}, "photos": [{"height": 746, "html_attributions": ["<a href=\"https://maps.google.com/maps/contrib/110750446584756546206\">NORDOST 90409</a>"], "photo_reference": "AUGGfZnhntu8OiG5nsUh84N40TTLElfr6I6VqStgvrD6V2-_OiFlcVWJcNHYtPnB74uK1aaQmvU8-QliknDiT8He66owqiX7spf-P_tItMLiZO0FPYmtFE1wkrvXqbaavt4Lh0n1k4E3nPqp4kJg48G7-ET-QDJNMuqnHPDdkRKbhi-94xnx", "width": 1326}], "place_id": "ChIJveTGgulXn0cRPiFB122qtds", "plus_code": {"compound_code": "F4C2+38 Nuremberg, Germany", "global_code": "8FXHF4C2+38"}, "price_level": 1, "rating": 4.4, "reference": "ChIJveTGgulXn0cRPiFB122qtds", "scope": "GOOGLE", "types": ["bar", "restaurant", "food", "point_of_interest", "establishment"], "user_ratings_total": 51, "vicinity": "DIREKT GEGEN\u00dcBER DEM MERCADO-CENTER, Fritz-von-R\u00f6th-Stra\u00dfe 2, N\u00fcrnberg"}, {"business_status": "CLOSED_TEMPORARILY", "geometry": {"location": {"lat": 49.4490267, "lng": 11.080016}, "viewport": {"northeast": {"lat": 49.45033297989271, "lng": 11.08138327989272}, "southwest": {"lat": 49.44763332010727, "lng": 11.07868362010728}}}, "icon": "https://maps.gstatic.com/mapfiles/place_api/icons/v1/png_71/bar-71.png", "icon_background_color": "#FF9E67", "icon_mask_base_uri": "https://maps.gstatic.com/mapfiles/place_api/icons/v2/bar_pinlet", "name": "dubliner irish pub & sports bar n\u00fcrnberg", "permanently_closed": true, "photos": [{"height": 1200, "html_attributions": ["<a href=\"https://maps.google.com/maps/contrib/112769459628123890938\">A Google User</a>"], "photo_reference": "AUGGfZmAQlpGw0pUAl57LyBGBJV4yIYwC4sIq7DARTi3Vw22KnGI447yCDuZ9fJVipxEdVxX94euXM9RqDFXFCDtLSDt0FyiwtyFGUObniC1G-WCGwTZsgT9LUjaUhVdYUERpTJDqqdPoxFFeNN9BASPEL-LiE4s5Ro6hiCZhDj_u3qizWFt", "width": 1600}], "place_id": "ChIJ9aQYU6ZXn0cRiRH3KZIhNcc", "plus_code": {"compound_code": "C3XH+JX Nuremberg, Germany", "global_code": "8FXHC3XH+JX"}, "price_level": 2, "rating": 3.8, "reference": "ChIJ9aQYU6ZXn0cRiRH3KZIhNcc", "scope": "GOOGLE", "types": ["bar", "restaurant", "food", "point_of_interest", "establishment"], "user_ratings_total": 814, "vicinity": "K\u00f6nigstra\u00dfe 59, N\u00fcrnberg"}, {"business_status": "OPERATIONAL", "geometry": {"location": {"lat": 49.4486432, "lng": 11.0777619}, "viewport": {"northeast": {"lat": 49.45004192989272, "lng": 11.07911247989272}, "southwest": {"lat": 49.44734227010728, "lng": 11.07641282010728}}}, "icon": "https://maps.gstatic.com/mapfiles/place_api/icons/v1/png_71/bar-71.png", "icon_background_color": "#FF9E67", "icon_mask_base_uri": "https://maps.gstatic.com/mapfiles/place_api/icons/v2/bar_pinlet", "name": "afterwork N\u00fcrnberg - Bar | Food | Events", "opening_hours": {"open_now": true}, "photos": [{"height": 3000, "html_attributions": ["<a href=\"https://maps.google.com/maps/contrib/113109600887728924820\">Kaushik M Upadhya</a>"], "photo_reference": "AUGGfZmu_cGMtarl53zgVtci0ywQHFa6NNhtCICH3zbiwUftOPZpfN2FNKsRKw0mUWiYNDDyT6X9VY7_rgu0Rr-17kdcVE0bINnxQJ_YRrsvs708s_aM4mjGBPvwL2BkX4VvKnz4ayOh6yZnIhMZh2OWfqTQyEKTNLjVA7V34KLwrv4eSc55", "width": 4000}], "place_id": "ChIJMzGWwHJXn0cRcy04zrc8rqM", "plus_code": {"compound_code": "C3XH+F4 Nuremberg, Germany", "global_code": "8FXHC3XH+F4"}, "price_level": 2, "rating": 4.7, "reference": "ChIJMzGWwHJXn0cRcy04zrc8rqM", "scope": "GOOGLE", "types": ["bar", "cafe", "restaurant", "food", "point_of_interest", "establishment"], "user_ratings_total": 209, "vicinity": "Klaragasse 9, N\u00fcrnberg"}]