[{"business_status": "OPERATIONAL", "geometry": {"location": {"lat": 52.202936, "lng": 0.123872}, "viewport": {"northeast": {"lat": 52.20431967989272, "lng": 0.1252585298927222}, "southwest": {"lat": 52.20162002010727, "lng": 0.1225588701072778}}}, "icon": "https://maps.gstatic.com/mapfiles/place_api/icons/v1/png_71/bar-71.png", "icon_background_color": "#FF9E67", "icon_mask_base_uri": "https://maps.gstatic.com/mapfiles/place_api/icons/v2/bar_pinlet", "name": "The Regal", "opening_hours": {"open_now": true}, "photos": [{"height": 1080, "html_attributions": ["<a href=\"https://maps.google.com/maps/contrib/115955151874942536521\">Valentin Zinovjev</a>"], "photo_reference": "AUc7tXXr-M4c00s6fxuehFSnWORtcRYFMIa8PTrYUsMrlo1veup0cF1rtmVwpNLwB84J0tdhVZIDdVZ3JN4C2ILqIODF_Yqa33Z2Bvd5h3R6OpmXgSj9wSWLDYRxPX4jiOz93ewRbQd1dp_M02qhsEV6jjxsEQfTsTRfAZ6pFhLMHP3F3gNk", "width": 1920}], "place_id": "ChIJjbWxNnh62EcRZ8YwcSO5IZY", "plus_code": {"compound_code": "643F+5G Cambridge, UK", "global_code": "9F42643F+5G"}, "price_level": 1, "rating": 4, "reference": "ChIJjbWxNnh62EcRZ8YwcSO5IZY", "scope": "GOOGLE", "types": ["bar", "point_of_interest", "establishment"], "user_ratings_total": 5464, "vicinity": "38-39 St Andrew's St, Cambridge"}, {"business_status": "OPERATIONAL", "geometry": {"location": {"lat": 52.2039937, "lng": 0.1180895}, "viewport": {"northeast": {"lat": 52.20529947989272, "lng": 0.1194450798927222}, "southwest": {"lat": 52.20259982010727, "lng": 0.1167454201072778}}}, "icon": "https://maps.gstatic.com/mapfiles/place_api/icons/v1/png_71/bar-71.png", "icon_background_color": "#FF9E67", "icon_mask_base_uri": "https://maps.gstatic.com/mapfiles/place_api/icons/v2/bar_pinlet", "name": "Eagle", "opening_hours": {"open_now": true}, "photos": [{"height": 1365, "html_attributions": ["<a href=\"https://maps.google.com/maps/contrib/100036346966152407251\">Angela Saija</a>"], "photo_reference": "AUc7tXXMZGPAoDzyM7QwNIrAmYpnLiKstEhrI-FK7RX8AtmAx4cCdFjzmdfjKLweMCnrK9v9ZPKb9cRnsR7A916Dq865UUnRqTlTb2ea1pTKH8RBY3CkejXFJZ6zQQEjQerFgqi--RYS81AHaKsnzczdT8UNc4g7MR6q27IpMhXhLAVUaNN7", "width": 2048}], "place_id": "ChIJuQdxBb1w2EcRvnxVeL5abUw", "plus_code": {"compound_code": "6439+H6 Cambridge, United Kingdom", "global_code": "9F426439+H6"}, "price_level": 2, "rating": 4.4, "reference": "ChIJuQdxBb1w2EcRvnxVeL5abUw", "scope": "GOOGLE", "types": ["bar", "restaurant", "food", "point_of_interest", "establishment"], "user_ratings_total": 6335, "vicinity": "Bene't St, Cambridge"}, {"business_status": "OPERATIONAL", "geometry": {"location": {"lat": 52.2014878, "lng": 0.1161296}, "viewport": {"northeast": {"lat": 52.20285562989272, "lng": 0.1174741798927222}, "southwest": {"lat": 52.20015597010728, "lng": 0.1147745201072778}}}, "icon": "https://maps.gstatic.com/mapfiles/place_api/icons/v1/png_71/bar-71.png", "icon_background_color": "#FF9E67", "icon_mask_base_uri": "https://maps.gstatic.com/mapfiles/place_api/icons/v2/bar_pinlet", "name": "The Mill", "opening_hours": {"open_now": true}, "photos": [{"height": 1536, "html_attributions": ["<a href=\"https://maps.google.com/maps/contrib/114920984882299768145\">Lauren Hodges</a>"], "photo_reference": "AUc7tXUoomvq7ggafnoQqbMBH8ImT08bUmj6ahotn1kD33cyTko0xsqV5S8Ok-tIhkRunik26jUvz1fD1y4J9hQq0536vemsXHy0im139Lz8JfeLciExmurPpIU3922OUXUzLUdNjELcpjk4UVgZ3k1Djm2OhN5FzWhOS3FrNxNgcMpwksnz", "width": 2048}], "place_id": "ChIJ3fIfMqNw2EcRI2QNYcuWBjw", "plus_code": {"compound_code": "6428+HF Cambridge, United Kingdom", "global_code": "9F426428+HF"}, "price_level": 2, "rating": 4.3, "reference": "ChIJ3fIfMqNw2EcRI2QNYcuWBjw", "scope": "GOOGLE", "types": ["bar", "restaurant", "food", "point_of_interest", "establishment"], "user_ratings_total": 1194, "vicinity": "14 Mill Ln, Cambridge"}, {"business_status": "OPERATIONAL", "geometry": {"location": {"lat": 52.2019923, "lng": 0.1157519}, "viewport": {"northeast": {"lat": 52.20336187989273, "lng": 0.1170626798927222}, "southwest": {"lat": 52.20066222010728, "lng": 0.1143630201072778}}}, "icon": "https://maps.gstatic.com/mapfiles/place_api/icons/v1/png_71/bar-71.png", "icon_background_color": "#FF9E67", "icon_mask_base_uri": "https://maps.gstatic.com/mapfiles/place_api/icons/v2/bar_pinlet", "name": "The Anchor", "opening_hours": {"open_now": true}, "photos": [{"height": 4032, "html_attributions": ["<a href=\"https://maps.google.com/maps/contrib/106707007694794481804\">snnnancy</a>"], "photo_reference": "AUc7tXWBoI-g7AQYni-vhD1w_0ixZmkRhhpeZcnQsYD8bSdUjsomtSC4wf_NT2T9I2OOB9_Wllwwrmh7XF7SEo1mlsTYHv7Te5wm0zzp3eRdW2td-KswAUzRlQ5g8my0jWx3RPJtyIFpEJe_xbYxZg2vwTsLGATZOu-9V0YDdoE_ICBoNCh9", "width": 3024}], "place_id": "ChIJocwdyrxw2EcRnogp-KBkY_o", "plus_code": {"compound_code": "6428+Q8 Cambridge, United Kingdom", "global_code": "9F426428+Q8"}, "price_level": 2, "rating": 4.1, "reference": "ChIJocwdyrxw2EcRnogp-KBkY_o", "scope": "GOOGLE", "types": ["bar", "restaurant", "food", "point_of_interest", "establishment"], "user_ratings_total": 1847, "vicinity": "Silver St, Cambridge"}, {"business_status": "OPERATIONAL", "geometry": {"location": {"lat": 52.1959848, "lng": 0.1255559}, "viewport": {"northeast": {"lat": 52.19737157989272, "lng": 0.1268190298927222}, "southwest": {"lat": 52.19467192010727, "lng": 0.1241193701072778}}}, "icon": "https://maps.gstatic.com/mapfiles/place_api/icons/v1/png_71/bar-71.png", "icon_background_color": "#FF9E67", "icon_mask_base_uri": "https://maps.gstatic.com/mapfiles/place_api/icons/v2/bar_pinlet", "name": "The Alma", "opening_hours": {"open_now": true}, "photos": [{"height": 3024, "html_attributions": ["<a href=\"https://maps.google.com/maps/contrib/107415944402109525029\">igor Boikovs</a>"], "photo_reference": "AUc7tXVeKDC7wZxjEmlNj9v0SUQ_Gkwt0drjatGqkSVArP3MpEO-kJnND4hU5XKxlKY6jsxiKw9-eCsYTLvfEaQ_aPKGexqgCn5dmNGxEoS7pRM5EIZO1BNHaD9eTqt4PUSBOudGQuFeTnE92WPjWqGVN8g3QwZc0B-oT6fVVAhuzkgs8cSL", "width": 4032}], "place_id": "ChIJF5v8q55w2EcRWbfRNUQNPmE", "plus_code": {"compound_code": "54WG+96 Cambridge, United Kingdom", "global_code": "9F4254WG+96"}, "price_level": 2, "rating": 4.3, "reference": "ChIJF5v8q55w2EcRWbfRNUQNPmE", "scope": "GOOGLE", "types": ["bar", "restaurant", "food", "point_of_interest", "establishment"], "user_ratings_total": 530, "vicinity": "The Alma, 26 Russell Ct, Cambridge"}, {"business_status": "OPERATIONAL", "geometry": {"location": {"lat": 52.2003784, "lng": 0.1344233}, "viewport": {"northeast": {"lat": 52.20175157989271, "lng": 0.1357778798927222}, "southwest": {"lat": 52.19905192010727, "lng": 0.1330782201072778}}}, "icon": "https://maps.gstatic.com/mapfiles/place_api/icons/v1/png_71/bar-71.png", "icon_background_color": "#FF9E67", "icon_mask_base_uri": "https://maps.gstatic.com/mapfiles/place_api/icons/v2/bar_pinlet", "name": "Six Bells", "opening_hours": {"open_now": true}, "photos": [{"height": 3024, "html_attributions": ["<a href=\"https://maps.google.com/maps/contrib/114641235335109216366\">Trevor West</a>"], "photo_reference": "AUc7tXXUrebuggwuKFbiK-etQixPG0NAtXQDTfKJxNXI4125GveBOoSBLvREV_s7uObonQgkD_ZJqkin_cbnfMOYWtbTpK6aNRdyiquBnoqS10SUND9WFWvXCFaLPYwj3fQf2jR9EPIOGIzk6ZjgGaE0nQE1xNRTSeASatzk-2rAh7avua8u", "width": 4032}], "place_id": "ChIJ1Zo3E4Vw2EcRPee6l-FlCLM", "plus_code": {"compound_code": "642M+5Q Cambridge, United Kingdom", "global_code": "9F42642M+5Q"}, "price_level": 2, "rating": 4.5, "reference": "ChIJ1Zo3E4Vw2EcRPee6l-FlCLM", "scope": "GOOGLE", "types": ["bar", "restaurant", "food", "point_of_interest", "establishment"], "user_ratings_total": 330, "vicinity": "11 Covent Garden, Petersfield, Cambridge"}, {"business_status": "OPERATIONAL", "geometry": {"location": {"lat": 52.1949301, "lng": 0.1377214}, "viewport": {"northeast": {"lat": 52.19625517989271, "lng": 0.1388522798927222}, "southwest": {"lat": 52.19355552010727, "lng": 0.1361526201072778}}}, "icon": "https://maps.gstatic.com/mapfiles/place_api/icons/v1/png_71/bar-71.png", "icon_background_color": "#FF9E67", "icon_mask_base_uri": "https://maps.gstatic.com/mapfiles/place_api/icons/v2/bar_pinlet", "name": "Station Tavern", "opening_hours": {"open_now": true}, "photos": [{"height": 3460, "html_attributions": ["<a href=\"https://maps.google.com/maps/contrib/115705247487566921303\">Station Tavern</a>"], "photo_reference": "AUc7tXW8GPtQUwH3oEVbZN1cVS0D_pHtiqP_4kwyZKwEVnx8T0jaLCuMzotUCnzqTyYVDty_Zskg4JfZxm9ZbW6Bolz_0_DW_iqUcSkPKS9mnvJdVRVSQQvzzm4hxcmjBtYG41lFI5UWcV7qfTZ0OxJwMoHlJ-pWF2JGKFndLeyzx1-s9nJw", "width": 5198}], "place_id": "ChIJR7KquINw2EcRWbSJmdmh05c", "plus_code": {"compound_code": "54VQ+X3 Cambridge, United Kingdom", "global_code": "9F4254VQ+X3"}, "price_level": 2, "rating": 4, "reference": "ChIJR7KquINw2EcRWbSJmdmh05c", "scope": "GOOGLE", "types": ["bar", "point_of_interest", "establishment"], "user_ratings_total": 1341, "vicinity": "2 Station Sq, Cambridge"}, {"business_status": "OPERATIONAL", "geometry": {"location": {"lat": 52.1997148, "lng": 0.1138212}, "viewport": {"northeast": {"lat": 52.20093807989272, "lng": 0.1150832798927222}, "southwest": {"lat": 52.19823842010727, "lng": 0.1123836201072778}}}, "icon": "https://maps.gstatic.com/mapfiles/place_api/icons/v1/png_71/bar-71.png", "icon_background_color": "#FF9E67", "icon_mask_base_uri": "https://maps.gstatic.com/mapfiles/place_api/icons/v2/bar_pinlet", "name": "Granta", "opening_hours": {"open_now": true}, "photos": [{"height": 1399, "html_attributions": ["<a href=\"https://maps.google.com/maps/contrib/110193793652663755568\">Granta</a>"], "photo_reference": "AUc7tXUu5w07aGjr0JsRXJowccHTNWv-VfX3SH32gKea95KxpukkF3sCc1JvJwMbX0IYv-JqDlMOBRj1NLwhFbWKfwnea6zkzdtdIp1If9xRnBKLOIaEVPhidc8PpD3csHeb0Hh5OhI1vgTWBLd7DFhb-wnG-LvxvF2qIMS3_JmIkNRMj06Q", "width": 2000}], "place_id": "ChIJuXCjkKRw2EcRHredB0yEGkM", "plus_code": {"compound_code": "54X7+VG Cambridge, United Kingdom", "global_code": "9F4254X7+VG"}, "price_level": 2, "rating": 4.2, "reference": "ChIJuXCjkKRw2EcRHredB0yEGkM", "scope": "GOOGLE", "types": ["bar", "restaurant", "food", "point_of_interest", "establishment"], "user_ratings_total": 1742, "vicinity": "14 Newnham Rd, Cambridge"}, {"business_status": "OPERATIONAL", "geometry": {"location": {"lat": 52.2038944, "lng": 0.1393582}, "viewport": {"northeast": {"lat": 52.20524022989272, "lng": 0.1406754798927222}, "southwest": {"lat": 52.20254057010727, "lng": 0.1379758201072778}}}, "icon": "https://maps.gstatic.com/mapfiles/place_api/icons/v1/png_71/bar-71.png", "icon_background_color": "#FF9E67", "icon_mask_base_uri": "https://maps.gstatic.com/mapfiles/place_api/icons/v2/bar_pinlet", "name": "The Alexandra Arms", "opening_hours": {"open_now": true}, "photos": [{"height": 2736, "html_attributions": ["<a href=\"https://maps.google.com/maps/contrib/107860560721322051934\">jim wallace</a>"], "photo_reference": "AUc7tXXAHAR1zkPwSxhhI_au2gJSqgnhmoxThXZcWXvTXWmscsWK1ZW48eSXAin8l9hWhemqM5S_m1hYQ5r7-uyqZBm5pi2R_h7jX8F13CzHDu3-Njpw7PZWBCtAujtpADcorxHIqFpPAwvg0_ipQ1Ur5fiVgDP-BFNHKamTqYff3nNTnZoC", "width": 3648}], "place_id": "ChIJaVrou4hw2EcROetQMMOP12M", "plus_code": {"compound_code": "643Q+HP Cambridge, United Kingdom", "global_code": "9F42643Q+HP"}, "price_level": 2, "rating": 4.5, "reference": "ChIJaVrou4hw2EcROetQMMOP12M", "scope": "GOOGLE", "types": ["bar", "point_of_interest", "establishment"], "user_ratings_total": 676, "vicinity": "22-24 Gwydir St, Cambridge"}, {"business_status": "OPERATIONAL", "geometry": {"location": {"lat": 52.20468, "lng": 0.1276889}, "viewport": {"northeast": {"lat": 52.20601977989272, "lng": 0.1290471298927222}, "southwest": {"lat": 52.20332012010728, "lng": 0.1263474701072778}}}, "icon": "https://maps.gstatic.com/mapfiles/place_api/icons/v1/png_71/bar-71.png", "icon_background_color": "#FF9E67", "icon_mask_base_uri": "https://maps.gstatic.com/mapfiles/place_api/icons/v2/bar_pinlet", "name": "The Clarendon Arms", "opening_hours": {"open_now": true}, "photos": [{"height": 4000, "html_attributions": ["<a href=\"https://maps.google.com/maps/contrib/112253971815665918762\">A Google User</a>"], "photo_reference": "AUc7tXUrIr2Frlf1MS7Ib1AzkPNhh0xzpZZ6_5hc9tfjD75zyEt6_kLdWk63cFp1YfZxvh6iCB5Cy6IgsIxjGDoBnnnIunT5QLOexVUsIoUJMacog_y1E9tiO-CaySsSYtPr5PFOs7RhBYoZAEHfPelG96iyfNH-ZiWK0VxfpzS-mJTCLpHf", "width": 3000}], "place_id": "ChIJ4woNIZFw2EcRIFp1cL_GvYA", "plus_code": {"compound_code": "643H+V3 Cambridge, United Kingdom", "global_code": "9F42643H+V3"}, "price_level": 2, "rating": 4.5, "reference": "ChIJ4woNIZFw2EcRIFp1cL_GvYA", "scope": "GOOGLE", "types": ["bar", "restaurant", "food", "point_of_interest", "establishment"], "user_ratings_total": 681, "vicinity": "35-36 Clarendon St, Cambridge"}, {"business_status": "OPERATIONAL", "geometry": {"location": {"lat": 52.2046122, "lng": 0.1327794}, "viewport": {"northeast": {"lat": 52.20588017989272, "lng": 0.1341464298927222}, "southwest": {"lat": 52.20318052010727, "lng": 0.1314467701072778}}}, "icon": "https://maps.gstatic.com/mapfiles/place_api/icons/v1/png_71/restaurant-71.png", "icon_background_color": "#FF9E67", "icon_mask_base_uri": "https://maps.gstatic.com/mapfiles/place_api/icons/v2/restaurant_pinlet", "name": "TD", "opening_hours": {"open_now": true}, "photos": [{"height": 3024, "html_attributions": ["<a href=\"https://maps.google.com/maps/contrib/101406976613485002415\">Roberto Scardoni</a>"], "photo_reference": "AUc7tXWywznHazMp0EMAce3BC2wbvMmzrtMAxTqg8bRkXnFLvqfKpZwgWbdY7NvVs9ocos5XIp8dUiPZbCXZ7tuga5IMzQN23S_zen0C5zduq8dAnibNxxp0YCqiqio3g--7HwEvMErqXEo_Yu8Rnr8_eytsN6ZFailITK8BAPLgAsIxAkUG", "width": 4032}], "place_id": "ChIJo72PK45w2EcRjlIJQM5ukW0", "plus_code": {"compound_code": "643M+R4 Cambridge, United Kingdom", "global_code": "9F42643M+R4"}, "price_level": 2, "rating": 4.2, "reference": "ChIJo72PK45w2EcRjlIJQM5ukW0", "scope": "GOOGLE", "types": ["restaurant", "food", "point_of_interest", "establishment"], "user_ratings_total": 1085, "vicinity": "5 Dover St, Cambridge"}, {"business_status": "OPERATIONAL", "geometry": {"location": {"lat": 52.2105375, "lng": 0.1132782}, "viewport": {"northeast": {"lat": 52.21185087989272, "lng": 0.1145546798927222}, "southwest": {"lat": 52.20915122010727, "lng": 0.1118550201072778}}}, "icon": "https://maps.gstatic.com/mapfiles/place_api/icons/v1/png_71/bar-71.png", "icon_background_color": "#FF9E67", "icon_mask_base_uri": "https://maps.gstatic.com/mapfiles/place_api/icons/v2/bar_pinlet", "name": "The Punter", "opening_hours": {"open_now": true}, "photos": [{"height": 3024, "html_attributions": ["<a href=\"https://maps.google.com/maps/contrib/109680188903316748168\">Richard Poynder</a>"], "photo_reference": "AUc7tXVUUaoFzNRaI9gZ89i93n8EoHJOjyYFc7Zne_rhne_CUjWN4wy_IvvyML5gzPZowGkHm7VuW3OdINWF6xwUm02e5f-U9HB0whman0mF-hauCjLqZmHdPYoCWpUz6IC8c5w1tGZ0NorxQRxrXBqtg_jmltQbiPyhsvAdnN_pXjMixyg-", "width": 4032}], "place_id": "ChIJIwqxlbhw2EcRQYT52kWYXhQ", "plus_code": {"compound_code": "6467+67 Cambridge, United Kingdom", "global_code": "9F426467+67"}, "price_level": 2, "rating": 4.4, "reference": "ChIJIwqxlbhw2EcRQYT52kWYXhQ", "scope": "GOOGLE", "types": ["bar", "restaurant", "food", "point_of_interest", "establishment"], "user_ratings_total": 1307, "vicinity": "3 Pound Hill, Cambridge"}, {"business_status": "OPERATIONAL", "geometry": {"location": {"lat": 52.2098963, "lng": 0.1161856}, "viewport": {"northeast": {"lat": 52.21129687989272, "lng": 0.1176067298927222}, "southwest": {"lat": 52.20859722010727, "lng": 0.1149070701072778}}}, "icon": "https://maps.gstatic.com/mapfiles/place_api/icons/v1/png_71/bar-71.png", "icon_background_color": "#FF9E67", "icon_mask_base_uri": "https://maps.gstatic.com/mapfiles/place_api/icons/v2/bar_pinlet", "name": "Pickerel", "opening_hours": {"open_now": true}, "photos": [{"height": 3024, "html_attributions": ["<a href=\"https://maps.google.com/maps/contrib/111395092967012145466\">Dar\u00edo S\u00e1ez</a>"], "photo_reference": "AUc7tXXqPounTeE_H4vhSjAPe3XpcG9UXG7wlzEZw0SHCqUsQVqpj4g2ddGyozWllfgVcH2i3Fvy0-oZOlC-sxe60_qRUHCTH3A9BEwqNH6RlTncMgBzZoHXbvx12puxa0izFV4R8AzmyZdOPRo1Dfeozo655oW3u_-AQ8wgpl7UkIuNTDF3", "width": 4032}], "place_id": "ChIJeWOQHr9w2EcR-xeWCw3pR7o", "plus_code": {"compound_code": "6458+XF Cambridge, United Kingdom", "global_code": "9F426458+XF"}, "price_level": 2, "rating": 4.4, "reference": "ChIJeWOQHr9w2EcR-xeWCw3pR7o", "scope": "GOOGLE", "types": ["bar", "restaurant", "food", "point_of_interest", "establishment"], "user_ratings_total": 627, "vicinity": "30 Magdalene St, Cambridge"}, {"business_status": "OPERATIONAL", "geometry": {"location": {"lat": 52.21373510000001, "lng": 0.1236094}, "viewport": {"northeast": {"lat": 52.21509977989272, "lng": 0.1249464298927222}, "southwest": {"lat": 52.21240012010728, "lng": 0.1222467701072778}}}, "icon": "https://maps.gstatic.com/mapfiles/place_api/icons/v1/png_71/bar-71.png", "icon_background_color": "#FF9E67", "icon_mask_base_uri": "https://maps.gstatic.com/mapfiles/place_api/icons/v2/bar_pinlet", "name": "Boathouse", "opening_hours": {"open_now": true}, "photos": [{"height": 2988, "html_attributions": ["<a href=\"https://maps.google.com/maps/contrib/101580161547655171018\">A Google User</a>"], "photo_reference": "AUc7tXXZ4btTwRh4gcL3Y-Obc7VnBibthaaoG9YyQ_ZM8BViB9ryUUFpLQQW7UY4uRm_pVM_mIS81FJT-bbjN9XIb8gcWEVGIREcPCsIpQS_N0ADmASItyMQNhjOidq335VAEKoO7b1U8bofMv3yIa7Y6xbUeEdLLSwQLwTns7V01F19VxQs", "width": 5312}], "place_id": "ChIJ25iyg79w2EcRhj_sUREHgxA", "plus_code": {"compound_code": "647F+FC Cambridge, United Kingdom", "global_code": "9F42647F+FC"}, "price_level": 2, "rating": 4, "reference": "ChIJ25iyg79w2EcRhj_sUREHgxA", "scope": "GOOGLE", "types": ["bar", "restaurant", "food", "point_of_interest", "establishment"], "user_ratings_total": 1498, "vicinity": "14 Chesterton Rd, Cambridge"}, {"business_status": "OPERATIONAL", "geometry": {"location": {"lat": 52.20885, "lng": 0.118175}, "viewport": {"northeast": {"lat": 52.21018192989272, "lng": 0.1194811798927222}, "southwest": {"lat": 52.20748227010728, "lng": 0.1167815201072778}}}, "icon": "https://maps.gstatic.com/mapfiles/place_api/icons/v1/png_71/bar-71.png", "icon_background_color": "#FF9E67", "icon_mask_base_uri": "https://maps.gstatic.com/mapfiles/place_api/icons/v2/bar_pinlet", "name": "The Mitre", "opening_hours": {"open_now": true}, "photos": [{"height": 3072, "html_attributions": ["<a href=\"https://maps.google.com/maps/contrib/111627171464890522858\">A Google User</a>"], "photo_reference": "AUc7tXW6KVM9macQ22pbY0wx-l6OHsTkJAd_-nxJeHMSBVfg_2x130ZwoIBtLZgqdTSDlQLsOmfqHj_qpnPKmUFlEn6J8EEWngSbFlBL4FaDPNRbsm_XQNRmMZZl74COQMEIqe8uKA6RzcFysdmCaGFdqJhGCOKCPSjFfm4yTwaCSa1hZYBX", "width": 4080}], "place_id": "ChIJD_e6RL5w2EcRH5b8O6iXBuo", "plus_code": {"compound_code": "6459+G7 Cambridge, United Kingdom", "global_code": "9F426459+G7"}, "price_level": 2, "rating": 4.3, "reference": "ChIJD_e6RL5w2EcRH5b8O6iXBuo", "scope": "GOOGLE", "types": ["bar", "point_of_interest", "establishment"], "user_ratings_total": 1343, "vicinity": "17 Bridge St, Cambridge"}, {"business_status": "OPERATIONAL", "geometry": {"location": {"lat": 52.2064208, "lng": 0.1199775}, "viewport": {"northeast": {"lat": 52.20781382989272, "lng": 0.1215618798927222}, "southwest": {"lat": 52.20511417010727, "lng": 0.1188622201072778}}}, "icon": "https://maps.gstatic.com/mapfiles/place_api/icons/v1/png_71/bar-71.png", "icon_background_color": "#FF9E67", "icon_mask_base_uri": "https://maps.gstatic.com/mapfiles/place_api/icons/v2/bar_pinlet", "name": "Town and Gown", "opening_hours": {"open_now": true}, "photos": [{"height": 2268, "html_attributions": ["<a href=\"https://maps.google.com/maps/contrib/101291861626748721113\">Said Zamzad</a>"], "photo_reference": "AUc7tXVzZ9nECbQop-OWXlLkRQaszJ9X3RJdl5joOFe2J-uz5AqiXyfjgB8gCyvV7rDkhWFosxDF8y2gSSG1gswpSmVOXllvRB8pJCsZwShNVRbPUjJCg3MLwg-jiImDvvJ-9ZaxrrLlWhZmYzKHa-zNGVpLHBpXox_c9Nu8TBsNoONFDJa_", "width": 4032}], "place_id": "ChIJnXM4H19x2EcR3lIxFeKpJl8", "plus_code": {"compound_code": "6449+HX Cambridge, United Kingdom", "global_code": "9F426449+HX"}, "price_level": 2, "rating": 4.5, "reference": "ChIJnXM4H19x2EcR3lIxFeKpJl8", "scope": "GOOGLE", "types": ["bar", "point_of_interest", "establishment"], "user_ratings_total": 667, "vicinity": "8 Market Passage, Cambridge"}, {"business_status": "OPERATIONAL", "geometry": {"location": {"lat": 52.19996339999999, "lng": 0.1269767}, "viewport": {"northeast": {"lat": 52.20128002989272, "lng": 0.1282310798927222}, "southwest": {"lat": 52.19858037010728, "lng": 0.1255314201072778}}}, "icon": "https://maps.gstatic.com/mapfiles/place_api/icons/v1/png_71/bar-71.png", "icon_background_color": "#FF9E67", "icon_mask_base_uri": "https://maps.gstatic.com/mapfiles/place_api/icons/v2/bar_pinlet", "name": "Prince Regent", "opening_hours": {"open_now": true}, "photos": [{"height": 2610, "html_attributions": ["<a href=\"https://maps.google.com/maps/contrib/103821710792103492095\">A Google User</a>"], "photo_reference": "AUc7tXWXQFNIQvZsXiuHuKRwhMizoZBoWdCWC5aqbGZI_3p6cZIVjW8_JmLPybT1c7W3Ydpdqbp7Guei7SbfO2W5fT26Qn_Colz7b2oBWOm9U5UuPWWvzCAe2nLn22aWnpt1Xb415Iba900Lpt3c4qaDxUxxhVMmkMmQxsb5AfLALQkOIfg3", "width": 4640}], "place_id": "ChIJO_D_JJpw2EcRP1HZtcn2JcI", "plus_code": {"compound_code": "54XG+XQ Cambridge, United Kingdom", "global_code": "9F4254XG+XQ"}, "price_level": 2, "rating": 4.1, "reference": "ChIJO_D_JJpw2EcRP1HZtcn2JcI", "scope": "GOOGLE", "types": ["bar", "restaurant", "food", "point_of_interest", "establishment"], "user_ratings_total": 1463, "vicinity": "91 Regent St, Cambridge"}, {"business_status": "OPERATIONAL", "geometry": {"location": {"lat": 52.19889149999999, "lng": 0.139109}, "viewport": {"northeast": {"lat": 52.20023607989272, "lng": 0.1404909298927222}, "southwest": {"lat": 52.19753642010728, "lng": 0.1377912701072778}}}, "icon": "https://maps.gstatic.com/mapfiles/place_api/icons/v1/png_71/bar-71.png", "icon_background_color": "#FF9E67", "icon_mask_base_uri": "https://maps.gstatic.com/mapfiles/place_api/icons/v2/bar_pinlet", "name": "Devonshire Arms", "opening_hours": {"open_now": true}, "photos": [{"height": 2570, "html_attributions": ["<a href=\"https://maps.google.com/maps/contrib/110046153411630751270\">lup sta</a>"], "photo_reference": "AUc7tXW3n8nxig_oCYMK4OK7DQKJW39qSIEeU8ZTg_JE5UH3-qDv_KUSWm0GfHLlunvhqjX9S5xkhNl6K15DQ1uCnkO86FDKctmW86KtEclmd143uUlgF66QWLkF8BpEiNwGaeA6qGJns6F_ykbC_mEbALMaJGfa1JbngrLCGuJ-hbaKtrcF", "width": 2786}], "place_id": "ChIJ53k1hoZw2EcRA_UgTRldnAI", "plus_code": {"compound_code": "54XQ+HJ Cambridge, United Kingdom", "global_code": "9F4254XQ+HJ"}, "price_level": 1, "rating": 4.4, "reference": "ChIJ53k1hoZw2EcRA_UgTRldnAI", "scope": "GOOGLE", "types": ["bar", "restaurant", "food", "point_of_interest", "establishment"], "user_ratings_total": 684, "vicinity": "1 Devonshire Rd, Cambridge"}, {"business_status": "OPERATIONAL", "geometry": {"location": {"lat": 52.2049734, "lng": 0.133527}, "viewport": {"northeast": {"lat": 52.20628222989273, "lng": 0.1349549798927222}, "southwest": {"lat": 52.20358257010729, "lng": 0.1322553201072778}}}, "icon": "https://maps.gstatic.com/mapfiles/place_api/icons/v1/png_71/bar-71.png", "icon_background_color": "#FF9E67", "icon_mask_base_uri": "https://maps.gstatic.com/mapfiles/place_api/icons/v2/bar_pinlet", "name": "Duke of Cambridge", "opening_hours": {"open_now": true}, "photos": [{"height": 5664, "html_attributions": ["<a href=\"https://maps.google.com/maps/contrib/112274346772935639303\">Darren Benson</a>"], "photo_reference": "AUc7tXXaUan6lwzXqTTPZA_c-eOywIvqyzZE7JCUtOiAJvy7nXQi4Kv2Y-29TLkY6EuLtdon9a8fvtqeOrgReY9TSr43QJXVIQr5iD9LtIgl6LFTEHK-9U8UM8Tnmx6R1_nAiPhc2wvdtAoXvHTcAWug7rugFV2AfyK46ZM0-otZgLfXvrSc", "width": 4248}], "place_id": "ChIJiZ72LY5w2EcRmMY59wY9nC4", "plus_code": {"compound_code": "643M+XC Cambridge, United Kingdom", "global_code": "9F42643M+XC"}, "price_level": 2, "rating": 3.8, "reference": "ChIJiZ72LY5w2EcRmMY59wY9nC4", "scope": "GOOGLE", "types": ["bar", "restaurant", "food", "point_of_interest", "establishment"], "user_ratings_total": 520, "vicinity": "176 East Rd, Cambridge"}, {"business_status": "OPERATIONAL", "geometry": {"location": {"lat": 52.19646059999999, "lng": 0.1250466}, "viewport": {"northeast": {"lat": 52.19781212989272, "lng": 0.1264342298927222}, "southwest": {"lat": 52.19511247010728, "lng": 0.1237345701072778}}}, "icon": "https://maps.gstatic.com/mapfiles/place_api/icons/v1/png_71/bar-71.png", "icon_background_color": "#FF9E67", "icon_mask_base_uri": "https://maps.gstatic.com/mapfiles/place_api/icons/v2/bar_pinlet", "name": "Panton Arms", "opening_hours": {"open_now": true}, "photos": [{"height": 3024, "html_attributions": ["<a href=\"https://maps.google.com/maps/contrib/103216918391580312164\">A Google User</a>"], "photo_reference": "AUc7tXVmFGkn-iucOt7Cs74mQjVBjI1WqAHzwGJr7UwV5go04IbPzdpzRkqMiMc4njESDT6FzsKG8e-FePo-ko7ycMXjzZpf9Dp4QgDRd4PWz8SYsVeYT4l8p2MV1IqHSuMFNWnMSSSKOH1Uxknd_KoltB12Kxzy93gwkmT8ykAckDKj844a", "width": 4032}], "place_id": "ChIJD2IVtZ5w2EcRGYmc0RTnLok", "plus_code": {"compound_code": "54WG+H2 Cambridge, United Kingdom", "global_code": "9F4254WG+H2"}, "price_level": 2, "rating": 4.3, "reference": "ChIJD2IVtZ5w2EcRGYmc0RTnLok", "scope": "GOOGLE", "types": ["bar", "point_of_interest", "establishment"], "user_ratings_total": 520, "vicinity": "43 Panton St, Cambridge"}, {"business_status": "OPERATIONAL", "geometry": {"location": {"lat": 52.2144396, "lng": 0.1247154}, "viewport": {"northeast": {"lat": 52.21572747989272, "lng": 0.1259874798927222}, "southwest": {"lat": 52.21302782010728, "lng": 0.1232878201072778}}}, "icon": "https://maps.gstatic.com/mapfiles/place_api/icons/v1/png_71/bar-71.png", "icon_background_color": "#FF9E67", "icon_mask_base_uri": "https://maps.gstatic.com/mapfiles/place_api/icons/v2/bar_pinlet", "name": "The Portland Arms", "opening_hours": {"open_now": true}, "photos": [{"height": 2448, "html_attributions": ["<a href=\"https://maps.google.com/maps/contrib/104352226038977973538\">Lisa Davies</a>"], "photo_reference": "AUc7tXXcWnooEmTLPiwYVWjc4ZhH2GxwDKyjGmbLnmqKgytzvGWj21elWED60y-Wts_UVw12RHdoKj3Ql9LL2Lgyvtei225MMAMmSllRu09hWIWIFL9t3LPX4Is67mOhmFe8PTxN0EDGhBlQwTWk4karTJyaNWXkAQ2Z7WlY5fTDvkCAOweN", "width": 3264}], "place_id": "ChIJ8QLgEetw2EcRkEQp5VqEY9w", "plus_code": {"compound_code": "647F+QV Cambridge, United Kingdom", "global_code": "9F42647F+QV"}, "price_level": 2, "rating": 4.5, "reference": "ChIJ8QLgEetw2EcRkEQp5VqEY9w", "scope": "GOOGLE", "types": ["bar", "point_of_interest", "establishment"], "user_ratings_total": 1015, "vicinity": "129 Chesterton Rd, Cambridge"}, {"business_status": "OPERATIONAL", "geometry": {"location": {"lat": 52.198375, "lng": 0.1352455}, "viewport": {"northeast": {"lat": 52.19974657989272, "lng": 0.1365148298927222}, "southwest": {"lat": 52.19704692010727, "lng": 0.1338151701072778}}}, "icon": "https://maps.gstatic.com/mapfiles/place_api/icons/v1/png_71/bar-71.png", "icon_background_color": "#FF9E67", "icon_mask_base_uri": "https://maps.gstatic.com/mapfiles/place_api/icons/v2/bar_pinlet", "name": "Salisbury Arms, Cambridge", "opening_hours": {"open_now": true}, "photos": [{"height": 1733, "html_attributions": ["<a href=\"https://maps.google.com/maps/contrib/111641633228878447734\">A Google User</a>"], "photo_reference": "AUc7tXUAgvE6-2y_WN0zGc0pAWv1oRcwheA3UcS7jzyVNecvM8XXaxe7gAhWzNfqIgu2vIIcbfu38eFgCLLdTxY88YIaljx74USzu77lpu1JXPT3tyjplZCICeh5m0UWfh3FG5tN1lQ8zJ9fVaSHzbAAnI63HFaiSpwGxIwFrfSFGfy4_bDE", "width": 2600}], "place_id": "ChIJZfyBWIRw2EcR5PyUe8Lm13k", "plus_code": {"compound_code": "54XP+83 Cambridge, United Kingdom", "global_code": "9F4254XP+83"}, "price_level": 2, "rating": 4.5, "reference": "ChIJZfyBWIRw2EcR5PyUe8Lm13k", "scope": "GOOGLE", "types": ["bar", "restaurant", "food", "point_of_interest", "establishment"], "user_ratings_total": 1457, "vicinity": "76 Tenison Rd, Cambridge"}, {"business_status": "OPERATIONAL", "geometry": {"location": {"lat": 52.20480689999999, "lng": 0.130448}, "viewport": {"northeast": {"lat": 52.20611717989271, "lng": 0.1317121798927222}, "southwest": {"lat": 52.20341752010727, "lng": 0.1290125201072778}}}, "icon": "https://maps.gstatic.com/mapfiles/place_api/icons/v1/png_71/bar-71.png", "icon_background_color": "#FF9E67", "icon_mask_base_uri": "https://maps.gstatic.com/mapfiles/place_api/icons/v2/bar_pinlet", "name": "The Free Press", "opening_hours": {"open_now": true}, "photos": [{"height": 3024, "html_attributions": ["<a href=\"https://maps.google.com/maps/contrib/110942665637071136988\">Robert Ma\u0142ki\u0144ski</a>"], "photo_reference": "AUc7tXUUhpjSI18IXJdNjgsu8_Zg8avnDY_rHQ0soowgg6yagBuYTzA9NkeUY3s5pXZiUiMxs-OffHDHoK2Zy0BUxfm10rGoz4dcsjA3mi0cN6V1qR_-pZFwByfqn3x8_UkWOF3OBFuqpVgKX_hLCPnpCuSwHPEa68_YNuMSGa7Ch2SVB9ss", "width": 4032}], "place_id": "ChIJoQ8pspFw2EcRzt6kkntQRdc", "plus_code": {"compound_code": "643J+W5 Cambridge, United Kingdom", "global_code": "9F42643J+W5"}, "price_level": 2, "rating": 4.6, "reference": "ChIJoQ8pspFw2EcRzt6kkntQRdc", "scope": "GOOGLE", "types": ["bar", "point_of_interest", "establishment"], "user_ratings_total": 1032, "vicinity": "7 Prospect Row, Cambridge"}, {"business_status": "OPERATIONAL", "geometry": {"location": {"lat": 52.2074402, "lng": 0.122225}, "viewport": {"northeast": {"lat": 52.20877247989272, "lng": 0.1235358798927222}, "southwest": {"lat": 52.20607282010727, "lng": 0.1208362201072778}}}, "icon": "https://maps.gstatic.com/mapfiles/place_api/icons/v1/png_71/bar-71.png", "icon_background_color": "#FF9E67", "icon_mask_base_uri": "https://maps.gstatic.com/mapfiles/place_api/icons/v2/bar_pinlet", "name": "The Cambridge Brew House", "opening_hours": {"open_now": true}, "photos": [{"height": 2610, "html_attributions": ["<a href=\"https://maps.google.com/maps/contrib/107692115923077663223\">OMA Wachter</a>"], "photo_reference": "AUc7tXXUUU65t9DEc8TyBmrHwV60o-IGAW56R6OOuVgN290pskaC9JXFY75Kjxv3hplq6PJ2aAQIMcnLLAGs35YqL1VdJ2-wyhHUmwAicLs2B6ivWKG0fB5TRie_NQRXpQnzTbc-r7riczMdPAo--V0Qf7ADvnG7JVVcIRUTGrCcMQzbONkm", "width": 4640}], "place_id": "ChIJMUek3pVw2EcRDhoCVqqsBG4", "plus_code": {"compound_code": "644C+XV Cambridge, United Kingdom", "global_code": "9F42644C+XV"}, "price_level": 2, "rating": 4.2, "reference": "ChIJMUek3pVw2EcRDhoCVqqsBG4", "scope": "GOOGLE", "types": ["bar", "restaurant", "food", "point_of_interest", "establishment"], "user_ratings_total": 2441, "vicinity": "1 King St, Cambridge"}, {"business_status": "OPERATIONAL", "geometry": {"location": {"lat": 52.2082068, "lng": 0.1328358}, "viewport": {"northeast": {"lat": 52.20952802989272, "lng": 0.1341468298927222}, "southwest": {"lat": 52.20682837010728, "lng": 0.1314471701072778}}}, "icon": "https://maps.gstatic.com/mapfiles/place_api/icons/v1/png_71/bar-71.png", "icon_background_color": "#FF9E67", "icon_mask_base_uri": "https://maps.gstatic.com/mapfiles/place_api/icons/v2/bar_pinlet", "name": "The Burleigh Arms", "opening_hours": {"open_now": true}, "photos": [{"height": 1182, "html_attributions": ["<a href=\"https://maps.google.com/maps/contrib/109712272494458660158\">A Google User</a>"], "photo_reference": "AUc7tXXLjYCRDz_9S3ZDwbqSVri7o94YKcovnNdV6KqKrael4_ieZ4lHnYtfakKA6J4T_LaCUT5EElh4BD9xhtEweVOJ7it_2scwqgEIE-OXxUYR27aMCcnjPQBC62mk3wGnf7mVobMJmgNhIGJ5Wv9luDdegr3wcK58uPVeuOwP7E_rDQVN", "width": 1773}], "place_id": "ChIJJyve6o1w2EcRRtuselRdqvw", "plus_code": {"compound_code": "645M+74 Cambridge, United Kingdom", "global_code": "9F42645M+74"}, "price_level": 2, "rating": 4.3, "reference": "ChIJJyve6o1w2EcRRtuselRdqvw", "scope": "GOOGLE", "types": ["bar", "restaurant", "food", "point_of_interest", "establishment"], "user_ratings_total": 552, "vicinity": "9-11 Newmarket Rd, Cambridge"}, {"business_status": "OPERATIONAL", "geometry": {"location": {"lat": 52.2023463, "lng": 0.1392447}, "viewport": {"northeast": {"lat": 52.20371552989273, "lng": 0.1406096298927222}, "southwest": {"lat": 52.20101587010728, "lng": 0.1379099701072778}}}, "icon": "https://maps.gstatic.com/mapfiles/place_api/icons/v1/png_71/bar-71.png", "icon_background_color": "#FF9E67", "icon_mask_base_uri": "https://maps.gstatic.com/mapfiles/place_api/icons/v2/bar_pinlet", "name": "The Cambridge Blue", "opening_hours": {"open_now": true}, "photos": [{"height": 3456, "html_attributions": ["<a href=\"https://maps.google.com/maps/contrib/103661426962001045989\">Barry</a>"], "photo_reference": "AUc7tXV7DmUOC21njf7NYcj_srzntUk1Wvpmc-zyGwTnpcCfH_G1O_7fPf0ulr5hTHVuN_3XL4T14z0OtFifAesJfb_UT9EMFcGxIQeKAE9wcYsFrSEv_Y8_DMaVRztPgYAxMz8vr2F3ev44mm75EeWjMZgmCk56X7mteu3pJ3EhpVYIlN0_", "width": 4608}], "place_id": "ChIJ27JTpYhw2EcRYHL-HGV1cz8", "plus_code": {"compound_code": "642Q+WM Cambridge, United Kingdom", "global_code": "9F42642Q+WM"}, "price_level": 2, "rating": 4.5, "reference": "ChIJ27JTpYhw2EcRYHL-HGV1cz8", "scope": "GOOGLE", "types": ["bar", "restaurant", "food", "point_of_interest", "establishment"], "user_ratings_total": 2212, "vicinity": "85-87 Gwydir St, Cambridge"}, {"business_status": "OPERATIONAL", "geometry": {"location": {"lat": 52.2157278, "lng": 0.1142899}, "viewport": {"northeast": {"lat": 52.21705077989272, "lng": 0.1156432298927222}, "southwest": {"lat": 52.21435112010728, "lng": 0.1129435701072777}}}, "icon": "https://maps.gstatic.com/mapfiles/place_api/icons/v1/png_71/bar-71.png", "icon_background_color": "#FF9E67", "icon_mask_base_uri": "https://maps.gstatic.com/mapfiles/place_api/icons/v2/bar_pinlet", "name": "Carpenters Arms, Cambridge", "opening_hours": {"open_now": true}, "photos": [{"height": 3642, "html_attributions": ["<a href=\"https://maps.google.com/maps/contrib/109592278172594643907\">A Google User</a>"], "photo_reference": "AUc7tXVRNGvSePcHHT8nybrH-VBmqalUWlv4wH2VzVZexfJG-HOR4z1Hkqq1dLQRZUVCpHRfGOzONJ3L4qzN969zTiAUrZDw1kX6OdBazUK5YyuDy19viO3xlx3dOs8KPpsVempL1YE07q1kYLQQCJyrhK-e-gnamZDO6MeqrUQP1-I4U087", "width": 5463}], "place_id": "ChIJ132o0sZw2EcR5UK-KWYC7D4", "plus_code": {"compound_code": "6487+7P Cambridge, United Kingdom", "global_code": "9F426487+7P"}, "price_level": 2, "rating": 4.6, "reference": "ChIJ132o0sZw2EcR5UK-KWYC7D4", "scope": "GOOGLE", "types": ["bar", "point_of_interest", "establishment"], "user_ratings_total": 849, "vicinity": "184-186 Victoria Rd, Arbury, Cambridge"}, {"business_status": "OPERATIONAL", "geometry": {"location": {"lat": 52.2096674, "lng": 0.1192446}, "viewport": {"northeast": {"lat": 52.21099732989273, "lng": 0.1207473798927222}, "southwest": {"lat": 52.20829767010729, "lng": 0.1180477201072778}}}, "icon": "https://maps.gstatic.com/mapfiles/place_api/icons/v1/png_71/bar-71.png", "icon_background_color": "#FF9E67", "icon_mask_base_uri": "https://maps.gstatic.com/mapfiles/place_api/icons/v2/bar_pinlet", "name": "The Maypole", "opening_hours": {"open_now": true}, "photos": [{"height": 1440, "html_attributions": ["<a href=\"https://maps.google.com/maps/contrib/105608776313185848758\">Kaddy</a>"], "photo_reference": "AUc7tXU5EIAJpU8ikMmOTQqyEW_yWDj1drVzOufB8DzN3EhvXtSo1nsB53LrHvPwCuOd00JWsxdQyZwRnnnWa1EEzSD-IV0HG5oOf16c0hDNw_U4qUu51EihGmn71VlOds5uNsQfDM_XQIG-r0t2cHz4oI4a7GpHV4lhdcd0P3Ll1rExauMC", "width": 2560}], "place_id": "ChIJQ1BlSb5w2EcRtgwAwphgP_o", "plus_code": {"compound_code": "6459+VM Cambridge, United Kingdom", "global_code": "9F426459+VM"}, "price_level": 2, "rating": 4.4, "reference": "ChIJQ1BlSb5w2EcRtgwAwphgP_o", "scope": "GOOGLE", "types": ["bar", "point_of_interest", "establishment"], "user_ratings_total": 1584, "vicinity": "20A Portugal Pl, Cambridge"}, {"business_status": "OPERATIONAL", "geometry": {"location": {"lat": 52.2089396, "lng": 0.1181362}, "viewport": {"northeast": {"lat": 52.21024837989272, "lng": 0.1194149798927222}, "southwest": {"lat": 52.20754872010728, "lng": 0.1167153201072778}}}, "icon": "https://maps.gstatic.com/mapfiles/place_api/icons/v1/png_71/bar-71.png", "icon_background_color": "#FF9E67", "icon_mask_base_uri": "https://maps.gstatic.com/mapfiles/place_api/icons/v2/bar_pinlet", "name": "Baron of Beef", "opening_hours": {"open_now": true}, "photos": [{"height": 1200, "html_attributions": ["<a href=\"https://maps.google.com/maps/contrib/108389052947431846104\">Peter Miko</a>"], "photo_reference": "AUc7tXXif8BvNsQ2tHzzcxIqqlOnB1rZGkM2eG9WooILV9Xm2Xo9T1QuIYZ81hiqTh4CZqvfPdwJEo-PLzDbEHMBXUzjUFPL_1WWeSwWykzsrxmsgUCIFvaZEl4pg2eyQguYwlLbbGevvEyGHg3k3ypwxweQaQmACfQZ7RfFR8RDIT03feda", "width": 1200}], "place_id": "ChIJVeAxW75w2EcRkM91IuEN_oU", "plus_code": {"compound_code": "6459+H7 Cambridge, United Kingdom", "global_code": "9F426459+H7"}, "price_level": 2, "rating": 4.1, "reference": "ChIJVeAxW75w2EcRkM91IuEN_oU", "scope": "GOOGLE", "types": ["bar", "restaurant", "food", "point_of_interest", "establishment"], "user_ratings_total": 1179, "vicinity": "19 Bridge St, Cambridge"}, {"business_status": "OPERATIONAL", "geometry": {"location": {"lat": 52.2003527, "lng": 0.1397641}, "viewport": {"northeast": {"lat": 52.20169907989273, "lng": 0.1411492798927222}, "southwest": {"lat": 52.19899942010728, "lng": 0.1384496201072778}}}, "icon": "https://maps.gstatic.com/mapfiles/place_api/icons/v1/png_71/bar-71.png", "icon_background_color": "#FF9E67", "icon_mask_base_uri": "https://maps.gstatic.com/mapfiles/place_api/icons/v2/bar_pinlet", "name": "Kingston Arms", "opening_hours": {"open_now": true}, "photos": [{"height": 4032, "html_attributions": ["<a href=\"https://maps.google.com/maps/contrib/107744351588617958459\">A Google User</a>"], "photo_reference": "AUc7tXVuD2tIImJkk-r56VEukixaAIuni38Els0amfrMuFwu5HeUatZ7Hgwx0s9u3xtav37o1LZWzxdMmD7KKLN8dD0eWGfbiNtvjHlJ0JasQczF_ZEhGNRw6l55ktFb5igda3IgxjkxMLOwp4ds_IdVNhvIOtTsJsXmSaadmAx_4uPiYt8r", "width": 3024}], "place_id": "ChIJlyDeaoZw2EcRhttvbHQzwW0", "plus_code": {"compound_code": "642Q+4W Cambridge, United Kingdom", "global_code": "9F42642Q+4W"}, "price_level": 2, "rating": 4.6, "reference": "ChIJlyDeaoZw2EcRhttvbHQzwW0", "scope": "GOOGLE", "types": ["bar", "restaurant", "food", "point_of_interest", "establishment"], "user_ratings_total": 201, "vicinity": "33 Kingston St, Cambridge"}, {"business_status": "OPERATIONAL", "geometry": {"location": {"lat": 52.2012763, "lng": 0.1406381}, "viewport": {"northeast": {"lat": 52.20262612989273, "lng": 0.1419838298927222}, "southwest": {"lat": 52.19992647010729, "lng": 0.1392841701072778}}}, "icon": "https://maps.gstatic.com/mapfiles/place_api/icons/v1/png_71/bar-71.png", "icon_background_color": "#FF9E67", "icon_mask_base_uri": "https://maps.gstatic.com/mapfiles/place_api/icons/v2/bar_pinlet", "name": "The Petersfield", "opening_hours": {"open_now": true}, "photos": [{"height": 787, "html_attributions": ["<a href=\"https://maps.google.com/maps/contrib/112120107636287301587\">The Petersfield</a>"], "photo_reference": "AUc7tXVUv25iSkI3Kb3fduLKUxNmpJkGWC8Zmn05a_d4Ykop1yY-i9tkAriwsqOjgmiKfTaPw80uS62R-u4gEZ1gi5CXo-BHAw5HcpMqJnZf1Vk1Ux1ZKj6FzhO0Fk-HWhhzZVFrLG8ASriCeeLWzLjDGHPN3rG_UBzmcgNL5DIT-hrJUITG", "width": 1400}], "place_id": "ChIJg8dYj4hw2EcRYXcmaYjsCAU", "plus_code": {"compound_code": "642R+G7 Cambridge, United Kingdom", "global_code": "9F42642R+G7"}, "price_level": 2, "rating": 4.4, "reference": "ChIJg8dYj4hw2EcRYXcmaYjsCAU", "scope": "GOOGLE", "types": ["bar", "point_of_interest", "establishment"], "user_ratings_total": 1015, "vicinity": "2 Sturton St, Cambridge"}, {"business_status": "OPERATIONAL", "geometry": {"location": {"lat": 52.2174707, "lng": 0.1393103}, "viewport": {"northeast": {"lat": 52.21882837989272, "lng": 0.1406944798927222}, "southwest": {"lat": 52.21612872010728, "lng": 0.1379948201072778}}}, "icon": "https://maps.gstatic.com/mapfiles/place_api/icons/v1/png_71/bar-71.png", "icon_background_color": "#FF9E67", "icon_mask_base_uri": "https://maps.gstatic.com/mapfiles/place_api/icons/v2/bar_pinlet", "name": "The Haymakers", "opening_hours": {"open_now": true}, "photos": [{"height": 3024, "html_attributions": ["<a href=\"https://maps.google.com/maps/contrib/114005052144439249039\">Rich Wareham</a>"], "photo_reference": "AUc7tXUdYiULrXDoW1eoAp25SLGVPbIdJJqGjPJOhs8s2C8fj8PpZ-UVdkvvUoCOgRNJuIzI9V65cRh2ooxPXRQLUWMuu6ufydgFYieuj_P8uRVIXchtQn6_fCS0hku9UvmwLUUj9gtZ55fQ_GxVDqNSp4CVi5mFmO1o5b0LfrmGP-z31Wlq", "width": 4032}], "place_id": "ChIJC8HQHfRw2EcRzEZk4t997mU", "plus_code": {"compound_code": "648Q+XP Cambridge, United Kingdom", "global_code": "9F42648Q+XP"}, "price_level": 2, "rating": 4.5, "reference": "ChIJC8HQHfRw2EcRzEZk4t997mU", "scope": "GOOGLE", "types": ["bar", "point_of_interest", "establishment"], "user_ratings_total": 1137, "vicinity": "54 High St, Chesterton, Cambridge"}, {"business_status": "OPERATIONAL", "geometry": {"location": {"lat": 52.2036733, "lng": 0.1422058}, "viewport": {"northeast": {"lat": 52.20503797989272, "lng": 0.1435782798927222}, "southwest": {"lat": 52.20233832010728, "lng": 0.1408786201072778}}}, "icon": "https://maps.gstatic.com/mapfiles/place_api/icons/v1/png_71/bar-71.png", "icon_background_color": "#FF9E67", "icon_mask_base_uri": "https://maps.gstatic.com/mapfiles/place_api/icons/v2/bar_pinlet", "name": "The Geldart", "opening_hours": {"open_now": true}, "photos": [{"height": 3024, "html_attributions": ["<a href=\"https://maps.google.com/maps/contrib/109303666127413634748\">Philipp von Bieberstein</a>"], "photo_reference": "AUc7tXUyGm90eZL_o2VYvPQDdYHTO46LIeqo70pCkZe995g3FneiKxVVqhfzCGRH5fud3r6scTM3tdP-CqUMR4bvFbR84ZOkkD4LE69p4jj6cHI_qExk4Cneu4T4C9c-w76viBt2UAa9hDc0D8eQBrWZE40q1aQa47kHICTf5xWEkGtWkdlC", "width": 4032}], "place_id": "ChIJyVeNZIhw2EcRYON_7l5SKGg", "plus_code": {"compound_code": "643R+FV Cambridge, United Kingdom", "global_code": "9F42643R+FV"}, "price_level": 2, "rating": 4.6, "reference": "ChIJyVeNZIhw2EcRYON_7l5SKGg", "scope": "GOOGLE", "types": ["bar", "restaurant", "food", "point_of_interest", "establishment"], "user_ratings_total": 627, "vicinity": "1 Ainsworth St, Cambridge"}, {"business_status": "OPERATIONAL", "geometry": {"location": {"lat": 52.1951877, "lng": 0.1314484}, "viewport": {"northeast": {"lat": 52.19646822989272, "lng": 0.1328133798927222}, "southwest": {"lat": 52.19376857010728, "lng": 0.1301137201072778}}}, "icon": "https://maps.gstatic.com/mapfiles/place_api/icons/v1/png_71/bar-71.png", "icon_background_color": "#FF9E67", "icon_mask_base_uri": "https://maps.gstatic.com/mapfiles/place_api/icons/v2/bar_pinlet", "name": "SLINGERS Smokeworks Station Road", "opening_hours": {"open_now": true}, "photos": [{"height": 3024, "html_attributions": ["<a href=\"https://maps.google.com/maps/contrib/112075358060191106918\">Chris Wilding</a>"], "photo_reference": "AUc7tXUq9IlTwbZxL0g_CeNTLOxEZkHibSbXauHxKY9M5ehpzkLzmRvHlf7xwWwXPBRZ6J9ImYNaPRbEnN9ij44sr6hTdnINZhn_oOREehFp1uou-63mPMf4dfs9Vz_Ree2e1XMjrb6IrECmDbB5HYdZ2K9cVBKXNcjB4hgvVTiJLvSrFaw4", "width": 4032}], "place_id": "ChIJ4auOx5xw2EcRJnak1h7yS6Q", "plus_code": {"compound_code": "54WJ+3H Cambridge, United Kingdom", "global_code": "9F4254WJ+3H"}, "price_level": 2, "rating": 4.4, "reference": "ChIJ4auOx5xw2EcRJnak1h7yS6Q", "scope": "GOOGLE", "types": ["bar", "restaurant", "food", "point_of_interest", "establishment"], "user_ratings_total": 1194, "vicinity": "1-3 Station Rd, Cambridge"}, {"business_status": "OPERATIONAL", "geometry": {"location": {"lat": 52.2047861, "lng": 0.1367205}, "viewport": {"northeast": {"lat": 52.20611517989272, "lng": 0.1380050298927222}, "southwest": {"lat": 52.20341552010727, "lng": 0.1353053701072778}}}, "icon": "https://maps.gstatic.com/mapfiles/place_api/icons/v1/png_71/bar-71.png", "icon_background_color": "#FF9E67", "icon_mask_base_uri": "https://maps.gstatic.com/mapfiles/place_api/icons/v2/bar_pinlet", "name": "The Blue Moon", "opening_hours": {"open_now": true}, "photos": [{"height": 3456, "html_attributions": ["<a href=\"https://maps.google.com/maps/contrib/113377397798771444847\">Julia Holt</a>"], "photo_reference": "AUc7tXXeEXRAg4TQttk7cxJwhOdeMN-ZOndcCpqthm9d6amT-ZutEblktxc0KBUn5zcgrxEHPibwh-DGMzDBnFUtWurayysDAZStpCuUN9AzFsgNY2iPrU8wi_X3x2ZoJQhANCFvUAHuaasz-SOLUSiMgaspPYvfXKSXI16PNUKInqBq0_QF", "width": 4608}], "place_id": "ChIJgWj41o5w2EcRQDGd3KkJmBA", "plus_code": {"compound_code": "643P+WJ Cambridge, United Kingdom", "global_code": "9F42643P+WJ"}, "price_level": 2, "rating": 4.4, "reference": "ChIJgWj41o5w2EcRQDGd3KkJmBA", "scope": "GOOGLE", "types": ["bar", "point_of_interest", "establishment"], "user_ratings_total": 965, "vicinity": "2 Norfolk St, Cambridge"}, {"business_status": "OPERATIONAL", "geometry": {"location": {"lat": 52.21344509999999, "lng": 0.1120227}, "viewport": {"northeast": {"lat": 52.21479162989272, "lng": 0.1133762798927222}, "southwest": {"lat": 52.21209197010728, "lng": 0.1106766201072778}}}, "icon": "https://maps.gstatic.com/mapfiles/place_api/icons/v1/png_71/bar-71.png", "icon_background_color": "#FF9E67", "icon_mask_base_uri": "https://maps.gstatic.com/mapfiles/place_api/icons/v2/bar_pinlet", "name": "Sir Isaac Newton", "opening_hours": {"open_now": true}, "photos": [{"height": 2173, "html_attributions": ["<a href=\"https://maps.google.com/maps/contrib/117138012625219004446\">Steven Assimo</a>"], "photo_reference": "AUc7tXWlwhQ2n9e4z2YJJqqDKjyQzeloLwr-ef1a5Bm45ZfE38-fPIKWcjOyfW5DxBr9FP1cu9qf11ISdxEMxUp3zwEnSSwHAU-zoE1FAj0xXrH_9i8Ol_KCeSPOIwgJ2-IDgVr1751RUC_ZQLeMXaAUBpfYQvspPTsrYGFx2g__CjI--ku9", "width": 1080}], "place_id": "ChIJsRQhcsdw2EcRyRqRC7uno-Y", "plus_code": {"compound_code": "6476+9R Cambridge, United Kingdom", "global_code": "9F426476+9R"}, "price_level": 2, "rating": 4.2, "reference": "ChIJsRQhcsdw2EcRyRqRC7uno-Y", "scope": "GOOGLE", "types": ["bar", "point_of_interest", "establishment"], "user_ratings_total": 515, "vicinity": "84 Castle St, Cambridge"}, {"business_status": "OPERATIONAL", "geometry": {"location": {"lat": 52.2119306, "lng": 0.1135003}, "viewport": {"northeast": {"lat": 52.21334862989272, "lng": 0.1147669798927222}, "southwest": {"lat": 52.21064897010728, "lng": 0.1120673201072778}}}, "icon": "https://maps.gstatic.com/mapfiles/place_api/icons/v1/png_71/bar-71.png", "icon_background_color": "#FF9E67", "icon_mask_base_uri": "https://maps.gstatic.com/mapfiles/place_api/icons/v2/bar_pinlet", "name": "The Castle Inn", "opening_hours": {"open_now": true}, "photos": [{"height": 2340, "html_attributions": ["<a href=\"https://maps.google.com/maps/contrib/101882506623665096222\">John Tsimperidis</a>"], "photo_reference": "AUc7tXWXIEdrKSG4fyeI7DoD7UOwHv8sO6MXG_1sDjYIfMhd__XltISRxKayfEpFsAeSscUizva2uWYSvDp6L1h4LhYpArCBRuJ5U1cRhPpUUWT2zhfTPpZxLZrXXTeE_xdzrodwhEi7-4_zojH0TF8hMHN8U5JRNVzzg1sSkGRG-dI7TtGU", "width": 4160}], "place_id": "ChIJoccoXsdw2EcROG63agLdFi4", "plus_code": {"compound_code": "6467+QC Cambridge, United Kingdom", "global_code": "9F426467+QC"}, "price_level": 2, "rating": 4.3, "reference": "ChIJoccoXsdw2EcROG63agLdFi4", "scope": "GOOGLE", "types": ["bar", "point_of_interest", "establishment"], "user_ratings_total": 829, "vicinity": "The Castle Inn, 38 Castle St, Cambridge"}, {"business_status": "OPERATIONAL", "geometry": {"location": {"lat": 52.2072554, "lng": 0.1252938}, "viewport": {"northeast": {"lat": 52.20861312989273, "lng": 0.1266441798927222}, "southwest": {"lat": 52.20591347010728, "lng": 0.1239445201072778}}}, "icon": "https://maps.gstatic.com/mapfiles/place_api/icons/v1/png_71/bar-71.png", "icon_background_color": "#FF9E67", "icon_mask_base_uri": "https://maps.gstatic.com/mapfiles/place_api/icons/v2/bar_pinlet", "name": "The King Street Run", "opening_hours": {"open_now": true}, "photos": [{"height": 5312, "html_attributions": ["<a href=\"https://maps.google.com/maps/contrib/113427949235640769346\">Jon W</a>"], "photo_reference": "AUc7tXVVRHm44kvLc_e0k98coXtFnL4hA7c7AabLsx6uclCXbvXC0qHDfvn7uaKxWIm3tjPiHX56tTV1R4FEUNWvKXS_UJTNZWQsPh6fSZf6j50qO87iCqdjRV37ete8HmlgY61oQzLyMT1uTzUbt8sdjmak-2DdlMmyiFbU5rYo1AL5QSBc", "width": 2988}], "place_id": "ChIJIVeFHpRw2EcRCFTACrQlQtQ", "plus_code": {"compound_code": "644G+V4 Cambridge, United Kingdom", "global_code": "9F42644G+V4"}, "price_level": 2, "rating": 4.2, "reference": "ChIJIVeFHpRw2EcRCFTACrQlQtQ", "scope": "GOOGLE", "types": ["bar", "point_of_interest", "establishment"], "user_ratings_total": 459, "vicinity": "86 King St, Cambridge"}, {"business_status": "OPERATIONAL", "geometry": {"location": {"lat": 52.2034406, "lng": 0.1234443}, "viewport": {"northeast": {"lat": 52.20479457989272, "lng": 0.1247331798927222}, "southwest": {"lat": 52.20209492010728, "lng": 0.1220335201072778}}}, "icon": "https://maps.gstatic.com/mapfiles/place_api/icons/v1/png_71/bar-71.png", "icon_background_color": "#FF9E67", "icon_mask_base_uri": "https://maps.gstatic.com/mapfiles/place_api/icons/v2/bar_pinlet", "name": "The Cambridge Tap", "opening_hours": {"open_now": true}, "photos": [{"height": 4000, "html_attributions": ["<a href=\"https://maps.google.com/maps/contrib/118118800528566811474\">Nithin John</a>"], "photo_reference": "AUc7tXWdETvoL9-AWTv4e7Q7GJR6zTRwZzxe4EQtocvPFvVfUwLKy93qMgN3eW_IgiFtP9Ojok_PlToa3F5USyu42QJ8xSr_TU0-9h-PgpRvKPsAjz5OKyZHpQOp9Mo-HUZD_KJltMlLk-eaJR9aIb1qnC0MHS38PgsS6AhDahX6e8_SCCKc", "width": 3000}], "place_id": "ChIJe5-XKpxx2EcR8d9y7eO2EI8", "plus_code": {"compound_code": "643F+99 Cambridge, United Kingdom", "global_code": "9F42643F+99"}, "rating": 4.3, "reference": "ChIJe5-XKpxx2EcR8d9y7eO2EI8", "scope": "GOOGLE", "types": ["bar", "point_of_interest", "establishment"], "user_ratings_total": 343, "vicinity": "32 St Andrew's St, Cambridge"}, {"business_status": "OPERATIONAL", "geometry": {"location": {"lat": 52.19933040000001, "lng": 0.1351458}, "viewport": {"northeast": {"lat": 52.20067722989272, "lng": 0.1365168798927222}, "southwest": {"lat": 52.19797757010728, "lng": 0.1338172201072778}}}, "icon": "https://maps.gstatic.com/mapfiles/place_api/icons/v1/png_71/bar-71.png", "icon_background_color": "#FF9E67", "icon_mask_base_uri": "https://maps.gstatic.com/mapfiles/place_api/icons/v2/bar_pinlet", "name": "The Live and Let Live", "opening_hours": {"open_now": true}, "photos": [{"height": 3000, "html_attributions": ["<a href=\"https://maps.google.com/maps/contrib/109486511149472053723\">A Google User</a>"], "photo_reference": "AUc7tXXurDmU5CCMch3sl6Uz_AANDbPOSCzVWThRHC_Ze2Smt30UHIgB4Bz3sCiTrQtOgFuW5wHoR9nwB6hpVAXpqaAPKRYwv4Q8kP2f6uPoDBBX4L167YFoHM5Wyb-rPcTk46VqJpJ10BVO5Jm_1FGk7fH9pZe-uyyty6TKhsYrg8ia06Ao", "width": 4000}], "place_id": "ChIJY9UoAYVw2EcR1ac9kz3YMy0", "plus_code": {"compound_code": "54XP+P2 Cambridge, United Kingdom", "global_code": "9F4254XP+P2"}, "price_level": 2, "rating": 4.6, "reference": "ChIJY9UoAYVw2EcR1ac9kz3YMy0", "scope": "GOOGLE", "types": ["bar", "point_of_interest", "establishment"], "user_ratings_total": 328, "vicinity": "40 Mawson Rd, Cambridge"}, {"business_status": "OPERATIONAL", "geometry": {"location": {"lat": 52.2144016, "lng": 0.1279081}, "viewport": {"northeast": {"lat": 52.21574932989272, "lng": 0.1292611298927222}, "southwest": {"lat": 52.21304967010727, "lng": 0.1265614701072778}}}, "icon": "https://maps.gstatic.com/mapfiles/place_api/icons/v1/png_71/bar-71.png", "icon_background_color": "#FF9E67", "icon_mask_base_uri": "https://maps.gstatic.com/mapfiles/place_api/icons/v2/bar_pinlet", "name": "The Old Spring", "opening_hours": {"open_now": true}, "photos": [{"height": 3658, "html_attributions": ["<a href=\"https://maps.google.com/maps/contrib/104017906829266839302\">Louis James-Parker</a>"], "photo_reference": "AUc7tXWwOm0Cs5_cw6ml9KpcabnDacb3OSMTW_T7i5r-5etRjDDOFBIu_Q2_INuuE_OvtQTst64Ce5AsHTuqao7wRgVb4FQjtdBLQqGAXcweG2aRkxoY7N_Dn2WbZwdKfykGHGloQX64TRPgj1PkApeG86AF2eQyxz1x7EGs74KM_79XjrVH", "width": 5486}], "place_id": "ChIJkaiklexw2EcRHFSESt9vRS4", "plus_code": {"compound_code": "647H+Q4 Cambridge, United Kingdom", "global_code": "9F42647H+Q4"}, "price_level": 2, "rating": 4.2, "reference": "ChIJkaiklexw2EcRHFSESt9vRS4", "scope": "GOOGLE", "types": ["bar", "restaurant", "food", "point_of_interest", "establishment"], "user_ratings_total": 925, "vicinity": "1 Ferry Path, Cambridge"}, {"business_status": "OPERATIONAL", "geometry": {"location": {"lat": 52.21206900000001, "lng": 0.1131038}, "viewport": {"northeast": {"lat": 52.21343222989272, "lng": 0.1145399298927222}, "southwest": {"lat": 52.21073257010728, "lng": 0.1118402701072778}}}, "icon": "https://maps.gstatic.com/mapfiles/place_api/icons/v1/png_71/bar-71.png", "icon_background_color": "#FF9E67", "icon_mask_base_uri": "https://maps.gstatic.com/mapfiles/place_api/icons/v2/bar_pinlet", "name": "The Architect", "opening_hours": {"open_now": true}, "photos": [{"height": 3036, "html_attributions": ["<a href=\"https://maps.google.com/maps/contrib/115213782042327315269\">Thomas Martin</a>"], "photo_reference": "AUc7tXXxDreeV8ElzEpKo8RVIpn-THlWdGJd8N1jZqx5-A-pnEqrGpwqgLEtdDuHmptAFcRHM-QDVzz1MBEXBFe_YQVME6JYFaT7W3n6PGzebYQJsTzrt2h_hqEZu12w4S3TmTCZMoJ-ZfnePSx-Rk16w-hLDJcsIL2wV288wY1Wx3kIP1I-", "width": 4048}], "place_id": "ChIJX3Dbo7hw2EcR4iVxgX74BlU", "plus_code": {"compound_code": "6467+R7 Cambridge, United Kingdom", "global_code": "9F426467+R7"}, "price_level": 2, "rating": 4.4, "reference": "ChIJX3Dbo7hw2EcR4iVxgX74BlU", "scope": "GOOGLE", "types": ["bakery", "meal_takeaway", "bar", "restaurant", "food", "store", "point_of_interest", "establishment"], "user_ratings_total": 920, "vicinity": "43 Castle St, Cambridge"}, {"business_status": "OPERATIONAL", "geometry": {"location": {"lat": 52.2124639, "lng": 0.1278128}, "viewport": {"northeast": {"lat": 52.21381372989272, "lng": 0.1291626298927222}, "southwest": {"lat": 52.21111407010727, "lng": 0.1264629701072778}}}, "icon": "https://maps.gstatic.com/mapfiles/place_api/icons/v1/png_71/bar-71.png", "icon_background_color": "#FF9E67", "icon_mask_base_uri": "https://maps.gstatic.com/mapfiles/place_api/icons/v2/bar_pinlet", "name": "Fort St George", "opening_hours": {"open_now": true}, "photos": [{"height": 2160, "html_attributions": ["<a href=\"https://maps.google.com/maps/contrib/100825222585182471618\">Nick Cole</a>"], "photo_reference": "AUc7tXXs6tnK4iml0B04jXbnx3_PqFSyFebFgFDH4QOmMZ3r_uecJD8lk311K_MvpkSi1_oN2noiQZGWntGw5wSBK2l-qS4hUeEClGw9Z8mpHYijTjh1MmczSLvYAgJA7q12i4PU0fJNCg6lk2GSm8n2MQbT9lH5DU2i4S4CRsGnTiwb0JeF", "width": 3840}], "place_id": "ChIJbVXotOxw2EcRdTAkLPgP-zs", "plus_code": {"compound_code": "646H+X4 Cambridge, United Kingdom", "global_code": "9F42646H+X4"}, "price_level": 2, "rating": 4.1, "reference": "ChIJbVXotOxw2EcRdTAkLPgP-zs", "scope": "GOOGLE", "types": ["bar", "restaurant", "food", "point_of_interest", "establishment"], "user_ratings_total": 1790, "vicinity": "Midsummer Common 11, Cambridge"}, {"business_status": "OPERATIONAL", "geometry": {"location": {"lat": 52.196475, "lng": 0.1086631}, "viewport": {"northeast": {"lat": 52.19790372989272, "lng": 0.1100258298927222}, "southwest": {"lat": 52.19520407010727, "lng": 0.1073261701072778}}}, "icon": "https://maps.gstatic.com/mapfiles/place_api/icons/v1/png_71/bar-71.png", "icon_background_color": "#FF9E67", "icon_mask_base_uri": "https://maps.gstatic.com/mapfiles/place_api/icons/v2/bar_pinlet", "name": "The Red Bull Newnham", "opening_hours": {"open_now": true}, "photos": [{"height": 1960, "html_attributions": ["<a href=\"https://maps.google.com/maps/contrib/111794667148323528907\">Laura Manning</a>"], "photo_reference": "AUc7tXUIOk4MU8k1fBRhmDAB0przUBUUYvyrWL6FkvUTi4P_X9vWQ9pNf0pV34iBGsu764uPCkZ1e-20bqxznLxuFXrczV8t0h-hD4rsGswQNO5061g9IHfg_gjqddM05X-Y87_Zpl-pLuBeupxaq90nkScM6Ynz6Avii5Pwg-VTnvMuIpdV", "width": 4032}], "place_id": "ChIJtfG-Tq9w2EcRYggbEvmSvIw", "plus_code": {"compound_code": "54W5+JF Cambridge, United Kingdom", "global_code": "9F4254W5+JF"}, "price_level": 2, "rating": 4.2, "reference": "ChIJtfG-Tq9w2EcRYggbEvmSvIw", "scope": "GOOGLE", "types": ["bar", "restaurant", "food", "point_of_interest", "establishment"], "user_ratings_total": 488, "vicinity": "11 Barton Rd, Cambridge"}, {"business_status": "OPERATIONAL", "geometry": {"location": {"lat": 52.2042677, "lng": 0.1191902}, "viewport": {"northeast": {"lat": 52.20556232989272, "lng": 0.1205454798927222}, "southwest": {"lat": 52.20286267010728, "lng": 0.1178458201072778}}}, "icon": "https://maps.gstatic.com/mapfiles/place_api/icons/v1/png_71/bar-71.png", "icon_background_color": "#FF9E67", "icon_mask_base_uri": "https://maps.gstatic.com/mapfiles/place_api/icons/v2/bar_pinlet", "name": "Pint Shop", "opening_hours": {"open_now": true}, "photos": [{"height": 2769, "html_attributions": ["<a href=\"https://maps.google.com/maps/contrib/105064036512151504501\">patheesen</a>"], "photo_reference": "AUc7tXUXmnmOn094FLajw0mR25WqwuEHCYMM6zpPhXQc4-_k8iJbJ7nVYkKMd0GXT_5urN1L25Jio1qWdxxKN1bVWX6vz3qZqBqyxi9QGurqVla3IvCa8bbUEcR5AvAiKrBhVi97uk27hcRELjrAVfgy2TmG3FHbzITnK7E9gzW16mDJwNp1", "width": 3694}], "place_id": "ChIJKxS2dL1w2EcRlw7EkC3VQeY", "plus_code": {"compound_code": "6439+MP Cambridge, United Kingdom", "global_code": "9F426439+MP"}, "price_level": 2, "rating": 4.3, "reference": "ChIJKxS2dL1w2EcRlw7EkC3VQeY", "scope": "GOOGLE", "types": ["bar", "restaurant", "food", "point_of_interest", "establishment"], "user_ratings_total": 1710, "vicinity": "10 Peas Hill, Cambridge"}, {"business_status": "OPERATIONAL", "geometry": {"location": {"lat": 52.20407489999999, "lng": 0.1187437}, "viewport": {"northeast": {"lat": 52.20541337989273, "lng": 0.1200623298927222}, "southwest": {"lat": 52.20271372010728, "lng": 0.1173626701072778}}}, "icon": "https://maps.gstatic.com/mapfiles/place_api/icons/v1/png_71/bar-71.png", "icon_background_color": "#FF9E67", "icon_mask_base_uri": "https://maps.gstatic.com/mapfiles/place_api/icons/v2/bar_pinlet", "name": "BrewDog Cambridge", "opening_hours": {"open_now": true}, "photos": [{"height": 1792, "html_attributions": ["<a href=\"https://maps.google.com/maps/contrib/105979737261693618261\">A Google User</a>"], "photo_reference": "AUc7tXX8gjPB4Xxc1FtR4IUvmjV9I0-L7zoFVpmUjfU5y_CCLOSrVgg1bWT8As9tdYQb9b22Q9Ae4zy6qUJdoE6AOARsUbCT40Xh9smhb9oWEZiOejPHTm58yFQ131iWeGDdUtX_Ka0JlwcTBTKv6E6Cm3kNLHgVBHRbHLEb5u3anCBqkgB1", "width": 2688}], "place_id": "ChIJh-uParBx2EcRTW80L6SHeew", "plus_code": {"compound_code": "6439+JF Cambridge, United Kingdom", "global_code": "9F426439+JF"}, "price_level": 2, "rating": 4.2, "reference": "ChIJh-uParBx2EcRTW80L6SHeew", "scope": "GOOGLE", "types": ["bar", "liquor_store", "restaurant", "food", "store", "point_of_interest", "establishment"], "user_ratings_total": 672, "vicinity": "15 Bene't St, Cambridge"}, {"business_status": "OPERATIONAL", "geometry": {"location": {"lat": 52.2040947, "lng": 0.1184443}, "viewport": {"northeast": {"lat": 52.20542547989272, "lng": 0.1198469298927222}, "southwest": {"lat": 52.20272582010728, "lng": 0.1171472701072778}}}, "icon": "https://maps.gstatic.com/mapfiles/place_api/icons/v1/png_71/bar-71.png", "icon_background_color": "#FF9E67", "icon_mask_base_uri": "https://maps.gstatic.com/mapfiles/place_api/icons/v2/bar_pinlet", "name": "Bath House", "opening_hours": {"open_now": true}, "photos": [{"height": 1816, "html_attributions": ["<a href=\"https://maps.google.com/maps/contrib/110631858605751838329\">Lior Medina</a>"], "photo_reference": "AUc7tXUzPRMyiiG4gkQgv_CPcfaQVXN6jqR1cpaCCMz6A5sJPmpENLXMnNaxwTemPsesjGG4Ffiyh4SNfvUi0EVdKqS7YjvIC5y9bWOvHZF7p_V7e1Howp9hv4ny7LD3n7g9W_gCtHRzKiUIMR8TCQ15s4Kg5jzbw8xkMlMmmy9tbITVEoXt", "width": 4032}], "place_id": "ChIJbTgcDL1w2EcRFn6aDKYMqKs", "plus_code": {"compound_code": "6439+J9 Cambridge, United Kingdom", "global_code": "9F426439+J9"}, "price_level": 2, "rating": 4.1, "reference": "ChIJbTgcDL1w2EcRFn6aDKYMqKs", "scope": "GOOGLE", "types": ["bar", "restaurant", "food", "point_of_interest", "establishment"], "user_ratings_total": 1314, "vicinity": "3 Bene't St, Cambridge"}, {"business_status": "OPERATIONAL", "geometry": {"location": {"lat": 52.21097, "lng": 0.1463272}, "viewport": {"northeast": {"lat": 52.21230277989272, "lng": 0.1477888298927222}, "southwest": {"lat": 52.20960312010727, "lng": 0.1450891701072778}}}, "icon": "https://maps.gstatic.com/mapfiles/place_api/icons/v1/png_71/bar-71.png", "icon_background_color": "#FF9E67", "icon_mask_base_uri": "https://maps.gstatic.com/mapfiles/place_api/icons/v2/bar_pinlet", "name": "The Wrestlers Pub", "opening_hours": {"open_now": true}, "photos": [{"height": 3984, "html_attributions": ["<a href=\"https://maps.google.com/maps/contrib/104399365378208852453\">Mariusz Kubiak</a>"], "photo_reference": "AUc7tXV_ebH5j0neKEqCBVmIf8Tw8HmkX8LOf4bqXypp5ys9MPpWBIVbmlL8m1SYzAezJATI_bgvATX7GCNUqBuUf67hNHCSGhRY4xua6LC_yQOhFiYEMzFHBNE4U_z4URC0Z4RDZtgll9pHrfJCIdm-E27VMCxUw4fja5XdnDRxm5Xom8UR", "width": 2988}], "place_id": "ChIJlac5L2Bw2EcRj1xfU8SeXcw", "plus_code": {"compound_code": "646W+9G Cambridge, United Kingdom", "global_code": "9F42646W+9G"}, "price_level": 2, "rating": 4.6, "reference": "ChIJlac5L2Bw2EcRj1xfU8SeXcw", "scope": "GOOGLE", "types": ["bar", "restaurant", "food", "point_of_interest", "establishment"], "user_ratings_total": 1380, "vicinity": "337 Newmarket Rd, Cambridge"}, {"business_status": "OPERATIONAL", "geometry": {"location": {"lat": 52.2006204, "lng": 0.1263221}, "viewport": {"northeast": {"lat": 52.20193787989272, "lng": 0.1275953798927222}, "southwest": {"lat": 52.19923822010728, "lng": 0.1248957201072778}}}, "icon": "https://maps.gstatic.com/mapfiles/place_api/icons/v1/png_71/bar-71.png", "icon_background_color": "#FF9E67", "icon_mask_base_uri": "https://maps.gstatic.com/mapfiles/place_api/icons/v2/bar_pinlet", "name": "The Grain & Hop Store", "opening_hours": {"open_now": true}, "photos": [{"height": 2268, "html_attributions": ["<a href=\"https://maps.google.com/maps/contrib/107324799144172621916\">Melvyn Heath</a>"], "photo_reference": "AUc7tXX6KxenqRymq6BLOecFVMECeU7PI2VM9DvM4dQKdK40VtQy7ujzlQzgN4mAMq5Z2kwKbjfHZGW4fwHT9YNz25z-OrQc0lmLoqiYzEYcW18Nr-eMVXeJK6IZac-V16rPjs01q6r4gKv9wwEtsoD9K0vTBBf3uElbn2JzarsX7k6e3A6l", "width": 4032}], "place_id": "ChIJ8-PmH5pw2EcRIISTjo27LIM", "plus_code": {"compound_code": "642G+6G Cambridge, United Kingdom", "global_code": "9F42642G+6G"}, "price_level": 2, "rating": 4.2, "reference": "ChIJ8-PmH5pw2EcRIISTjo27LIM", "scope": "GOOGLE", "types": ["bar", "restaurant", "food", "point_of_interest", "establishment"], "user_ratings_total": 2051, "vicinity": "69 Regent St, Cambridge"}, {"business_status": "OPERATIONAL", "geometry": {"location": {"lat": 52.208792, "lng": 0.1192597}, "viewport": {"northeast": {"lat": 52.21016727989272, "lng": 0.1205781298927222}, "southwest": {"lat": 52.20746762010727, "lng": 0.1178784701072778}}}, "icon": "https://maps.gstatic.com/mapfiles/place_api/icons/v1/png_71/restaurant-71.png", "icon_background_color": "#FF9E67", "icon_mask_base_uri": "https://maps.gstatic.com/mapfiles/place_api/icons/v2/restaurant_pinlet", "name": "The Orator", "opening_hours": {"open_now": true}, "photos": [{"height": 2336, "html_attributions": ["<a href=\"https://maps.google.com/maps/contrib/104120707379388353705\">A Google User</a>"], "photo_reference": "AUc7tXXfPa3xUcPbvvE877fNrxT8cByiCEvVkpePDLzDSnZ2z2BEnTo9O5VaN7grUokDYTtfdgBgzJF46LMmzNeVmCCkKIemj25KhTrG-klTjyE9BvPBuLd_fuS2vOUobromY3vPX71pT3qpgOUg_p68TCvT1FGaGhvk9uqQXiy79A9u0qwA", "width": 3432}], "place_id": "ChIJnVNuQL5w2EcRwdYcYKonS6o", "plus_code": {"compound_code": "6459+GM Cambridge, United Kingdom", "global_code": "9F426459+GM"}, "price_level": 2, "rating": 4.1, "reference": "ChIJnVNuQL5w2EcRwdYcYKonS6o", "scope": "GOOGLE", "types": ["restaurant", "bar", "food", "point_of_interest", "establishment"], "user_ratings_total": 647, "vicinity": "Round Church St, Cambridge"}, {"business_status": "OPERATIONAL", "geometry": {"location": {"lat": 52.2032558, "lng": 0.1226622}, "viewport": {"northeast": {"lat": 52.20462967989272, "lng": 0.1241990798927222}, "southwest": {"lat": 52.20193002010728, "lng": 0.1214994201072778}}}, "icon": "https://maps.gstatic.com/mapfiles/place_api/icons/v1/png_71/bar-71.png", "icon_background_color": "#FF9E67", "icon_mask_base_uri": "https://maps.gstatic.com/mapfiles/place_api/icons/v2/bar_pinlet", "name": "Revolution Cambridge", "opening_hours": {"open_now": true}, "photos": [{"height": 3024, "html_attributions": ["<a href=\"https://maps.google.com/maps/contrib/107415944402109525029\">igor Boikovs</a>"], "photo_reference": "AUc7tXXwOiklFCm4eP_IsXYp_9TnRxXVOAGG2wqbj2_x9UToOLdbNRALSwF2p8HKzkmGEtvEJef3Y_RJfv3SmoeAOeJCsgSUs-V4t1ksMcbaLgHr69vBd0kJBhUT78n7tgmLJnvkrqUgXjoymayMPYyEu3HAIDnRNy0M5DH9gbidaY1qQJ_T", "width": 4032}], "place_id": "ChIJ9aEjoZdw2EcR9F09GGN4DcI", "plus_code": {"compound_code": "643F+73 Cambridge, United Kingdom", "global_code": "9F42643F+73"}, "price_level": 2, "rating": 4.4, "reference": "ChIJ9aEjoZdw2EcR9F09GGN4DcI", "scope": "GOOGLE", "types": ["bar", "night_club", "restaurant", "food", "point_of_interest", "establishment"], "user_ratings_total": 4418, "vicinity": "Downing Pl, Cambridge"}, {"business_status": "OPERATIONAL", "geometry": {"location": {"lat": 52.22212099999999, "lng": 0.118957}, "viewport": {"northeast": {"lat": 52.22340472989271, "lng": 0.1204690298927222}, "southwest": {"lat": 52.22070507010726, "lng": 0.1177693701072778}}}, "icon": "https://maps.gstatic.com/mapfiles/place_api/icons/v1/png_71/bar-71.png", "icon_background_color": "#FF9E67", "icon_mask_base_uri": "https://maps.gstatic.com/mapfiles/place_api/icons/v2/bar_pinlet", "name": "The Carlton Arms", "opening_hours": {"open_now": true}, "photos": [{"height": 3120, "html_attributions": ["<a href=\"https://maps.google.com/maps/contrib/100390309161445397212\">A Google User</a>"], "photo_reference": "AUc7tXX6Z1q2mo6DHgS7WaTjFciPxnL-x34SAqVj4zxvTJeWsfYgVQLH2CzH9ltGP4aNt3zmu7m_c5wirTj-HrPKINSXmj2vV0iP6o1KKqx9XllGSrxovHy4oFHFdMGxEstDqsRs18oGB5tzsbTMpb7h093KohrvTkPZp_Y49IXajjlcfVLi", "width": 4160}], "place_id": "ChIJ47rIscJw2EcRCJwdHlewGr0", "plus_code": {"compound_code": "64C9+RH Cambridge, United Kingdom", "global_code": "9F4264C9+RH"}, "price_level": 2, "rating": 4.2, "reference": "ChIJ47rIscJw2EcRCJwdHlewGr0", "scope": "GOOGLE", "types": ["parking", "bar", "restaurant", "food", "point_of_interest", "establishment"], "user_ratings_total": 384, "vicinity": "53 Carlton Way, Arbury, Cambridge"}, {"business_status": "OPERATIONAL", "geometry": {"location": {"lat": 52.20716849999999, "lng": 0.1217321}, "viewport": {"northeast": {"lat": 52.20859587989273, "lng": 0.1231015298927222}, "southwest": {"lat": 52.20589622010728, "lng": 0.1204018701072778}}}, "icon": "https://maps.gstatic.com/mapfiles/place_api/icons/v1/png_71/restaurant-71.png", "icon_background_color": "#FF9E67", "icon_mask_base_uri": "https://maps.gstatic.com/mapfiles/place_api/icons/v2/restaurant_pinlet", "name": "d'Arry's Restaurant, Liquor Loft & Cheesemonger", "opening_hours": {"open_now": true}, "photos": [{"height": 3024, "html_attributions": ["<a href=\"https://maps.google.com/maps/contrib/115944247849470155630\">\u03b5\u03bb\u03b5\u03bd\u03b7 \u03bf\u03b9\u03ba\u03bf\u03bd\u03bf\u03bc\u03bf\u03c5</a>"], "photo_reference": "AUc7tXXEagucbu4QrewU5mHknNfiZSXnTpvUlN8tgQlfIL76tyrpm4BnrMPGfl5xlLcND_k7VKtbl5cx18RpuM__CqYaGc_u4ft4H-6W8WKDWGhN2E8BmN64CwwJ3ZtPE8lxiWag29KOcEgR34EcSJ1pNLaqMPwQJ_hnLeZg2y56b2Pi0Fjk", "width": 4032}], "place_id": "ChIJx2VRojFx2EcR4xkKbcDyNzM", "plus_code": {"compound_code": "644C+VM Cambridge, United Kingdom", "global_code": "9F42644C+VM"}, "price_level": 2, "rating": 4.3, "reference": "ChIJx2VRojFx2EcR4xkKbcDyNzM", "scope": "GOOGLE", "types": ["restaurant", "bar", "food", "point_of_interest", "establishment"], "user_ratings_total": 911, "vicinity": "2-4 King St, Cambridge"}, {"business_status": "OPERATIONAL", "geometry": {"location": {"lat": 52.21417169999999, "lng": 0.1254385}, "viewport": {"northeast": {"lat": 52.21554672989272, "lng": 0.1267748798927222}, "southwest": {"lat": 52.21284707010727, "lng": 0.1240752201072778}}}, "icon": "https://maps.gstatic.com/mapfiles/place_api/icons/v1/png_71/bar-71.png", "icon_background_color": "#FF9E67", "icon_mask_base_uri": "https://maps.gstatic.com/mapfiles/place_api/icons/v2/bar_pinlet", "name": "The Waterman", "opening_hours": {"open_now": true}, "photos": [{"height": 3024, "html_attributions": ["<a href=\"https://maps.google.com/maps/contrib/102516897726749380026\">Jes\u00fas Vicioso Hoyo</a>"], "photo_reference": "AUc7tXWjGM67HgksvpiWWY1Vgdrm-y8CqzRHxP6Pt9sZLbJOY3xv6vvIAuNy8oQt1DmU-zOXATyQ5diKHKROJdHF3GPoG4iWJ5AV0ER8GrgN_gZvGw1jgYR9vSo7bd-lhMt7IRe9-x45G54Dtr8dW3AjoF1ev0HwO1c9VqQYgvn9vGg4TEdP", "width": 4032}], "place_id": "ChIJRYrxbutw2EcRr46-eu3VQYc", "plus_code": {"compound_code": "647G+M5 Cambridge, United Kingdom", "global_code": "9F42647G+M5"}, "rating": 4.2, "reference": "ChIJRYrxbutw2EcRr46-eu3VQYc", "scope": "GOOGLE", "types": ["lodging", "bar", "restaurant", "food", "point_of_interest", "establishment"], "user_ratings_total": 805, "vicinity": "32 Chesterton Rd, Cambridge"}, {"business_status": "OPERATIONAL", "geometry": {"location": {"lat": 52.1971438, "lng": 0.1295152}, "viewport": {"northeast": {"lat": 52.19849592989272, "lng": 0.1308330298927222}, "southwest": {"lat": 52.19579627010728, "lng": 0.1281333701072778}}}, "icon": "https://maps.gstatic.com/mapfiles/place_api/icons/v1/png_71/bar-71.png", "icon_background_color": "#FF9E67", "icon_mask_base_uri": "https://maps.gstatic.com/mapfiles/place_api/icons/v2/bar_pinlet", "name": "The Emperor", "opening_hours": {"open_now": true}, "photos": [{"height": 1520, "html_attributions": ["<a href=\"https://maps.google.com/maps/contrib/104344824226347567788\">Rahul Anand</a>"], "photo_reference": "AUc7tXXAWAelc4oWSiGTpxOVZPwJzjpxQTNlkyoFcT02YN1UtQIDFPinxUvlRTEtZWX3TqgelG6bN7xp2bCvXlOXu8AYaQHYFRijkzH2rTs6W1Rh_meBjnOXXqtTomDpr5JWydu65uRDb8Pw-danJKTYZXDTJvBZv_rFn3XSINotxUeozEs", "width": 2688}], "place_id": "ChIJD3z3d5tw2EcRtf2-fea7tMQ", "plus_code": {"compound_code": "54WH+RR Cambridge, United Kingdom", "global_code": "9F4254WH+RR"}, "price_level": 2, "rating": 4.2, "reference": "ChIJD3z3d5tw2EcRtf2-fea7tMQ", "scope": "GOOGLE", "types": ["bar", "restaurant", "food", "point_of_interest", "establishment"], "user_ratings_total": 634, "vicinity": "21 Hills Rd, Cambridge"}, {"business_status": "OPERATIONAL", "geometry": {"location": {"lat": 52.21376979999999, "lng": 0.1237501}, "viewport": {"northeast": {"lat": 52.21516732989272, "lng": 0.1250852798927222}, "southwest": {"lat": 52.21246767010727, "lng": 0.1223856201072778}}}, "icon": "https://maps.gstatic.com/mapfiles/place_api/icons/v1/png_71/bar-71.png", "icon_background_color": "#FF9E67", "icon_mask_base_uri": "https://maps.gstatic.com/mapfiles/place_api/icons/v2/bar_pinlet", "name": "The Tivoli", "opening_hours": {"open_now": true}, "photos": [{"height": 3024, "html_attributions": ["<a href=\"https://maps.google.com/maps/contrib/111882957452855371846\">Geoff Jones</a>"], "photo_reference": "AUc7tXU0YKye_oxVcnR14Sp-7vpMahBsU9P9YzuU3od7IlLZ-R9j2SV_-VF07Tsp-tIIMQJqmjIYvqyD1btpDrCPhNTtaDcNSbFQRAzq02m6D7B-9glBZ-YC6p8lyMP-c-FCUkMzaRzgnnnBFO12Bl6VCHgcRzqomUAcvLg_IPdtRybWkkI", "width": 4032}], "place_id": "ChIJWZKpIutw2EcR_z5q637eHjU", "plus_code": {"compound_code": "647F+GF Cambridge, United Kingdom", "global_code": "9F42647F+GF"}, "price_level": 2, "rating": 4.3, "reference": "ChIJWZKpIutw2EcR_z5q637eHjU", "scope": "GOOGLE", "types": ["bar", "restaurant", "food", "point_of_interest", "establishment"], "user_ratings_total": 680, "vicinity": "16 Chesterton Rd, Cambridge"}, {"business_status": "OPERATIONAL", "geometry": {"location": {"lat": 52.214338, "lng": 0.1264783}, "viewport": {"northeast": {"lat": 52.21575722989272, "lng": 0.1277976798927222}, "southwest": {"lat": 52.21305757010728, "lng": 0.1250980201072778}}}, "icon": "https://maps.gstatic.com/mapfiles/place_api/icons/v1/png_71/bar-71.png", "icon_background_color": "#FF9E67", "icon_mask_base_uri": "https://maps.gstatic.com/mapfiles/place_api/icons/v2/bar_pinlet", "name": "Thirsty Cambridge", "opening_hours": {"open_now": true}, "photos": [{"height": 2304, "html_attributions": ["<a href=\"https://maps.google.com/maps/contrib/109349811440419494166\">Sam Owens</a>"], "photo_reference": "AUc7tXURpa7vRN5WT5C3ImHEJibdM9eoC5dfNsriuUPyGL19uqXD8uRpEHAlpiYcPZPn7qE5TxbQogf3X0WyiXq16xl-st2AVtRYI4Lt5RhW7z5QrBMsFR_SX7tRUllwzHO7UDuL4NX7S6sX8aBr-p1iIXqSMgmWTtbtce6VSr6XWftQfJhT", "width": 4039}], "place_id": "ChIJ03csY-tw2EcRaX0_e93hL_g", "plus_code": {"compound_code": "647G+PH Cambridge, United Kingdom", "global_code": "9F42647G+PH"}, "price_level": 2, "rating": 4.7, "reference": "ChIJ03csY-tw2EcRaX0_e93hL_g", "scope": "GOOGLE", "types": ["bar", "liquor_store", "food", "store", "point_of_interest", "establishment"], "user_ratings_total": 442, "vicinity": "46 Chesterton Rd, Cambridge"}, {"business_status": "OPERATIONAL", "geometry": {"location": {"lat": 52.2020197, "lng": 0.124699}, "viewport": {"northeast": {"lat": 52.20338627989272, "lng": 0.1261033798927222}, "southwest": {"lat": 52.20068662010728, "lng": 0.1234037201072778}}}, "icon": "https://maps.gstatic.com/mapfiles/place_api/icons/v1/png_71/bar-71.png", "icon_background_color": "#FF9E67", "icon_mask_base_uri": "https://maps.gstatic.com/mapfiles/place_api/icons/v2/bar_pinlet", "name": "Novi Kitchen + Bar", "opening_hours": {"open_now": true}, "photos": [{"height": 1363, "html_attributions": ["<a href=\"https://maps.google.com/maps/contrib/114948657115201935812\">The Fountain</a>"], "photo_reference": "AUc7tXXBEkuoyW-zqgt8HRvn2pX8j_LW7BouKJNrDye_GS2hLsdm6YOIw-yMupoqP_srN-fAZaSLOWvCafvAC6KtwYFXMCggrV2qbUhmat7HbWSgB1v4zOx8AreYvkdc2Mt24tyc_iNpH4xCadRTsvPv27sVlhbtnfESMduDbl8nk34KnAMY", "width": 2048}], "place_id": "ChIJXwQTYZdw2EcRkAF5ceihvCg", "plus_code": {"compound_code": "642F+RV Cambridge, United Kingdom", "global_code": "9F42642F+RV"}, "price_level": 2, "rating": 4, "reference": "ChIJXwQTYZdw2EcRkAF5ceihvCg", "scope": "GOOGLE", "types": ["bar", "restaurant", "food", "point_of_interest", "establishment"], "user_ratings_total": 1341, "vicinity": "12 Regent St, Cambridge"}, {"business_status": "OPERATIONAL", "geometry": {"location": {"lat": 52.2227992, "lng": 0.1365107}, "viewport": {"northeast": {"lat": 52.22409977989272, "lng": 0.1380266798927222}, "southwest": {"lat": 52.22140012010728, "lng": 0.1353270201072778}}}, "icon": "https://maps.gstatic.com/mapfiles/place_api/icons/v1/png_71/bar-71.png", "icon_background_color": "#FF9E67", "icon_mask_base_uri": "https://maps.gstatic.com/mapfiles/place_api/icons/v2/bar_pinlet", "name": "Milton Arms", "opening_hours": {"open_now": true}, "photos": [{"height": 3468, "html_attributions": ["<a href=\"https://maps.google.com/maps/contrib/101919690327341147263\">Carla Mestre</a>"], "photo_reference": "AUc7tXWwS5c71PagtgV_KQcv5IP6jCdi2maX0wrqIGf1TKw0O-xavL1nsN4crBdl2EtAzURF2p1GO5GiNDX7KX5CFBMpV1F_v804vJSeBF02xi8oXBz_GPXQmTLAc3gCYt4_8C4CcDOZrw85gUlGWkHfIRhQKD-lu4S2q219r2RCBGyM7bAv", "width": 4624}], "place_id": "ChIJ9TFhnPBw2EcRJSzO6OlJ7dQ", "plus_code": {"compound_code": "64FP+4J Cambridge, United Kingdom", "global_code": "9F4264FP+4J"}, "price_level": 1, "rating": 4, "reference": "ChIJ9TFhnPBw2EcRJSzO6OlJ7dQ", "scope": "GOOGLE", "types": ["bar", "restaurant", "food", "point_of_interest", "establishment"], "user_ratings_total": 1697, "vicinity": "205 Milton Rd, Cambridge"}, {"business_status": "OPERATIONAL", "geometry": {"location": {"lat": 52.20067340000001, "lng": 0.1197639}, "viewport": {"northeast": {"lat": 52.20198517989272, "lng": 0.1210357798927222}, "southwest": {"lat": 52.19928552010728, "lng": 0.1183361201072778}}}, "icon": "https://maps.gstatic.com/mapfiles/place_api/icons/v1/png_71/restaurant-71.png", "icon_background_color": "#FF9E67", "icon_mask_base_uri": "https://maps.gstatic.com/mapfiles/place_api/icons/v2/restaurant_pinlet", "name": "Little Rose", "opening_hours": {"open_now": true}, "photos": [{"height": 2800, "html_attributions": ["<a href=\"https://maps.google.com/maps/contrib/109903964051278808455\">Loch Fyne Restaurant</a>"], "photo_reference": "AUc7tXXIhS5aWQ10-Ib72aaJ4VcnStiRiUxtcacA78UtnF1AqGs_oeMp9T93R0q5ZrHZh6N-VQrny7g43usWGSrMKZklx-carkdLqjz0qBEm5j9NYw2c-v8FXpQWSQg1H20zSKCaAAP17iSoH2IgZXkeQEt7ZWloSRqkCkXG5oiDI-Kdhxdb", "width": 4200}], "place_id": "ChIJRSsWo6Jw2EcR5I7kgfq_zrA", "plus_code": {"compound_code": "6429+7W Cambridge, United Kingdom", "global_code": "9F426429+7W"}, "price_level": 2, "rating": 4.2, "reference": "ChIJRSsWo6Jw2EcR5I7kgfq_zrA", "scope": "GOOGLE", "types": ["restaurant", "food", "point_of_interest", "establishment"], "user_ratings_total": 1275, "vicinity": "37 Trumpington St, Cambridge"}]