[{"business_status": "OPERATIONAL", "geometry": {"location": {"lat": 54.9654646, "lng": -1.604647}, "viewport": {"northeast": {"lat": 54.96681752989272, "lng": -1.603303920107278}, "southwest": {"lat": 54.96411787010727, "lng": -1.606003579892722}}}, "icon": "https://maps.gstatic.com/mapfiles/place_api/icons/v1/png_71/bar-71.png", "icon_background_color": "#FF9E67", "icon_mask_base_uri": "https://maps.gstatic.com/mapfiles/place_api/icons/v2/bar_pinlet", "name": "The Central", "opening_hours": {"open_now": true}, "photos": [{"height": 1365, "html_attributions": ["<a href=\"https://maps.google.com/maps/contrib/104214865557457230276\">The Central Bar</a>"], "photo_reference": "AUc7tXW6VlyotGOBfieDAeVN_SuOH79FKVi038FPkHRZUriiMsR8fbGRpT_iR6d1BiDvmxhs9HdGvHWoOGu4zlZr0JgDNZnG_QLN-fBEEiaARgV4lU3FBAGyc3n5zTcUevDh4r2TDiOvczO6WadYmiPbAe1aVGcR86Z8fWCsvPpGcQOu_9ZM", "width": 2048}], "place_id": "ChIJq5gsarpwfkgRsuOA7kZOlNo", "plus_code": {"compound_code": "X98W+55 Gateshead, United Kingdom", "global_code": "9C6WX98W+55"}, "price_level": 2, "rating": 4.5, "reference": "ChIJq5gsarpwfkgRsuOA7kZOlNo", "scope": "GOOGLE", "types": ["bar", "point_of_interest", "establishment"], "user_ratings_total": 785, "vicinity": "Half Moon Ln, Gateshead"}, {"business_status": "OPERATIONAL", "geometry": {"location": {"lat": 54.969462, "lng": -1.6072963}, "viewport": {"northeast": {"lat": 54.97075002989272, "lng": -1.606018770107278}, "southwest": {"lat": 54.96805037010728, "lng": -1.608718429892722}}}, "icon": "https://maps.gstatic.com/mapfiles/place_api/icons/v1/png_71/bar-71.png", "icon_background_color": "#FF9E67", "icon_mask_base_uri": "https://maps.gstatic.com/mapfiles/place_api/icons/v2/bar_pinlet", "name": "The Bridge Tavern", "opening_hours": {"open_now": true}, "photos": [{"height": 2736, "html_attributions": ["<a href=\"https://maps.google.com/maps/contrib/110719701402286812660\">Sebastian Globig</a>"], "photo_reference": "AUc7tXUGGWf77wrwpCpjxdZ3CsTlVi4CKP07XjyeWKADokVk_tq0Bn2yhFoKjIJFJvf0F7sNPrcDGfdNHj-EaR5MX3BtnrjJLn3bS6_lKLADWNO3oQN08bDLlLLQNGBRsXaPJFZanaAwlECqdPiR-3V4WG3KxAYDCFuqliAuXJFYVyX4Wm4", "width": 3648}], "place_id": "ChIJB03DcbdwfkgRmVdV1WXZmKo", "plus_code": {"compound_code": "X99V+Q3 Newcastle upon Tyne, UK", "global_code": "9C6WX99V+Q3"}, "price_level": 2, "rating": 4.5, "reference": "ChIJB03DcbdwfkgRmVdV1WXZmKo", "scope": "GOOGLE", "types": ["bar", "restaurant", "food", "point_of_interest", "establishment"], "user_ratings_total": 2450, "vicinity": "7 Akenside Hill, Newcastle upon Tyne"}, {"business_status": "OPERATIONAL", "geometry": {"location": {"lat": 54.9692903, "lng": -1.6088114}, "viewport": {"northeast": {"lat": 54.97066327989271, "lng": -1.607458820107278}, "southwest": {"lat": 54.96796362010727, "lng": -1.610158479892722}}}, "icon": "https://maps.gstatic.com/mapfiles/place_api/icons/v1/png_71/bar-71.png", "icon_background_color": "#FF9E67", "icon_mask_base_uri": "https://maps.gstatic.com/mapfiles/place_api/icons/v2/bar_pinlet", "name": "Crown Posada", "opening_hours": {"open_now": true}, "photos": [{"height": 2736, "html_attributions": ["<a href=\"https://maps.google.com/maps/contrib/106772353697475547972\">A Google User</a>"], "photo_reference": "AUc7tXXUVFAAsWOxFeYtfqIZUobduK1A_XPjYFsG852_tVlU33vjhA2MYWX0-gayka7i-d5Sx4pxuAgUyxoWlg9JHG51R8EetpzXDW9B7cUiXUBXCca_HPH6W_VNT86TWcxXdHFM-zDgBA5FbdbwYEE6-ZN-LS_xoi8ZiY8NgM2bDQi4nRsi", "width": 3648}], "place_id": "ChIJu3AHDrdwfkgR0Y2Bg5joBeU", "plus_code": {"compound_code": "X99R+PF Newcastle upon Tyne, UK", "global_code": "9C6WX99R+PF"}, "price_level": 2, "rating": 4.6, "reference": "ChIJu3AHDrdwfkgR0Y2Bg5joBeU", "scope": "GOOGLE", "types": ["bar", "point_of_interest", "establishment"], "user_ratings_total": 1559, "vicinity": "31 Side, Newcastle upon Tyne"}, {"business_status": "OPERATIONAL", "geometry": {"location": {"lat": 54.9716167, "lng": -1.5881619}, "viewport": {"northeast": {"lat": 54.97283187989272, "lng": -1.586927420107278}, "southwest": {"lat": 54.97013222010727, "lng": -1.589627079892722}}}, "icon": "https://maps.gstatic.com/mapfiles/place_api/icons/v1/png_71/bar-71.png", "icon_background_color": "#FF9E67", "icon_mask_base_uri": "https://maps.gstatic.com/mapfiles/place_api/icons/v2/bar_pinlet", "name": "The Tyne Bar", "opening_hours": {"open_now": true}, "photos": [{"height": 2736, "html_attributions": ["<a href=\"https://maps.google.com/maps/contrib/106772353697475547972\">A Google User</a>"], "photo_reference": "AUc7tXVI2683vm6yWBnHknl9kbH3ZIGD86f3Qh_cU89wQ9liP5x0QYY5Y7bftPzeaYxzndKRt4__XrBWDaDD5tQegDM1ypM0x6cCINhIgCUkSXY41MR2WfREcmNYshg4CpZdYGKJXjveMp2DKZBj2a7mkm9QYHVWbcvUvFNBhlzCFG2DVT5u", "width": 3648}], "place_id": "ChIJiW71xJRwfkgRRCruXswsEF4", "plus_code": {"compound_code": "XCC6+JP Newcastle upon Tyne, UK", "global_code": "9C6WXCC6+JP"}, "price_level": 2, "rating": 4.6, "reference": "ChIJiW71xJRwfkgRRCruXswsEF4", "scope": "GOOGLE", "types": ["bar", "point_of_interest", "establishment"], "user_ratings_total": 2487, "vicinity": "1 Maling St, Newcastle upon Tyne"}, {"business_status": "OPERATIONAL", "geometry": {"location": {"lat": 54.96984990000001, "lng": -1.6046085}, "viewport": {"northeast": {"lat": 54.97121907989272, "lng": -1.603189270107278}, "southwest": {"lat": 54.96851942010727, "lng": -1.605888929892722}}}, "icon": "https://maps.gstatic.com/mapfiles/place_api/icons/v1/png_71/bar-71.png", "icon_background_color": "#FF9E67", "icon_mask_base_uri": "https://maps.gstatic.com/mapfiles/place_api/icons/v2/bar_pinlet", "name": "The Broad Chare", "opening_hours": {"open_now": true}, "photos": [{"height": 2604, "html_attributions": ["<a href=\"https://maps.google.com/maps/contrib/108210864180014688801\">Julie Hamlyn</a>"], "photo_reference": "AUc7tXW9FPc8g_5K_I_tzLZz6L_HIfP4dHsdVf_d6EG-CMC3aydkV1DFDTK-fpg9vnJuMQNXxvsirifLe5FOLTjP5yjovaZmPVQhss4d5KdwoQy5WRQIf9-Oo7TNTwTfgeVmDYbFveBYr09_e-JPJMXboLA2HmRohEkEspvjNVCcsT1ZDp3e", "width": 4624}], "place_id": "ChIJ-4RcsblwfkgRFDoYJIdu51I", "plus_code": {"compound_code": "X99W+W5 Newcastle upon Tyne, UK", "global_code": "9C6WX99W+W5"}, "price_level": 2, "rating": 4.6, "reference": "ChIJ-4RcsblwfkgRFDoYJIdu51I", "scope": "GOOGLE", "types": ["bar", "restaurant", "food", "point_of_interest", "establishment"], "user_ratings_total": 1382, "vicinity": "25 Broad Chare, Newcastle upon Tyne"}, {"business_status": "OPERATIONAL", "geometry": {"location": {"lat": 54.9695136, "lng": -1.6157319}, "viewport": {"northeast": {"lat": 54.97081297989271, "lng": -1.614366970107278}, "southwest": {"lat": 54.96811332010727, "lng": -1.617066629892722}}}, "icon": "https://maps.gstatic.com/mapfiles/place_api/icons/v1/png_71/bar-71.png", "icon_background_color": "#FF9E67", "icon_mask_base_uri": "https://maps.gstatic.com/mapfiles/place_api/icons/v2/bar_pinlet", "name": "Newcastle Tap", "opening_hours": {"open_now": true}, "photos": [{"height": 3024, "html_attributions": ["<a href=\"https://maps.google.com/maps/contrib/118002095327230101239\">Pete K</a>"], "photo_reference": "AUc7tXVxHZpEjhc7pwZbc9fXiBVXCXuAm2zN6sEGlocOSoNN462AVjxYKVK_ZXINqat-RK2MpAGlnYIyfTqGxSsvEmv-uQTy95_rCu06_BgAZXMr5z4A8JvWkHXEfUxLgjyylsdat98cxzCnLM1wJvbQAy74voe3MDQkSNFkvw5QDsBBOZYM", "width": 4032}], "place_id": "ChIJ90B0UrRwfkgRQvAl7jZTzc8", "plus_code": {"compound_code": "X99M+RP Newcastle upon Tyne, UK", "global_code": "9C6WX99M+RP"}, "price_level": 2, "rating": 4.5, "reference": "ChIJ90B0UrRwfkgRQvAl7jZTzc8", "scope": "GOOGLE", "types": ["bar", "meal_takeaway", "restaurant", "food", "point_of_interest", "establishment"], "user_ratings_total": 1243, "vicinity": "4 Neville St, Newcastle upon Tyne"}, {"business_status": "OPERATIONAL", "geometry": {"location": {"lat": 54.9713287, "lng": -1.6127414}, "viewport": {"northeast": {"lat": 54.97255507989273, "lng": -1.611563370107278}, "southwest": {"lat": 54.96985542010728, "lng": -1.614263029892722}}}, "icon": "https://maps.gstatic.com/mapfiles/place_api/icons/v1/png_71/bar-71.png", "icon_background_color": "#FF9E67", "icon_mask_base_uri": "https://maps.gstatic.com/mapfiles/place_api/icons/v2/bar_pinlet", "name": "Old George Inn", "opening_hours": {"open_now": true}, "photos": [{"height": 3024, "html_attributions": ["<a href=\"https://maps.google.com/maps/contrib/104639102648469908923\">Paul Birkett</a>"], "photo_reference": "AUc7tXUpcWiI7TJyg-rLTw9J5ccpjscCbRYk2cvbeXvG3lwMa_e3J0FxZ3wBg5giSoQmfGlcI8C1d9hVyEQwXikW4BZwact_sQCpBQQ49fNY66DfS5TOP4XYEIUAZzG12hZnwlbjhNuNOCzIqVlvtheVG9wd_Ohq2t2M6mLUiWmvxLrFhobL", "width": 4032}], "place_id": "ChIJt3twDrZwfkgRFc12mpeQRVE", "plus_code": {"compound_code": "X9CP+GW Newcastle upon Tyne, UK", "global_code": "9C6WX9CP+GW"}, "price_level": 2, "rating": 4.4, "reference": "ChIJt3twDrZwfkgRFc12mpeQRVE", "scope": "GOOGLE", "types": ["bar", "point_of_interest", "establishment"], "user_ratings_total": 2634, "vicinity": "Old George Yard, Newcastle upon Tyne"}, {"business_status": "OPERATIONAL", "geometry": {"location": {"lat": 54.965168, "lng": -1.6045941}, "viewport": {"northeast": {"lat": 54.96653052989272, "lng": -1.603287970107278}, "southwest": {"lat": 54.96383087010727, "lng": -1.605987629892722}}}, "icon": "https://maps.gstatic.com/mapfiles/place_api/icons/v1/png_71/bar-71.png", "icon_background_color": "#FF9E67", "icon_mask_base_uri": "https://maps.gstatic.com/mapfiles/place_api/icons/v2/bar_pinlet", "name": "Station East", "opening_hours": {"open_now": true}, "photos": [{"height": 1944, "html_attributions": ["<a href=\"https://maps.google.com/maps/contrib/105816321639364736814\">John Taylor</a>"], "photo_reference": "AUc7tXVuKcVmxYNS-NhPhE4OId8GcdoRDfNy0QXVjXvjMHim691A8H9gsLioBWfzbsRF5oASTCy0Ml-dA5WulRlV7nY8k6r5qZ1WT-POqTMCSyoFmMFSCKq_RA56pamzCw5GQkkFMhhBTchIoQuW59ToXuD0lgJP654c2OUJdQNj0igS_2M", "width": 2592}], "place_id": "ChIJK672aLpwfkgRccUD-u-mlZw", "plus_code": {"compound_code": "X98W+35 Gateshead, United Kingdom", "global_code": "9C6WX98W+35"}, "price_level": 2, "rating": 4.6, "reference": "ChIJK672aLpwfkgRccUD-u-mlZw", "scope": "GOOGLE", "types": ["bar", "point_of_interest", "establishment"], "user_ratings_total": 383, "vicinity": "Hills St, Gateshead"}, {"business_status": "OPERATIONAL", "geometry": {"location": {"lat": 54.9695919, "lng": -1.6184253}, "viewport": {"northeast": {"lat": 54.97090707989273, "lng": -1.617117220107278}, "southwest": {"lat": 54.96820742010728, "lng": -1.619816879892722}}}, "icon": "https://maps.gstatic.com/mapfiles/place_api/icons/v1/png_71/bar-71.png", "icon_background_color": "#FF9E67", "icon_mask_base_uri": "https://maps.gstatic.com/mapfiles/place_api/icons/v2/bar_pinlet", "name": "The Forth", "opening_hours": {"open_now": true}, "photos": [{"height": 2942, "html_attributions": ["<a href=\"https://maps.google.com/maps/contrib/101493126856122098309\">Samuel Gard</a>"], "photo_reference": "AUc7tXVu0D-U7grzoWy08ddChsJzfhUehYT0naoToUe9J4PrAOTFo4i121dz1VT-H0oKXSffg2-R7Xg5nC9RphXUkMf730a2A7HxkfUNwW2iu24_vDIJ2sWBLBw0JiqbJr6hkj5r8d-CVD0EjzXC0y5X4qQe5AAbuB0pAzfXk_sgBpvAYDha", "width": 3923}], "place_id": "ChIJqZ6Q2LRwfkgRilxhk2h1BK4", "plus_code": {"compound_code": "X99J+RJ Newcastle upon Tyne, UK", "global_code": "9C6WX99J+RJ"}, "price_level": 2, "rating": 4.4, "reference": "ChIJqZ6Q2LRwfkgRilxhk2h1BK4", "scope": "GOOGLE", "types": ["bar", "point_of_interest", "establishment"], "user_ratings_total": 1345, "vicinity": "Pink Ln, Newcastle upon Tyne"}, {"business_status": "OPERATIONAL", "geometry": {"location": {"lat": 54.9705007, "lng": -1.6205719}, "viewport": {"northeast": {"lat": 54.97187252989272, "lng": -1.619174970107278}, "southwest": {"lat": 54.96917287010727, "lng": -1.621874629892722}}}, "icon": "https://maps.gstatic.com/mapfiles/place_api/icons/v1/png_71/bar-71.png", "icon_background_color": "#FF9E67", "icon_mask_base_uri": "https://maps.gstatic.com/mapfiles/place_api/icons/v2/bar_pinlet", "name": "Tilleys Bar", "opening_hours": {"open_now": true}, "photos": [{"height": 3000, "html_attributions": ["<a href=\"https://maps.google.com/maps/contrib/113432924024199553661\">A Google User</a>"], "photo_reference": "AUc7tXUK50OU37o5JLxcJmDX81P9ktll3QcGAPVloMCQ6SG4ofykCIsT6lQdRbKQtVI05QghaV27Qb9NRa8ylJOb31D7bdo2PR0ZEDlzIJr8vwqBGyZHXRswCRfHFP8NpS8-tBZGqsRm9ObCe6oyVg5ScBggb4TLZzBD14AhdR8Bzgux8-it", "width": 4000}], "place_id": "ChIJPyUDz0p3fkgRryuOH9q52uk", "plus_code": {"compound_code": "X9CH+5Q Newcastle upon Tyne, UK", "global_code": "9C6WX9CH+5Q"}, "price_level": 2, "rating": 4.4, "reference": "ChIJPyUDz0p3fkgRryuOH9q52uk", "scope": "GOOGLE", "types": ["bar", "point_of_interest", "establishment"], "user_ratings_total": 1046, "vicinity": "105 Westgate Rd, Newcastle upon Tyne"}, {"business_status": "OPERATIONAL", "geometry": {"location": {"lat": 54.9687756, "lng": -1.6080703}, "viewport": {"northeast": {"lat": 54.97008087989273, "lng": -1.606636720107278}, "southwest": {"lat": 54.96738122010728, "lng": -1.609336379892722}}}, "icon": "https://maps.gstatic.com/mapfiles/place_api/icons/v1/png_71/bar-71.png", "icon_background_color": "#FF9E67", "icon_mask_base_uri": "https://maps.gstatic.com/mapfiles/place_api/icons/v2/bar_pinlet", "name": "Redhouse", "opening_hours": {"open_now": true}, "photos": [{"height": 2160, "html_attributions": ["<a href=\"https://maps.google.com/maps/contrib/116247041916873128206\">Matty Metcalfe</a>"], "photo_reference": "AUc7tXUQOC9oZp8FVXnxbieWugefTN4sOIUzd-WBx6jyKzm2Ux764AlLWPNF4_ni9oMpeAl4EVK-jWJTEDVmFvx3UDG7dfxSJZM9VkaTJkYavFQAAMhlJoudYumH3z2mr_jKzaszFsX3F32dN_CcAW5JTHP0Y8olkd_ItH9F5Ck6lsvRaQjN", "width": 3840}], "place_id": "ChIJzdu2bLdwfkgRdX0co9yOV6g", "plus_code": {"compound_code": "X99R+GQ Newcastle upon Tyne, UK", "global_code": "9C6WX99R+GQ"}, "price_level": 2, "rating": 4.5, "reference": "ChIJzdu2bLdwfkgRdX0co9yOV6g", "scope": "GOOGLE", "types": ["bar", "restaurant", "food", "point_of_interest", "establishment"], "user_ratings_total": 1778, "vicinity": "32 Sandhill, Newcastle upon Tyne"}, {"business_status": "OPERATIONAL", "geometry": {"location": {"lat": 54.96182289999999, "lng": -1.6006248}, "viewport": {"northeast": {"lat": 54.96320022989271, "lng": -1.599314620107278}, "southwest": {"lat": 54.96050057010727, "lng": -1.602014279892722}}}, "icon": "https://maps.gstatic.com/mapfiles/place_api/icons/v1/png_71/bar-71.png", "icon_background_color": "#FF9E67", "icon_mask_base_uri": "https://maps.gstatic.com/mapfiles/place_api/icons/v2/bar_pinlet", "name": "The Metropole", "opening_hours": {"open_now": true}, "photos": [{"height": 561, "html_attributions": ["<a href=\"https://maps.google.com/maps/contrib/116024317834054172243\">Sally Fitzpatrick</a>"], "photo_reference": "AUc7tXWdnd38QLuZYeZfDt3OMscTkquLd4C70_qi7BbZOq0gl54a9iImBmL0N5fLfpWNrrC5O6dreoQtpRVaFoeBEmsF6xfd8K9tWLOX8LecTBR0QR-5YkWpJuAMbL1HKdeUPuXT2Y5nGu6O1_tHA47HpsPuxSH3wxS6SPWuSkU4nNDi2jBt", "width": 826}], "place_id": "ChIJAfuWSrtwfkgRZ0rK00JdMb8", "plus_code": {"compound_code": "X96X+PQ Gateshead, United Kingdom", "global_code": "9C6WX96X+PQ"}, "price_level": 1, "rating": 4.2, "reference": "ChIJAfuWSrtwfkgRZ0rK00JdMb8", "scope": "GOOGLE", "types": ["bar", "point_of_interest", "establishment"], "user_ratings_total": 323, "vicinity": "262 High St, Gateshead"}, {"business_status": "OPERATIONAL", "geometry": {"location": {"lat": 54.9613731, "lng": -1.6065466}, "viewport": {"northeast": {"lat": 54.96270412989272, "lng": -1.605150320107278}, "southwest": {"lat": 54.96000447010728, "lng": -1.607849979892722}}}, "icon": "https://maps.gstatic.com/mapfiles/place_api/icons/v1/png_71/bar-71.png", "icon_background_color": "#FF9E67", "icon_mask_base_uri": "https://maps.gstatic.com/mapfiles/place_api/icons/v2/bar_pinlet", "name": "The Black Bull", "opening_hours": {"open_now": true}, "photos": [{"height": 3000, "html_attributions": ["<a href=\"https://maps.google.com/maps/contrib/115895086275230228845\">tracie storey</a>"], "photo_reference": "AUc7tXWLZp5NMp8hy8NyJyEATNRWRfrBI7Vlj3lW1xNanvGnvX642ZwibotJlz8UoRgbNTvg6i9gc6Kr5-cFjkuHvWTWUIzzxl-y15ts6Kd3YJ5zI3ZoJ3DxrWOpLW5JPfOOc46tWn9CFbrkWZSq_CHoHiqX-s3lcg54MF5jh0aPqQFemUHG", "width": 4000}], "place_id": "ChIJR3A2E7BwfkgR5fWpalX6AGk", "plus_code": {"compound_code": "X96V+G9 Gateshead, United Kingdom", "global_code": "9C6WX96V+G9"}, "price_level": 1, "rating": 4.7, "reference": "ChIJR3A2E7BwfkgR5fWpalX6AGk", "scope": "GOOGLE", "types": ["bar", "point_of_interest", "establishment"], "user_ratings_total": 279, "vicinity": "2 Mulgrave Terrace, Gateshead"}, {"business_status": "OPERATIONAL", "geometry": {"location": {"lat": 54.9693456, "lng": -1.6174428}, "viewport": {"northeast": {"lat": 54.97061292989272, "lng": -1.616114720107278}, "southwest": {"lat": 54.96791327010727, "lng": -1.618814379892722}}}, "icon": "https://maps.gstatic.com/mapfiles/place_api/icons/v1/png_71/bar-71.png", "icon_background_color": "#FF9E67", "icon_mask_base_uri": "https://maps.gstatic.com/mapfiles/place_api/icons/v2/bar_pinlet", "name": "The Victoria Comet", "opening_hours": {"open_now": true}, "photos": [{"height": 3003, "html_attributions": ["<a href=\"https://maps.google.com/maps/contrib/115574833434708824085\">A Google User</a>"], "photo_reference": "AUc7tXVqFdkfIs6OEmqrP14UuG2CBX57ZnoxgKsJlWWEh04QUSHaJ-NzWyNiqAr59XIOGQF5TZN31jv6wO8TvcBAtO1x4yzD5ATSZgQgphFn-64wneJ06TApnIrcyMKEAIMaBzdjXPkGeQavpxJ4kBorLjr7Hg3ZBH5VArwYYCuKWPVa4gjW", "width": 4096}], "place_id": "ChIJ2Tey5LRwfkgRyXhrBkTSxDk", "plus_code": {"compound_code": "X99M+P2 Newcastle upon Tyne, UK", "global_code": "9C6WX99M+P2"}, "price_level": 2, "rating": 4.2, "reference": "ChIJ2Tey5LRwfkgRyXhrBkTSxDk", "scope": "GOOGLE", "types": ["bar", "point_of_interest", "establishment"], "user_ratings_total": 1411, "vicinity": "38 Neville St, Newcastle upon Tyne"}, {"business_status": "OPERATIONAL", "geometry": {"location": {"lat": 54.97055839999999, "lng": -1.6215658}, "viewport": {"northeast": {"lat": 54.97197312989272, "lng": -1.620114020107278}, "southwest": {"lat": 54.96927347010728, "lng": -1.622813679892722}}}, "icon": "https://maps.gstatic.com/mapfiles/place_api/icons/v1/png_71/bar-71.png", "icon_background_color": "#FF9E67", "icon_mask_base_uri": "https://maps.gstatic.com/mapfiles/place_api/icons/v2/bar_pinlet", "name": "The Bodega", "opening_hours": {"open_now": true}, "photos": [{"height": 2268, "html_attributions": ["<a href=\"https://maps.google.com/maps/contrib/108946902847731745603\">Andy Savage</a>"], "photo_reference": "AUc7tXUsnPBEWjUsux0leAobbpvflhOBiD9Gq6bVb3r2cvehcO6ZYGqAAHFk7an_XDeyfLNpxZeUtHBzOhSQYCA4eh4D1HXvJZeI3MZgMf1qZBpUeFF5X67HDQeIXeNcSxNFTgvh6yK_LEes4cLjOj3kiBr7vSanPLs4De-BN4UKojVS2P3B", "width": 4032}], "place_id": "ChIJAxj6w0p3fkgR3Hji-ZMH4_0", "plus_code": {"compound_code": "X9CH+69 Newcastle upon Tyne, UK", "global_code": "9C6WX9CH+69"}, "price_level": 2, "rating": 4.4, "reference": "ChIJAxj6w0p3fkgR3Hji-ZMH4_0", "scope": "GOOGLE", "types": ["bar", "point_of_interest", "establishment"], "user_ratings_total": 822, "vicinity": "125 Westgate Rd, Newcastle upon Tyne"}, {"business_status": "OPERATIONAL", "geometry": {"location": {"lat": 54.9694189, "lng": -1.6184402}, "viewport": {"northeast": {"lat": 54.97080007989273, "lng": -1.617033670107278}, "southwest": {"lat": 54.96810042010728, "lng": -1.619733329892722}}}, "icon": "https://maps.gstatic.com/mapfiles/place_api/icons/v1/png_71/bar-71.png", "icon_background_color": "#FF9E67", "icon_mask_base_uri": "https://maps.gstatic.com/mapfiles/place_api/icons/v2/bar_pinlet", "name": "The Town Wall", "opening_hours": {"open_now": true}, "photos": [{"height": 1365, "html_attributions": ["<a href=\"https://maps.google.com/maps/contrib/106650344009751715728\">The Town Wall</a>"], "photo_reference": "AUc7tXX0siUAF-a-BQ1jQIzC4DpYtAZzGd5jmphy8Vvrvhjricy_NTnSYFJ6TkaMjDDF0S6FF4V7cSAdwb_LtO34VyCwEvfhU6JzYOHqOo7JC4THMGUbl1JQ5paA6pfwWSXLaNLY9chzkAf2qEYtRmHZlJ1cqfg_ZZjZVWpT7_1WQ0d0rASz", "width": 2048}], "place_id": "ChIJlz7fKLVwfkgRWkfbowtU_bo", "plus_code": {"compound_code": "X99J+QJ Newcastle upon Tyne, UK", "global_code": "9C6WX99J+QJ"}, "price_level": 2, "rating": 4.3, "reference": "ChIJlz7fKLVwfkgRWkfbowtU_bo", "scope": "GOOGLE", "types": ["bar", "restaurant", "food", "point_of_interest", "establishment"], "user_ratings_total": 1339, "vicinity": "Pink Ln, Newcastle upon Tyne"}, {"business_status": "OPERATIONAL", "geometry": {"location": {"lat": 54.96820469999999, "lng": -1.6094878}, "viewport": {"northeast": {"lat": 54.96950337989273, "lng": -1.608106520107278}, "southwest": {"lat": 54.96680372010728, "lng": -1.610806179892722}}}, "icon": "https://maps.gstatic.com/mapfiles/place_api/icons/v1/png_71/bar-71.png", "icon_background_color": "#FF9E67", "icon_mask_base_uri": "https://maps.gstatic.com/mapfiles/place_api/icons/v2/bar_pinlet", "name": "The Dubliner", "opening_hours": {"open_now": true}, "photos": [{"height": 3024, "html_attributions": ["<a href=\"https://maps.google.com/maps/contrib/108959674352593715426\">Lily Little</a>"], "photo_reference": "AUc7tXUM2rcZ6XCRindv3MLbZIuXElWNsb4wAEXaZdh6i1yknA7Y-3Rc5CNSHELsMTwPDqhnYwMZk2Cl70EZJAV_Wxlh_GzvAYUmgPRE_339MWiVx_4zNB-ENeBDbtkSMxhfMIgij0dRsH4k1iGsNH0trWMoO3--FCtcmnH2xzKbAmGA_VLH", "width": 4032}], "place_id": "ChIJV5xvpe1xfkgRCkaeVusHTnc", "plus_code": {"compound_code": "X99R+76 Newcastle upon Tyne, UK", "global_code": "9C6WX99R+76"}, "rating": 4.3, "reference": "ChIJV5xvpe1xfkgRCkaeVusHTnc", "scope": "GOOGLE", "types": ["bar", "restaurant", "food", "point_of_interest", "establishment"], "user_ratings_total": 196, "vicinity": "The Dubliner, 12 Close, Newcastle upon Tyne"}, {"business_status": "OPERATIONAL", "geometry": {"location": {"lat": 54.965908, "lng": -1.5740741}, "viewport": {"northeast": {"lat": 54.96723617989272, "lng": -1.572668270107278}, "southwest": {"lat": 54.96453652010727, "lng": -1.575367929892722}}}, "icon": "https://maps.gstatic.com/mapfiles/place_api/icons/v1/png_71/bar-71.png", "icon_background_color": "#FF9E67", "icon_mask_base_uri": "https://maps.gstatic.com/mapfiles/place_api/icons/v2/bar_pinlet", "name": "The Merchants Tavern", "opening_hours": {"open_now": true}, "photos": [{"height": 1284, "html_attributions": ["<a href=\"https://maps.google.com/maps/contrib/115783677988328877281\">Fei Xia</a>"], "photo_reference": "AUc7tXWQk9q9wVVBj_gkfLSgoEmT-zM3ixb2VmJmCTQ5P8ufgZHb6nzSxL6XREP4SYojvrpLNEUm7S3rpwNQdY3A07JdOptoQZBICJr0XxQvBTtNG16MPfrRVTcK8VNQdIx0GQoZabSdRBLwu6Rl_pg8ztE-r-Dkppa8Sdzhh8xCt_OEMd20", "width": 2048}], "place_id": "ChIJAc6xlY5wfkgR3PEH0xJwvv8", "plus_code": {"compound_code": "XC8G+99 Newcastle upon Tyne, UK", "global_code": "9C6WXC8G+99"}, "price_level": 2, "rating": 4.4, "reference": "ChIJAc6xlY5wfkgR3PEH0xJwvv8", "scope": "GOOGLE", "types": ["bar", "restaurant", "food", "point_of_interest", "establishment"], "user_ratings_total": 511, "vicinity": "1 St Peter's Wharf, Newcastle upon Tyne"}, {"business_status": "OPERATIONAL", "geometry": {"location": {"lat": 54.9699086, "lng": -1.6095343}, "viewport": {"northeast": {"lat": 54.97125532989271, "lng": -1.608210370107278}, "southwest": {"lat": 54.96855567010727, "lng": -1.610910029892722}}}, "icon": "https://maps.gstatic.com/mapfiles/place_api/icons/v1/png_71/bar-71.png", "icon_background_color": "#FF9E67", "icon_mask_base_uri": "https://maps.gstatic.com/mapfiles/place_api/icons/v2/bar_pinlet", "name": "BrewDog Newcastle", "opening_hours": {"open_now": true}, "photos": [{"height": 3024, "html_attributions": ["<a href=\"https://maps.google.com/maps/contrib/114483371323739466474\">Rich Baker</a>"], "photo_reference": "AUc7tXVxyift4jfJGrkBCIFbwS8yIK-YnVZyXfC4pILBj1pYwm-rLEVIirz8R8ipF6z-Wkl1l8qYE0i8e83EYg8INM_3REweO8o1J1W7HDS3UeWS4tEENme9r5EXG601d08Xc1iWcD7QAz4427cvDq6W2jkwl-Ij4QkgDJFqGh9KgE6fFay1", "width": 4032}], "place_id": "ChIJdftLrbdwfkgR-7uVA2UiRz4", "plus_code": {"compound_code": "X99R+X6 Newcastle upon Tyne, UK", "global_code": "9C6WX99R+X6"}, "price_level": 2, "rating": 4.5, "reference": "ChIJdftLrbdwfkgR-7uVA2UiRz4", "scope": "GOOGLE", "types": ["bar", "restaurant", "food", "point_of_interest", "establishment"], "user_ratings_total": 1776, "vicinity": "16 Dean St, Newcastle upon Tyne"}, {"business_status": "OPERATIONAL", "geometry": {"location": {"lat": 54.969521, "lng": -1.615563}, "viewport": {"northeast": {"lat": 54.97082167989272, "lng": -1.614198020107278}, "southwest": {"lat": 54.96812202010727, "lng": -1.616897679892722}}}, "icon": "https://maps.gstatic.com/mapfiles/place_api/icons/v1/png_71/bar-71.png", "icon_background_color": "#FF9E67", "icon_mask_base_uri": "https://maps.gstatic.com/mapfiles/place_api/icons/v2/bar_pinlet", "name": "The Head of Steam Newcastle", "opening_hours": {"open_now": true}, "photos": [{"height": 3072, "html_attributions": ["<a href=\"https://maps.google.com/maps/contrib/110509122324505064618\">Alan Fenwick</a>"], "photo_reference": "AUc7tXU3qBIbWR_khNxllx9tlvTMD85C9A7s-m_KRpFvPsMMjO_zuaeR5RTz5iELHIOO_lkZjHcdETXXvuC-bS8RcWRF05RymQu-yX-58Bj8DJQytMVSPioym9Ej9VgmsQeTv4GpZEfiRNMo9XglW_bq5Grji6I4LBziLRTfJacAoiD5-wIn", "width": 4080}], "place_id": "ChIJVY2-TbRwfkgRFLe1Vdtkz2E", "plus_code": {"compound_code": "X99M+RQ Newcastle upon Tyne, UK", "global_code": "9C6WX99M+RQ"}, "price_level": 2, "rating": 4.4, "reference": "ChIJVY2-TbRwfkgRFLe1Vdtkz2E", "scope": "GOOGLE", "types": ["bar", "point_of_interest", "establishment"], "user_ratings_total": 796, "vicinity": "2 Neville St, Newcastle upon Tyne"}, {"business_status": "OPERATIONAL", "geometry": {"location": {"lat": 54.97015159999999, "lng": -1.6130816}, "viewport": {"northeast": {"lat": 54.97141992989271, "lng": -1.611648220107278}, "southwest": {"lat": 54.96872027010727, "lng": -1.614347879892722}}}, "icon": "https://maps.gstatic.com/mapfiles/place_api/icons/v1/png_71/bar-71.png", "icon_background_color": "#FF9E67", "icon_mask_base_uri": "https://maps.gstatic.com/mapfiles/place_api/icons/v2/bar_pinlet", "name": "Katie O'Brien's Irish Tavern Newcastle", "opening_hours": {"open_now": true}, "photos": [{"height": 1800, "html_attributions": ["<a href=\"https://maps.google.com/maps/contrib/112824380716450105982\">Patrick Patterson</a>"], "photo_reference": "AUc7tXUaUY6Jz4jPoK84Drj-6Rl2H8xF4P5apKzKXYq_rorPwzTqn7AH3zWn1vXZXdsf-E-IfJuvm0-MQqV2TT8kKuLbStidOdykLcmh6O7cbNbS7DH3_fEL8YA6_P5uM14zyEBAr0fcwM6SsqIKjtFvvAgK_rrbDfDlx4fwDwfnM_BMQHYU", "width": 3939}], "place_id": "ChIJnZ7ItANxfkgRq0BSKCT53lM", "plus_code": {"compound_code": "X9CP+3Q Newcastle upon Tyne, UK", "global_code": "9C6WX9CP+3Q"}, "rating": 4.4, "reference": "ChIJnZ7ItANxfkgRq0BSKCT53lM", "scope": "GOOGLE", "types": ["bar", "restaurant", "food", "point_of_interest", "establishment"], "user_ratings_total": 183, "vicinity": "20 Collingwood St, Newcastle upon Tyne"}, {"business_status": "OPERATIONAL", "geometry": {"location": {"lat": 54.9673691, "lng": -1.6101938}, "viewport": {"northeast": {"lat": 54.96876812989272, "lng": -1.608697420107278}, "southwest": {"lat": 54.96606847010727, "lng": -1.611397079892722}}}, "icon": "https://maps.gstatic.com/mapfiles/place_api/icons/v1/png_71/bar-71.png", "icon_background_color": "#FF9E67", "icon_mask_base_uri": "https://maps.gstatic.com/mapfiles/place_api/icons/v2/bar_pinlet", "name": "The Quayside - JD Wetherspoon", "opening_hours": {"open_now": true}, "photos": [{"height": 3024, "html_attributions": ["<a href=\"https://maps.google.com/maps/contrib/117220021949621462483\">Louis Thorp</a>"], "photo_reference": "AUc7tXXs2x05foQ5r62ANWhD7-c5AE2CUhViI-lxaFz-pRK3Z2uI8tbSIWGY5DdqOd2SxbuwHEsli7v_zZc8ZESxjzXyf6BhYcrL_awIik7NKLLQuo02XFpjT74QGkKVKf7u2YsLl1BVuJwu74hODD9eFtW3Jn0yRqgEWdCHK0Me9MJYVKak", "width": 4032}], "place_id": "ChIJwQrM07ZwfkgRV-pgLkrlwMo", "plus_code": {"compound_code": "X98Q+WW Newcastle upon Tyne, UK", "global_code": "9C6WX98Q+WW"}, "price_level": 1, "rating": 4.3, "reference": "ChIJwQrM07ZwfkgRV-pgLkrlwMo", "scope": "GOOGLE", "types": ["bar", "restaurant", "food", "point_of_interest", "establishment"], "user_ratings_total": 6588, "vicinity": "35-37 Close, Newcastle upon Tyne"}, {"business_status": "OPERATIONAL", "geometry": {"location": {"lat": 54.969607, "lng": -1.6041376}, "viewport": {"northeast": {"lat": 54.97095792989272, "lng": -1.602767170107278}, "southwest": {"lat": 54.96825827010728, "lng": -1.605466829892722}}}, "icon": "https://maps.gstatic.com/mapfiles/place_api/icons/v1/png_71/bar-71.png", "icon_background_color": "#FF9E67", "icon_mask_base_uri": "https://maps.gstatic.com/mapfiles/place_api/icons/v2/bar_pinlet", "name": "The Head of Steam Quayside", "opening_hours": {"open_now": true}, "photos": [{"height": 4032, "html_attributions": ["<a href=\"https://maps.google.com/maps/contrib/110509122324505064618\">Alan Fenwick</a>"], "photo_reference": "AUc7tXVUKjJt5QQ48VU_2gBCxsJN1m8tsf-qcA9bBaaFeTnRZFFq5XRZSlcYrfBTZ45o5MPP49aY549Sb7LupNhh-n1anbgMUlMvFC9AmjIRsF9fxh3WSBL6509uiFH2o3Lc1CQXNX9BCW4pQmZTWt8gnELhDslIr_fdpRDpCwDGLsOR6gZc", "width": 3024}], "place_id": "ChIJJQ1asblwfkgRsssA_nq3e2k", "plus_code": {"compound_code": "X99W+R9 Newcastle upon Tyne, UK", "global_code": "9C6WX99W+R9"}, "price_level": 2, "rating": 4.3, "reference": "ChIJJQ1asblwfkgRsssA_nq3e2k", "scope": "GOOGLE", "types": ["bar", "restaurant", "food", "point_of_interest", "establishment"], "user_ratings_total": 1660, "vicinity": "11-17 Broad Chare, Newcastle upon Tyne"}, {"business_status": "OPERATIONAL", "geometry": {"location": {"lat": 54.9715198, "lng": -1.6116628}, "viewport": {"northeast": {"lat": 54.97291817989272, "lng": -1.610288470107278}, "southwest": {"lat": 54.97021852010728, "lng": -1.612988129892722}}}, "icon": "https://maps.gstatic.com/mapfiles/place_api/icons/v1/png_71/bar-71.png", "icon_background_color": "#FF9E67", "icon_mask_base_uri": "https://maps.gstatic.com/mapfiles/place_api/icons/v2/bar_pinlet", "name": "Barluga", "opening_hours": {"open_now": true}, "photos": [{"height": 3072, "html_attributions": ["<a href=\"https://maps.google.com/maps/contrib/115574833434708824085\">A Google User</a>"], "photo_reference": "AUc7tXWuqBupumkzepXRLHobBhqP36kPtfng240q-8YqtloK2C7OyWJqOSFgg7eUIo6Q0TVS5alUjoUR_JFkWiLh9KSPAlV8C1eH-hXYVJVAemHPfYzl7CQ3ijKJJl480PR3ELsj8FRZRnq1WJOB37javKsZws1q6ffsf_sh1E8jwq6rlrbP", "width": 4096}], "place_id": "ChIJHcBxFrZwfkgREAsCeaGNLds", "plus_code": {"compound_code": "X9CQ+J8 Newcastle upon Tyne, UK", "global_code": "9C6WX9CQ+J8"}, "price_level": 2, "rating": 4.3, "reference": "ChIJHcBxFrZwfkgREAsCeaGNLds", "scope": "GOOGLE", "types": ["bar", "restaurant", "food", "point_of_interest", "establishment"], "user_ratings_total": 1069, "vicinity": "35 Grey St, Newcastle upon Tyne"}, {"business_status": "OPERATIONAL", "geometry": {"location": {"lat": 54.9385669, "lng": -1.6072358}, "viewport": {"northeast": {"lat": 54.93989087989273, "lng": -1.605669820107278}, "southwest": {"lat": 54.93719122010728, "lng": -1.608369479892722}}}, "icon": "https://maps.gstatic.com/mapfiles/place_api/icons/v1/png_71/bar-71.png", "icon_background_color": "#FF9E67", "icon_mask_base_uri": "https://maps.gstatic.com/mapfiles/place_api/icons/v2/bar_pinlet", "name": "The Nine Pins Saltwell", "opening_hours": {"open_now": true}, "photos": [{"height": 4032, "html_attributions": ["<a href=\"https://maps.google.com/maps/contrib/100414047486285656047\">Neil Mcpake</a>"], "photo_reference": "AUc7tXUsYKnzt5Ugw4oGqJvxxKUiJKxS9n7Gl_LFlqcEER3azaLzSnuwwCFeZOXtfxX4mO6-st4ew15o3vAP9bctZ-cPR7heHcOB5BlS4sUWiDylxTr6Rehj4lmdFIP-16vYF543OTOOPlE6OzfygDNL8B9etHzyrUmVQMeiav-SKyZ-hUak", "width": 3024}], "place_id": "ChIJmTOE2xp6fkgRp9SLE884W5Q", "plus_code": {"compound_code": "W9QV+C4 Gateshead, United Kingdom", "global_code": "9C6WW9QV+C4"}, "price_level": 1, "rating": 4.1, "reference": "ChIJmTOE2xp6fkgRp9SLE884W5Q", "scope": "GOOGLE", "types": ["bar", "restaurant", "food", "point_of_interest", "establishment"], "user_ratings_total": 354, "vicinity": "Saltwell Rd S, Low Fell, Gateshead"}, {"business_status": "OPERATIONAL", "geometry": {"location": {"lat": 54.9728699, "lng": -1.6155345}, "viewport": {"northeast": {"lat": 54.97424962989272, "lng": -1.614320870107278}, "southwest": {"lat": 54.97154997010728, "lng": -1.617020529892722}}}, "icon": "https://maps.gstatic.com/mapfiles/place_api/icons/v1/png_71/bar-71.png", "icon_background_color": "#FF9E67", "icon_mask_base_uri": "https://maps.gstatic.com/mapfiles/place_api/icons/v2/bar_pinlet", "name": "Black Garter", "opening_hours": {"open_now": true}, "photos": [{"height": 2976, "html_attributions": ["<a href=\"https://maps.google.com/maps/contrib/111028273915065650763\">Richard Hook</a>"], "photo_reference": "AUc7tXXd2FplXmTlvHsODmcRBJli-Kit5a24QuJlYL9pfCV0cz5L8908FK9IS4z991YLizfa_76wOnFxSnfnHGr6lvBq0KUVTD8nStDOjDksBQm6ySIkOZ7iBsYxxIItexcZ03T5WKx-saIoFI8_fV8QeNAQLiSSU8Gir2BH1q-vvcfZCL8S", "width": 3968}], "place_id": "ChIJocexcMpwfkgRdVRGoA40PVY", "plus_code": {"compound_code": "X9FM+4Q Newcastle upon Tyne, UK", "global_code": "9C6WX9FM+4Q"}, "price_level": 1, "rating": 4.3, "reference": "ChIJocexcMpwfkgRdVRGoA40PVY", "scope": "GOOGLE", "types": ["bar", "restaurant", "food", "point_of_interest", "establishment"], "user_ratings_total": 1070, "vicinity": "25-31 Clayton St, Newcastle upon Tyne"}, {"business_status": "OPERATIONAL", "geometry": {"location": {"lat": 54.942139, "lng": -1.6222417}, "viewport": {"northeast": {"lat": 54.94359617989272, "lng": -1.621187020107278}, "southwest": {"lat": 54.94089652010727, "lng": -1.623886679892722}}}, "icon": "https://maps.gstatic.com/mapfiles/place_api/icons/v1/png_71/bar-71.png", "icon_background_color": "#FF9E67", "icon_mask_base_uri": "https://maps.gstatic.com/mapfiles/place_api/icons/v2/bar_pinlet", "name": "Valley Farm - Farmhouse Inns", "opening_hours": {"open_now": true}, "photos": [{"height": 4008, "html_attributions": ["<a href=\"https://maps.google.com/maps/contrib/106712055179510324404\">Yoshwar Saridam</a>"], "photo_reference": "AUc7tXVmdkUl3Id14GXbT62JyOqjwmaWCG6OluUqd8lc1Hk28aAcU9uhYOlgAvpvZFcGLIQqbsy_zHJ0-1CWaSeO7fI67QIP-l-S0WKX_39fCVoOy2hqgrkhb_t9gWNSLNNgahcw9K_diBvzMLqV_XB2v7wVYmZ0C-aHR_JLh_YcDzcX92Mi", "width": 5344}], "place_id": "ChIJHyWT_Ph5fkgRRa-UbWCT-a4", "plus_code": {"compound_code": "W9RH+V4 Gateshead, United Kingdom", "global_code": "9C6WW9RH+V4"}, "price_level": 1, "rating": 4, "reference": "ChIJHyWT_Ph5fkgRRa-UbWCT-a4", "scope": "GOOGLE", "types": ["bar", "restaurant", "food", "point_of_interest", "establishment"], "user_ratings_total": 2864, "vicinity": "First Ave, Gateshead"}, {"business_status": "OPERATIONAL", "geometry": {"location": {"lat": 54.972185, "lng": -1.6172609}, "viewport": {"northeast": {"lat": 54.97356277989272, "lng": -1.615876120107278}, "southwest": {"lat": 54.97086312010727, "lng": -1.618575779892722}}}, "icon": "https://maps.gstatic.com/mapfiles/place_api/icons/v1/png_71/restaurant-71.png", "icon_background_color": "#FF9E67", "icon_mask_base_uri": "https://maps.gstatic.com/mapfiles/place_api/icons/v2/restaurant_pinlet", "name": "The Mayfair Pub & Kitchen", "opening_hours": {"open_now": true}, "photos": [{"height": 2976, "html_attributions": ["<a href=\"https://maps.google.com/maps/contrib/109080944704884189305\">A Google User</a>"], "photo_reference": "AUc7tXX-cbvN-4mAFvGSs6ZsOynGrx9dvDUSiQtulhAofyy-YjCqsP9FDPcM-ivIaq8E69lFzJu9EnYajDiLgBobXdUMRq-5NGDS_9YwP1aeyiuG6rGxfiV54x-liZZmgWWGaakVDR4ZL0oiTG5RjrYL2eWL1MM_SkqtEfzV8WPBumDPxrG3", "width": 3968}], "place_id": "ChIJ391AM5lxfkgRBthNcWaVj5w", "plus_code": {"compound_code": "X9CM+V3 Newcastle upon Tyne, UK", "global_code": "9C6WX9CM+V3"}, "price_level": 2, "rating": 4.3, "reference": "ChIJ391AM5lxfkgRBthNcWaVj5w", "scope": "GOOGLE", "types": ["restaurant", "food", "point_of_interest", "establishment"], "user_ratings_total": 489, "vicinity": "Unit G11, The Gate, Newgate St, Newcastle upon Tyne"}, {"business_status": "OPERATIONAL", "geometry": {"location": {"lat": 54.9410161, "lng": -1.6288367}, "viewport": {"northeast": {"lat": 54.94222222989272, "lng": -1.627417070107278}, "southwest": {"lat": 54.93952257010727, "lng": -1.630116729892722}}}, "icon": "https://maps.gstatic.com/mapfiles/place_api/icons/v1/png_71/bar-71.png", "icon_background_color": "#FF9E67", "icon_mask_base_uri": "https://maps.gstatic.com/mapfiles/place_api/icons/v2/bar_pinlet", "name": "Waggon Team", "opening_hours": {"open_now": true}, "photos": [{"height": 3024, "html_attributions": ["<a href=\"https://maps.google.com/maps/contrib/107324445913585637353\">RICHY ISOBOMUWA</a>"], "photo_reference": "AUc7tXUUzVAoNjg5vpC3c2sUrCWMG-rkYaltBxc0IxK35D_x6UVVh5XFTnb96N7QNBTwmXkRt_Zi2HZ9lJBcIfh9egOkSVL_HXVZBS6GxugydcM1ogi_zqxVdEa9zd3A9qFCt_EMA2jOC6j4WRISBRLzGg_Vnc9dZtMpLQpRtsIAPrOBPVqu", "width": 4032}], "place_id": "ChIJN0dXI-95fkgRp_MpwX9eghE", "plus_code": {"compound_code": "W9RC+CF Gateshead, United Kingdom", "global_code": "9C6WW9RC+CF"}, "price_level": 1, "rating": 4, "reference": "ChIJN0dXI-95fkgRp_MpwX9eghE", "scope": "GOOGLE", "types": ["bar", "restaurant", "food", "point_of_interest", "establishment"], "user_ratings_total": 1126, "vicinity": "Lobley Hill Rd, Gateshead"}, {"business_status": "OPERATIONAL", "geometry": {"location": {"lat": 54.97123029999999, "lng": -1.6146618}, "viewport": {"northeast": {"lat": 54.97261562989272, "lng": -1.613281020107278}, "southwest": {"lat": 54.96991597010727, "lng": -1.615980679892722}}}, "icon": "https://maps.gstatic.com/mapfiles/place_api/icons/v1/png_71/bar-71.png", "icon_background_color": "#FF9E67", "icon_mask_base_uri": "https://maps.gstatic.com/mapfiles/place_api/icons/v2/bar_pinlet", "name": "Stein Bier Keller", "opening_hours": {"open_now": true}, "photos": [{"height": 1333, "html_attributions": ["<a href=\"https://maps.google.com/maps/contrib/106098179736101842421\">Jack Tokyo</a>"], "photo_reference": "AUc7tXW-ehF2Eg2ifse802yv-RyY9XVtk81LukAVcqFSv_ShgPs-Nw5ABejrQS0KiuYKa7WYq9S-MqxLsNmLwj6isB7CDtLh8w__d5dbrb287uUnibGYW8CHqq-n-HcWqpr1l-yYzXsUj5eOd-faHZMC-gcL90QDyvbRUCf6VEOGQBLBAemq", "width": 2000}], "place_id": "ChIJxX1s6rVwfkgRUtGEXKd4qzk", "plus_code": {"compound_code": "X9CP+F4 Newcastle upon Tyne, UK", "global_code": "9C6WX9CP+F4"}, "price_level": 2, "rating": 3.9, "reference": "ChIJxX1s6rVwfkgRUtGEXKd4qzk", "scope": "GOOGLE", "types": ["night_club", "bar", "restaurant", "food", "point_of_interest", "establishment"], "user_ratings_total": 685, "vicinity": "13 Bigg Market, Newcastle upon Tyne"}, {"business_status": "OPERATIONAL", "geometry": {"location": {"lat": 54.9726629, "lng": -1.61262}, "viewport": {"northeast": {"lat": 54.97392447989272, "lng": -1.611120670107278}, "southwest": {"lat": 54.97122482010727, "lng": -1.613820329892722}}}, "icon": "https://maps.gstatic.com/mapfiles/place_api/icons/v1/png_71/bar-71.png", "icon_background_color": "#FF9E67", "icon_mask_base_uri": "https://maps.gstatic.com/mapfiles/place_api/icons/v2/bar_pinlet", "name": "Harry's Bar Newcastle", "opening_hours": {"open_now": true}, "photos": [{"height": 520, "html_attributions": ["<a href=\"https://maps.google.com/maps/contrib/106399854530072011282\">A Google User</a>"], "photo_reference": "AUc7tXW1tZDY6TMs6WRrIUQc2OOjiw88ROumxoJVjVrFUosAR_DgihZPmLwN9sV7kRI3lcyMPiJtIqmzmxehinVPzM8ZVHlVi3js8txDebB2xtoHCcgfe8uRd4y1NhC4lMYpiyxgKyqUuXyQTZ2ufVXMjqlpJ4ZCK1rVHTkXLMrAuSf9Wicn", "width": 920}], "place_id": "ChIJY-KKDs9xfkgRu1kpwlf5AbA", "plus_code": {"compound_code": "X9FP+3X Newcastle upon Tyne, UK", "global_code": "9C6WX9FP+3X"}, "price_level": 2, "rating": 4.3, "reference": "ChIJY-KKDs9xfkgRu1kpwlf5AbA", "scope": "GOOGLE", "types": ["bar", "restaurant", "food", "point_of_interest", "establishment"], "user_ratings_total": 2066, "vicinity": "77 Grey St, Newcastle upon Tyne"}, {"business_status": "OPERATIONAL", "geometry": {"location": {"lat": 54.9706588, "lng": -1.6153726}, "viewport": {"northeast": {"lat": 54.97202532989272, "lng": -1.614192420107278}, "southwest": {"lat": 54.96932567010727, "lng": -1.616892079892722}}}, "icon": "https://maps.gstatic.com/mapfiles/place_api/icons/v1/png_71/bar-71.png", "icon_background_color": "#FF9E67", "icon_mask_base_uri": "https://maps.gstatic.com/mapfiles/place_api/icons/v2/bar_pinlet", "name": "Slug & Lettuce - Central Newcastle", "opening_hours": {"open_now": true}, "photos": [{"height": 1588, "html_attributions": ["<a href=\"https://maps.google.com/maps/contrib/106028498661396731746\">D</a>"], "photo_reference": "AUc7tXUKHYXyOKmKR3BW9_NjN0d1mA-mg6h08C6GXqHH6mLVmOpTBCz-xb1Hiz6rfHly52UJ_uJ46IjMtlYOO2u4oJeDOOlpEETPxiniNswiH1r-KPnK3eUzIy_EwhfdVBQyAJDC-NgjPXEOrTRLx1YBYwqeKpa879eNMRA38Mv_q8-WiWFO", "width": 3264}], "place_id": "ChIJXXKEYbhxfkgRcMcn-iPxAAQ", "plus_code": {"compound_code": "X9CM+7V Newcastle upon Tyne, UK", "global_code": "9C6WX9CM+7V"}, "price_level": 2, "rating": 4.6, "reference": "ChIJXXKEYbhxfkgRcMcn-iPxAAQ", "scope": "GOOGLE", "types": ["bar", "restaurant", "food", "point_of_interest", "establishment"], "user_ratings_total": 2278, "vicinity": "30 Grainger St, Newcastle upon Tyne"}, {"business_status": "OPERATIONAL", "geometry": {"location": {"lat": 54.9698546, "lng": -1.6140304}, "viewport": {"northeast": {"lat": 54.97115157989272, "lng": -1.612746770107278}, "southwest": {"lat": 54.96845192010727, "lng": -1.615446429892722}}}, "icon": "https://maps.gstatic.com/mapfiles/place_api/icons/v1/png_71/bar-71.png", "icon_background_color": "#FF9E67", "icon_mask_base_uri": "https://maps.gstatic.com/mapfiles/place_api/icons/v2/bar_pinlet", "name": "Revolution Newcastle Upon Tyne", "opening_hours": {"open_now": true}, "photos": [{"height": 1365, "html_attributions": ["<a href=\"https://maps.google.com/maps/contrib/104305517496828473230\">A Google User</a>"], "photo_reference": "AUc7tXVvJjLklfKfVBfItgm21eUZTsyrQiEgG57EQoEHKvWFE0cj3uz1WxLuCvZ3ouGAol96DV7yGztLTpSNNoZp0DdOz90Y4XJCkjprjSSMYJNhhB_bnr2Blv1fpLqMLS5tqnL79ACJyAoL2LnjiWKchwvV936PCAP82WYHpaLH1QUiqznR", "width": 2048}], "place_id": "ChIJGwTofLZwfkgR8YNnOw2VaOk", "plus_code": {"compound_code": "X99P+W9 Newcastle upon Tyne, UK", "global_code": "9C6WX99P+W9"}, "price_level": 2, "rating": 4.1, "reference": "ChIJGwTofLZwfkgR8YNnOw2VaOk", "scope": "GOOGLE", "types": ["night_club", "bar", "restaurant", "food", "point_of_interest", "establishment"], "user_ratings_total": 1411, "vicinity": "Collingwood St, Newcastle upon Tyne"}, {"business_status": "OPERATIONAL", "geometry": {"location": {"lat": 54.972958, "lng": -1.5885803}, "viewport": {"northeast": {"lat": 54.97431877989272, "lng": -1.587162920107278}, "southwest": {"lat": 54.97161912010727, "lng": -1.589862579892722}}}, "icon": "https://maps.gstatic.com/mapfiles/place_api/icons/v1/png_71/bar-71.png", "icon_background_color": "#FF9E67", "icon_mask_base_uri": "https://maps.gstatic.com/mapfiles/place_api/icons/v2/bar_pinlet", "name": "Brinkburn St Brewery, Bar & Kitchen", "opening_hours": {"open_now": true}, "photos": [{"height": 3024, "html_attributions": ["<a href=\"https://maps.google.com/maps/contrib/107848446856811337625\">A Google User</a>"], "photo_reference": "AUc7tXXeg-oKNH5YNE-LaBPKDZ49i8RCqa_qjUc46qBtikhMYi1oa1DNjRoG3F621ImC3N7CtxMMwkk67_GtR8PAuk27hZslyEyYLd1LzCV5hHJkjfip_092v88lVUvD_VwH4S2YnV_2oH2uaHDw6OxfWDVaztDU7lkp2MSz8ADTuxK2oJ-D", "width": 4032}], "place_id": "ChIJJSHBZpJwfkgRaSq-RiTCrJc", "plus_code": {"compound_code": "XCF6+5H Newcastle upon Tyne, UK", "global_code": "9C6WXCF6+5H"}, "price_level": 2, "rating": 4.6, "reference": "ChIJJSHBZpJwfkgRaSq-RiTCrJc", "scope": "GOOGLE", "types": ["bar", "restaurant", "food", "point_of_interest", "establishment"], "user_ratings_total": 568, "vicinity": "1A Ford St, Byker, Newcastle upon Tyne"}, {"business_status": "OPERATIONAL", "geometry": {"location": {"lat": 54.9706291, "lng": -1.6106727}, "viewport": {"northeast": {"lat": 54.97205247989272, "lng": -1.609376720107278}, "southwest": {"lat": 54.96935282010728, "lng": -1.612076379892722}}}, "icon": "https://maps.gstatic.com/mapfiles/place_api/icons/v1/png_71/restaurant-71.png", "icon_background_color": "#FF9E67", "icon_mask_base_uri": "https://maps.gstatic.com/mapfiles/place_api/icons/v2/restaurant_pinlet", "name": "Miller & Carter Newcastle", "opening_hours": {"open_now": true}, "photos": [{"height": 2322, "html_attributions": ["<a href=\"https://maps.google.com/maps/contrib/118101877415785492290\">Ian Duncan</a>"], "photo_reference": "AUc7tXUdCqDHMs2AvgBYRY46PEgICA50IuOJcB0LT-AWC-YgIi_D_x7SwImsX8VH_2oGIktaRVg76_SiJFJTjyx-7v2i8_HED5_1w9NpDDOI6NwTdc3qwaqqtM-rj4QUl35CN_TvVIzdQ9JCbjHZ2AGjzkKFWbwWls9JeXDgKMgMbm0WXx0T", "width": 4128}], "place_id": "ChIJ6xNRQ7ZwfkgRh9EKuffG6Ns", "plus_code": {"compound_code": "X9CQ+7P Newcastle upon Tyne, UK", "global_code": "9C6WX9CQ+7P"}, "price_level": 2, "rating": 4.7, "reference": "ChIJ6xNRQ7ZwfkgRh9EKuffG6Ns", "scope": "GOOGLE", "types": ["bar", "restaurant", "food", "point_of_interest", "establishment"], "user_ratings_total": 5135, "vicinity": "26 Mosley St, Newcastle upon Tyne"}, {"business_status": "OPERATIONAL", "geometry": {"location": {"lat": 54.9724309, "lng": -1.6184493}, "viewport": {"northeast": {"lat": 54.97384257989272, "lng": -1.616613320107278}, "southwest": {"lat": 54.97114292010728, "lng": -1.619312979892722}}}, "icon": "https://maps.gstatic.com/mapfiles/place_api/icons/v1/png_71/bar-71.png", "icon_background_color": "#FF9E67", "icon_mask_base_uri": "https://maps.gstatic.com/mapfiles/place_api/icons/v2/bar_pinlet", "name": "The Keel Row - JD Wetherspoon", "opening_hours": {"open_now": true}, "photos": [{"height": 3888, "html_attributions": ["<a href=\"https://maps.google.com/maps/contrib/108532317933174085108\">Peter Tylee</a>"], "photo_reference": "AUc7tXU6mOLQWvUp3FqVfXw-gK0cHGtByTzDX41-asVPJEgTWiFidsS2u39-cWqkKPcxBkxvWn-QxTuB611ZBGZ90UFnURjSxvcd01xXkPzc0DRB8Va5d7yTuNqRYhUUeu74ZRv8Yzzr295M88cnT2zHbOIkSeDxz07cbTNgMfnNB41zMJpy", "width": 5184}], "place_id": "ChIJNT4AoMpwfkgRaRnVZ-Lwn64", "plus_code": {"compound_code": "X9CJ+XJ Newcastle upon Tyne, UK", "global_code": "9C6WX9CJ+XJ"}, "price_level": 1, "rating": 4, "reference": "ChIJNT4AoMpwfkgRaRnVZ-Lwn64", "scope": "GOOGLE", "types": ["bar", "restaurant", "food", "point_of_interest", "establishment"], "user_ratings_total": 1993, "vicinity": "Unit G3, Ground Floor, Cinema Complex, The Gate, Newgate St, Newcastle upon Tyne"}, {"business_status": "OPERATIONAL", "geometry": {"location": {"lat": 54.97205049999999, "lng": -1.612508}, "viewport": {"northeast": {"lat": 54.97334497989272, "lng": -1.611156820107278}, "southwest": {"lat": 54.97064532010727, "lng": -1.613856479892722}}}, "icon": "https://maps.gstatic.com/mapfiles/place_api/icons/v1/png_71/restaurant-71.png", "icon_background_color": "#FF9E67", "icon_mask_base_uri": "https://maps.gstatic.com/mapfiles/place_api/icons/v2/restaurant_pinlet", "name": "Pleased To Meet You", "opening_hours": {"open_now": true}, "photos": [{"height": 1960, "html_attributions": ["<a href=\"https://maps.google.com/maps/contrib/104924228649887254574\">Xavier Marot</a>"], "photo_reference": "AUc7tXUwAv1FRElROflNjCL8jV7_xlSM4g7tNqKVagPvG8c4bsKzVyTWBBv9_CkRrTCDlvHM8HuECeL6lf3CffXkb302FZg4s0hz8_-EOI_h-003giHBh9w_9ynr_vGbKA8yQqm4BqdYWxtBjBGNv9w4SxJOq9CDvmc-OKcFt0WO46Zqw3rt", "width": 4032}], "place_id": "ChIJT-I3BbZwfkgRzUF9wMAGSLs", "plus_code": {"compound_code": "X9CP+RX Newcastle upon Tyne, UK", "global_code": "9C6WX9CP+RX"}, "price_level": 2, "rating": 4.3, "reference": "ChIJT-I3BbZwfkgRzUF9wMAGSLs", "scope": "GOOGLE", "types": ["restaurant", "bar", "food", "point_of_interest", "establishment"], "user_ratings_total": 2334, "vicinity": "41-45 High Bridge, Newcastle upon Tyne"}, {"business_status": "OPERATIONAL", "geometry": {"location": {"lat": 54.97131719999999, "lng": -1.613336}, "viewport": {"northeast": {"lat": 54.97259362989272, "lng": -1.612052770107278}, "southwest": {"lat": 54.96989397010727, "lng": -1.614752429892722}}}, "icon": "https://maps.gstatic.com/mapfiles/place_api/icons/v1/png_71/bar-71.png", "icon_background_color": "#FF9E67", "icon_mask_base_uri": "https://maps.gstatic.com/mapfiles/place_api/icons/v2/bar_pinlet", "name": "Hibou Blanc", "opening_hours": {"open_now": true}, "photos": [{"height": 2268, "html_attributions": ["<a href=\"https://maps.google.com/maps/contrib/100414062769264901291\">Graeme Tones</a>"], "photo_reference": "AUc7tXXGoyeTBW-Vrz3HMnDXZsZLaHNaOb0zlfVk96HXdQ92HDn1vU07i_fJImhrlawEmnWyambuR3ZBluddXkMmNizisSyyYBeplq7_OQj0QhPDG_WFc6r9j1HKX4TbOs1U4heha9yXLRJY4d8WDAoPop6ThaCxrPGD-5Fe11OrNXhRbZZH", "width": 4032}], "place_id": "ChIJSam3Ze1xfkgRPFbbjwnc_L0", "plus_code": {"compound_code": "X9CP+GM Newcastle upon Tyne, UK", "global_code": "9C6WX9CP+GM"}, "rating": 4.6, "reference": "ChIJSam3Ze1xfkgRPFbbjwnc_L0", "scope": "GOOGLE", "types": ["bar", "restaurant", "food", "point_of_interest", "establishment"], "user_ratings_total": 272, "vicinity": "13 High Bridge, Newcastle upon Tyne"}, {"business_status": "OPERATIONAL", "geometry": {"location": {"lat": 54.97229429999999, "lng": -1.6186413}, "viewport": {"northeast": {"lat": 54.97375677989272, "lng": -1.616695820107278}, "southwest": {"lat": 54.97105712010728, "lng": -1.619395479892722}}}, "icon": "https://maps.gstatic.com/mapfiles/place_api/icons/v1/png_71/bar-71.png", "icon_background_color": "#FF9E67", "icon_mask_base_uri": "https://maps.gstatic.com/mapfiles/place_api/icons/v2/bar_pinlet", "name": "Bar + Block Steakhouse Newcastle", "opening_hours": {"open_now": true}, "photos": [{"height": 1280, "html_attributions": ["<a href=\"https://maps.google.com/maps/contrib/118423944188319059384\">A Google User</a>"], "photo_reference": "AUc7tXXJJAn11_fL8nBH7cR1F5y7jrDZu4eB8Q_dtGn7h0HPyE8D-a6-nMSfFiiyYqJq_WD1GPpv3Bbhl4aKhtYmv2F5Hgsc-6VCr5ObWKM2pQLfrfy57DwB6F3MQIO9kQeKphWiYgLjHghm-bM_7f4_JtHskHWgVG5v7u6Nk628UNDx5JB3", "width": 1920}], "place_id": "ChIJrWUDn3lxfkgRmTi2kPXWr98", "plus_code": {"compound_code": "X9CJ+WG Newcastle upon Tyne, UK", "global_code": "9C6WX9CJ+WG"}, "price_level": 2, "rating": 4.4, "reference": "ChIJrWUDn3lxfkgRmTi2kPXWr98", "scope": "GOOGLE", "types": ["bar", "restaurant", "food", "point_of_interest", "establishment"], "user_ratings_total": 266, "vicinity": "95 Newgate St, Newcastle upon Tyne"}, {"business_status": "OPERATIONAL", "geometry": {"location": {"lat": 54.9699734, "lng": -1.6049045}, "viewport": {"northeast": {"lat": 54.97136047989272, "lng": -1.603447620107278}, "southwest": {"lat": 54.96866082010727, "lng": -1.606147279892722}}}, "icon": "https://maps.gstatic.com/mapfiles/place_api/icons/v1/png_71/bar-71.png", "icon_background_color": "#FF9E67", "icon_mask_base_uri": "https://maps.gstatic.com/mapfiles/place_api/icons/v2/bar_pinlet", "name": "St. Vincent", "opening_hours": {"open_now": true}, "photos": [{"height": 800, "html_attributions": ["<a href=\"https://maps.google.com/maps/contrib/103008503489061422402\">A Google User</a>"], "photo_reference": "AUc7tXW5WVW6pUEPLtdOL19-nCPPhRgMQ0WrRVEHgWGGVA--VbeJ_cHXcUwGUFa-7kFKGwkws6KTZnNH8COCDgjDbrMI_OOSyecLGr_Livhaw2rR7vTPTNpCEm7JA9YdTtln1t0jhT3qpodnMgjvjXGVPwxxDGFaDU7Nl-tv05Z7x0QoMN0Z", "width": 1200}], "place_id": "ChIJ6_zAeldxfkgRYWcfkamzJho", "plus_code": {"compound_code": "X99W+X2 Newcastle upon Tyne, UK", "global_code": "9C6WX99W+X2"}, "rating": 4.8, "reference": "ChIJ6_zAeldxfkgRYWcfkamzJho", "scope": "GOOGLE", "types": ["bar", "cafe", "restaurant", "food", "point_of_interest", "establishment"], "user_ratings_total": 127, "vicinity": "29 Broad Chare, Newcastle upon Tyne"}, {"business_status": "OPERATIONAL", "geometry": {"location": {"lat": 54.9715047, "lng": -1.6154592}, "viewport": {"northeast": {"lat": 54.97288032989272, "lng": -1.614050770107278}, "southwest": {"lat": 54.97018067010727, "lng": -1.616750429892722}}}, "icon": "https://maps.gstatic.com/mapfiles/place_api/icons/v1/png_71/bar-71.png", "icon_background_color": "#FF9E67", "icon_mask_base_uri": "https://maps.gstatic.com/mapfiles/place_api/icons/v2/bar_pinlet", "name": "Rose & Crown", "opening_hours": {"open_now": true}, "photos": [{"height": 651, "html_attributions": ["<a href=\"https://maps.google.com/maps/contrib/105803037179050320776\">The Rose &amp; Crown</a>"], "photo_reference": "AUc7tXUlCUkI8xs6b3SgFiGekn-c4qflV3X5O_7SnXHDbSr2TIjj3-5w4zNTcAYNqsyDJ09mOSl8MnKLVgrkePziI9-EXsSy64f4_CRL69KQ7jPP9A6yKSiZIm1x1HNnqBY7kZx6vHg8nW0xB3w_KAjBRIlXh5yUMZL2TLGHkJ4kdT2BmBxk", "width": 651}], "place_id": "ChIJh7dNkbVwfkgRzH3IiEjuouE", "plus_code": {"compound_code": "X9CM+JR Newcastle upon Tyne, UK", "global_code": "9C6WX9CM+JR"}, "price_level": 1, "rating": 4.2, "reference": "ChIJh7dNkbVwfkgRzH3IiEjuouE", "scope": "GOOGLE", "types": ["bar", "point_of_interest", "establishment"], "user_ratings_total": 1041, "vicinity": "5-7 Newgate St, Newcastle upon Tyne"}, {"business_status": "OPERATIONAL", "geometry": {"location": {"lat": 54.9628862, "lng": -1.6006259}, "viewport": {"northeast": {"lat": 54.96422062989272, "lng": -1.599386820107278}, "southwest": {"lat": 54.96152097010728, "lng": -1.602086479892722}}}, "icon": "https://maps.gstatic.com/mapfiles/place_api/icons/v1/png_71/bar-71.png", "icon_background_color": "#FF9E67", "icon_mask_base_uri": "https://maps.gstatic.com/mapfiles/place_api/icons/v2/bar_pinlet", "name": "Grey Nag's Head", "opening_hours": {"open_now": true}, "photos": [{"height": 4000, "html_attributions": ["<a href=\"https://maps.google.com/maps/contrib/110350080049414400055\">Shirley Neil</a>"], "photo_reference": "AUc7tXXk4anyTszk-b9EtRtYUY_Reaw8R3Y60EMnn3KNpPiawoEQ8_gRa13ajmfTXisnP84ILAzD1YJv_vr-PY5QZ4QWjz4n-QMZwGQolSE2sWgcp0SldG0-7FSWkxoNjmWDt466clJP_bRBknZ3rbfwEt2APP5NsAI15JN2RY39rOvNG_-F", "width": 3000}], "place_id": "ChIJeQo8QrtwfkgRtvZo8vSQicQ", "plus_code": {"compound_code": "X97X+5P Gateshead, United Kingdom", "global_code": "9C6WX97X+5P"}, "price_level": 2, "rating": 4.2, "reference": "ChIJeQo8QrtwfkgRtvZo8vSQicQ", "scope": "GOOGLE", "types": ["bar", "point_of_interest", "establishment"], "user_ratings_total": 228, "vicinity": "227-229 High St, Gateshead"}, {"business_status": "OPERATIONAL", "geometry": {"location": {"lat": 54.9698244, "lng": -1.6189529}, "viewport": {"northeast": {"lat": 54.97113277989273, "lng": -1.617563020107278}, "southwest": {"lat": 54.96843312010729, "lng": -1.620262679892722}}}, "icon": "https://maps.gstatic.com/mapfiles/place_api/icons/v1/png_71/bar-71.png", "icon_background_color": "#FF9E67", "icon_mask_base_uri": "https://maps.gstatic.com/mapfiles/place_api/icons/v2/bar_pinlet", "name": "Rafferty's & No.33", "opening_hours": {"open_now": true}, "photos": [{"height": 4000, "html_attributions": ["<a href=\"https://maps.google.com/maps/contrib/117116524983992317642\">Graham Findlay</a>"], "photo_reference": "AUc7tXVx0UxzsRggKPOXKczqPC_SzCIcOfkHDa7nnOeXOqAc1DQiO6qC4DIXjib1b2QUwCTiDiSgzV9xZA0H-SOswtCz2Lil0Ax0Ns_JeScE4vqFjVVT2oXS5_Dx305tqBWRvrbeN_9DTLCbG0gHF2P0yyoisfUeJ6juPJAJsCIgepnCDJbN", "width": 6000}], "place_id": "ChIJI2SCJ7VwfkgRDOg8eM0SGYw", "plus_code": {"compound_code": "X99J+WC Newcastle upon Tyne, UK", "global_code": "9C6WX99J+WC"}, "price_level": 1, "rating": 4.2, "reference": "ChIJI2SCJ7VwfkgRDOg8eM0SGYw", "scope": "GOOGLE", "types": ["night_club", "bar", "point_of_interest", "establishment"], "user_ratings_total": 495, "vicinity": "29-31 Pink Ln, Newcastle upon Tyne"}, {"business_status": "OPERATIONAL", "geometry": {"location": {"lat": 54.9715514, "lng": -1.6144022}, "viewport": {"northeast": {"lat": 54.97277617989272, "lng": -1.613164720107278}, "southwest": {"lat": 54.97007652010728, "lng": -1.615864379892722}}}, "icon": "https://maps.gstatic.com/mapfiles/place_api/icons/v1/png_71/bar-71.png", "icon_background_color": "#FF9E67", "icon_mask_base_uri": "https://maps.gstatic.com/mapfiles/place_api/icons/v2/bar_pinlet", "name": "Filthy's Newcastle", "opening_hours": {"open_now": true}, "photos": [{"height": 3024, "html_attributions": ["<a href=\"https://maps.google.com/maps/contrib/109441344030302761965\">Steve Wright</a>"], "photo_reference": "AUc7tXXkIYJaNT4iIqS4r9vTG1QagbHuta0OIYJVFrhoxreV20ac5BPJ5pJnd4M5baB5wpLd_e5a7K38DDfxIrv8lrhcuiAo7-OH-17hi3EErdwRst9hNLIgxvE4-b1XImSntTjGqrt0vZGtX3tdHtpZElfG4XKWVQNmiAXdmWV2os7NsxsN", "width": 4032}], "place_id": "ChIJ1Qcq6bVwfkgRk3q0oarH5Yc", "plus_code": {"compound_code": "X9CP+J6 Newcastle upon Tyne, UK", "global_code": "9C6WX9CP+J6"}, "price_level": 2, "rating": 4.1, "reference": "ChIJ1Qcq6bVwfkgRk3q0oarH5Yc", "scope": "GOOGLE", "types": ["bar", "point_of_interest", "establishment"], "user_ratings_total": 960, "vicinity": "3-4, Bigg Market, Newcastle upon Tyne"}, {"business_status": "OPERATIONAL", "geometry": {"location": {"lat": 54.9723403, "lng": -1.6111125}, "viewport": {"northeast": {"lat": 54.97370392989272, "lng": -1.609785970107278}, "southwest": {"lat": 54.97100427010728, "lng": -1.612485629892722}}}, "icon": "https://maps.gstatic.com/mapfiles/place_api/icons/v1/png_71/bar-71.png", "icon_background_color": "#FF9E67", "icon_mask_base_uri": "https://maps.gstatic.com/mapfiles/place_api/icons/v2/bar_pinlet", "name": "Bacchus", "opening_hours": {"open_now": true}, "photos": [{"height": 2268, "html_attributions": ["<a href=\"https://maps.google.com/maps/contrib/106383631922205550602\">Charlie Reavley</a>"], "photo_reference": "AUc7tXWKkVb9pcHx-9AXnI1CczHa_Loy_ONJfGFl6EvivELzyukXyqsQGOc-JgWu63Y_A0sbHyGH2713demxZNtQuazHAKsl9jiKuVt210dicoIUvihYvpRlnZOqLlD1lK5R20YkWfd-nCL3LZmVlTIwkJU_EjyWOVsbifYR8hW-PISP-Or3", "width": 4032}], "place_id": "ChIJTXYcarV2fkgR_tz1eJddxnI", "plus_code": {"compound_code": "X9CQ+WH Newcastle upon Tyne, UK", "global_code": "9C6WX9CQ+WH"}, "price_level": 2, "rating": 4.3, "reference": "ChIJTXYcarV2fkgR_tz1eJddxnI", "scope": "GOOGLE", "types": ["bar", "point_of_interest", "establishment"], "user_ratings_total": 1288, "vicinity": "42-48 High Bridge, Newcastle upon Tyne"}, {"business_status": "OPERATIONAL", "geometry": {"location": {"lat": 54.9681407, "lng": -1.6142361}, "viewport": {"northeast": {"lat": 54.96952477989272, "lng": -1.612896320107278}, "southwest": {"lat": 54.96682512010727, "lng": -1.615595979892722}}}, "icon": "https://maps.gstatic.com/mapfiles/place_api/icons/v1/png_71/bar-71.png", "icon_background_color": "#FF9E67", "icon_mask_base_uri": "https://maps.gstatic.com/mapfiles/place_api/icons/v2/bar_pinlet", "name": "The Telegraph", "opening_hours": {"open_now": true}, "photos": [{"height": 632, "html_attributions": ["<a href=\"https://maps.google.com/maps/contrib/110671256938633303808\">A Google User</a>"], "photo_reference": "AUc7tXUMxW0eQGaeTUwNn-00DsjTkh4DNuwP6Hey7_kh5WtVy0Biz6uD2jY1P2tG3igpxfvqZ3wP4abp2Vv5KCOcb5eBt8v2IqVkyi93xthaZuVI_0o9JfA8fPraFWQjQ4FTwP4_ToXKQWoh2nsoP68faIMJQv9kvsf3-gc24wciztuWXU1A", "width": 1080}], "place_id": "ChIJB_R-EbRwfkgRKrXkuz5HeXY", "plus_code": {"compound_code": "X99P+78 Newcastle upon Tyne, UK", "global_code": "9C6WX99P+78"}, "price_level": 2, "rating": 4.1, "reference": "ChIJB_R-EbRwfkgRKrXkuz5HeXY", "scope": "GOOGLE", "types": ["bar", "point_of_interest", "establishment"], "user_ratings_total": 700, "vicinity": "Orchard St, Newcastle upon Tyne"}, {"business_status": "OPERATIONAL", "geometry": {"location": {"lat": 54.9711425, "lng": -1.6129394}, "viewport": {"northeast": {"lat": 54.97245497989272, "lng": -1.611599620107278}, "southwest": {"lat": 54.96975532010727, "lng": -1.614299279892722}}}, "icon": "https://maps.gstatic.com/mapfiles/place_api/icons/v1/png_71/bar-71.png", "icon_background_color": "#FF9E67", "icon_mask_base_uri": "https://maps.gstatic.com/mapfiles/place_api/icons/v2/bar_pinlet", "name": "Pumphreys Newcastle", "opening_hours": {"open_now": true}, "photos": [{"height": 1440, "html_attributions": ["<a href=\"https://maps.google.com/maps/contrib/110436560635725021735\">David Anon</a>"], "photo_reference": "AUc7tXXqxXAGFloAAo2yqE1T3QkCZpncFaeS0qeB94ln1kmZFTRwqal0TdNxxwFzQF2b-AoOdriTSk_XXx5V_L5LLUyI5pD9HTgplXS4aO4GXM433uEUHdccdPLH0NqDMX6qQGbkGT93mEwuc0t6qa6rZFW9GLfi4i_qcDZVeDsRwsSP-XyX", "width": 2560}], "place_id": "ChIJq7Ui9V5xfkgRPKVYjc-GZ38", "plus_code": {"compound_code": "X9CP+FR Newcastle upon Tyne, UK", "global_code": "9C6WX9CP+FR"}, "price_level": 1, "rating": 4.3, "reference": "ChIJq7Ui9V5xfkgRPKVYjc-GZ38", "scope": "GOOGLE", "types": ["bar", "point_of_interest", "establishment"], "user_ratings_total": 272, "vicinity": "44 Cloth Market, Newcastle upon Tyne"}, {"business_status": "OPERATIONAL", "geometry": {"location": {"lat": 54.9610425, "lng": -1.5999772}, "viewport": {"northeast": {"lat": 54.96237102989272, "lng": -1.598703820107278}, "southwest": {"lat": 54.95967137010727, "lng": -1.601403479892722}}}, "icon": "https://maps.gstatic.com/mapfiles/place_api/icons/v1/png_71/bar-71.png", "icon_background_color": "#FF9E67", "icon_mask_base_uri": "https://maps.gstatic.com/mapfiles/place_api/icons/v2/bar_pinlet", "name": "Ye Olde Fleece", "opening_hours": {"open_now": true}, "photos": [{"height": 4160, "html_attributions": ["<a href=\"https://maps.google.com/maps/contrib/101257247020674641839\">A Google User</a>"], "photo_reference": "AUc7tXWaFqBMpJq0Nv8GUkVKHZZzQG_ycKbVGwqPT3DUYfGXJ2sXtyrXJ02JpfJW62kcripoga292qSl7YHpG5H-YxsGu-2FYYjE1IklTutCAZya2_nJhmho684ubdJn6cnj2vz9VnYQpC1i6XKgQjQDXUledWu8IqUyAAW48RIlws99qeh3", "width": 3120}], "place_id": "ChIJd0mIsKRwfkgR_T3Ezztrurs", "plus_code": {"compound_code": "XC62+C2 Gateshead, United Kingdom", "global_code": "9C6WXC62+C2"}, "price_level": 1, "rating": 4.3, "reference": "ChIJd0mIsKRwfkgR_T3Ezztrurs", "scope": "GOOGLE", "types": ["bar", "point_of_interest", "establishment"], "user_ratings_total": 149, "vicinity": "291 High St, Gateshead"}, {"business_status": "OPERATIONAL", "geometry": {"location": {"lat": 54.9717265, "lng": -1.6126674}, "viewport": {"northeast": {"lat": 54.97308867989272, "lng": -1.611269620107278}, "southwest": {"lat": 54.97038902010728, "lng": -1.613969279892722}}}, "icon": "https://maps.gstatic.com/mapfiles/place_api/icons/v1/png_71/bar-71.png", "icon_background_color": "#FF9E67", "icon_mask_base_uri": "https://maps.gstatic.com/mapfiles/place_api/icons/v2/bar_pinlet", "name": "The Duke of Wellington High Bridge.", "opening_hours": {"open_now": true}, "photos": [{"height": 3648, "html_attributions": ["<a href=\"https://maps.google.com/maps/contrib/104239213967927131250\">Richard Common</a>"], "photo_reference": "AUc7tXVIqRnyGnIX6R-6ilzQGwEFAgtE0A4EfC8_OTTNhK91Th8KATRUy0xuKOvIZmLlnX5DTwbkYLy8jvJ33Sk7ECVLtCoobHY07NqCCuKEFlEJDUKg0cUMAbKO3n_Luc3dKIro5iMestgAZ5TE8PSg0VvsV5O_X-eukVGEH_MQ5mpn3h7q", "width": 5472}], "place_id": "ChIJlwXhDrZwfkgRrklKVOhYrQg", "plus_code": {"compound_code": "X9CP+MW Newcastle upon Tyne, UK", "global_code": "9C6WX9CP+MW"}, "price_level": 2, "rating": 4.1, "reference": "ChIJlwXhDrZwfkgRrklKVOhYrQg", "scope": "GOOGLE", "types": ["bar", "point_of_interest", "establishment"], "user_ratings_total": 516, "vicinity": "18 High Bridge, Newcastle upon Tyne"}, {"business_status": "OPERATIONAL", "geometry": {"location": {"lat": 54.9482459, "lng": -1.5780832}, "viewport": {"northeast": {"lat": 54.94950382989272, "lng": -1.576683520107278}, "southwest": {"lat": 54.94680417010728, "lng": -1.579383179892722}}}, "icon": "https://maps.gstatic.com/mapfiles/place_api/icons/v1/png_71/bar-71.png", "icon_background_color": "#FF9E67", "icon_mask_base_uri": "https://maps.gstatic.com/mapfiles/place_api/icons/v2/bar_pinlet", "name": "The Brandling Inn", "opening_hours": {"open_now": true}, "photos": [{"height": 4032, "html_attributions": ["<a href=\"https://maps.google.com/maps/contrib/116370512160303500853\">Wayne Rushton</a>"], "photo_reference": "AUc7tXXnoAICOz2-gpoEG55DbET1ZSjE3Ep5-MfJoVP2HsfEXZFPgEMtoSOBUVjX-Jc78eFdPfd8jtmLJkhovabsACFDIf7N1GCgfal0IFq7AkgH_XidqUISqNigLi7K9qhoRM-LUy08-ddKS5_bPQoAtQM4lYaHKbBdc8nXhbV-byUxdiMj", "width": 3024}], "place_id": "ChIJk9qnb3d6fkgR5l1O246qbiQ", "plus_code": {"compound_code": "WCXC+7Q Gateshead, United Kingdom", "global_code": "9C6WWCXC+7Q"}, "price_level": 1, "rating": 4.3, "reference": "ChIJk9qnb3d6fkgR5l1O246qbiQ", "scope": "GOOGLE", "types": ["bar", "point_of_interest", "establishment"], "user_ratings_total": 113, "vicinity": "Balmoral Way, Deckham, Gateshead"}, {"business_status": "OPERATIONAL", "geometry": {"location": {"lat": 54.9718889, "lng": -1.6113389}, "viewport": {"northeast": {"lat": 54.97317547989272, "lng": -1.610179770107278}, "southwest": {"lat": 54.97047582010727, "lng": -1.612879429892722}}}, "icon": "https://maps.gstatic.com/mapfiles/place_api/icons/v1/png_71/bar-71.png", "icon_background_color": "#FF9E67", "icon_mask_base_uri": "https://maps.gstatic.com/mapfiles/place_api/icons/v2/bar_pinlet", "name": "Fitzgeralds", "opening_hours": {"open_now": true}, "photos": [{"height": 3024, "html_attributions": ["<a href=\"https://maps.google.com/maps/contrib/106520385956948215332\">Mark Lovatt</a>"], "photo_reference": "AUc7tXWTOrfHu6zEKe6MVXX8AoPGFmAQA2kKT1NnhPxK2p0Ehp5Ec7qR6OJySsZ8NOqL-ybqejH9aOQ0ibO8XFgLtIt2OsCEcO0iu4kMJTjuMSjEB-zc4XpbZ2MzMYcFdS_SyE6XsvMd2_Khh8vfg8g4Vl4VaUHhK-xxy1ISMl_lpcWohf50", "width": 4032}], "place_id": "ChIJWcVYPbZwfkgR3HrBZoJJMSg", "plus_code": {"compound_code": "X9CQ+QF Newcastle upon Tyne, UK", "global_code": "9C6WX9CQ+QF"}, "price_level": 2, "rating": 4.2, "reference": "ChIJWcVYPbZwfkgR3HrBZoJJMSg", "scope": "GOOGLE", "types": ["bar", "point_of_interest", "establishment"], "user_ratings_total": 1258, "vicinity": "60 Grey St, Newcastle upon Tyne"}, {"business_status": "OPERATIONAL", "geometry": {"location": {"lat": 54.9481307, "lng": -1.592466}, "viewport": {"northeast": {"lat": 54.94945282989271, "lng": -1.591220520107278}, "southwest": {"lat": 54.94675317010727, "lng": -1.593920179892722}}}, "icon": "https://maps.gstatic.com/mapfiles/place_api/icons/v1/png_71/bar-71.png", "icon_background_color": "#FF9E67", "icon_mask_base_uri": "https://maps.gstatic.com/mapfiles/place_api/icons/v2/bar_pinlet", "name": "The Plough", "opening_hours": {"open_now": true}, "photos": [{"height": 3096, "html_attributions": ["<a href=\"https://maps.google.com/maps/contrib/103401816515318296463\">kenny.ranson</a>"], "photo_reference": "AUc7tXV5mQlW4nofPSNQ-Tpr_zkTO4cHZjGXFxYqpyTK2j6Iq_KtLWUtWlqLBw0AWTAssUfDEqnMLTQsXTonKudM6owyxEkUL3QMAq8r_51GJ31bBObk4kWfuYCNb2A3Fs1_PzBEiSBgEdWkPUsivnLBsfr877XP_NR79nCpH4ryAYo2OzvQ", "width": 5504}], "place_id": "ChIJY3TKwgp6fkgRoa3XF8rBLcY", "plus_code": {"compound_code": "WCX5+72 Gateshead, United Kingdom", "global_code": "9C6WWCX5+72"}, "rating": 4.1, "reference": "ChIJY3TKwgp6fkgRoa3XF8rBLcY", "scope": "GOOGLE", "types": ["bar", "point_of_interest", "establishment"], "user_ratings_total": 153, "vicinity": "The Plough, 369 Old Durham Rd, Deckham, Gateshead"}, {"business_status": "OPERATIONAL", "geometry": {"location": {"lat": 54.972509, "lng": -1.616305}, "viewport": {"northeast": {"lat": 54.97383412989272, "lng": -1.614887170107278}, "southwest": {"lat": 54.97113447010727, "lng": -1.617586829892722}}}, "icon": "https://maps.gstatic.com/mapfiles/place_api/icons/v1/png_71/bar-71.png", "icon_background_color": "#FF9E67", "icon_mask_base_uri": "https://maps.gstatic.com/mapfiles/place_api/icons/v2/bar_pinlet", "name": "Duke Of Northumberland (The Clock)", "opening_hours": {"open_now": true}, "photos": [{"height": 3840, "html_attributions": ["<a href=\"https://maps.google.com/maps/contrib/107445915798353194730\">A Google User</a>"], "photo_reference": "AUc7tXWO5xfMYDMM-aTPQqPOQGStgtwPR_fFjO9ZSzZv6EDqhihEGjTjfnGf2zHMaFGLCZedUjKO58HsVn86y5jCuUq-jKKju3plJ_jO9zY4akZYFBSYZsmxvwdG8TzV0bQPr42qVPIhAcuGgPw2AkhR_z3kHKDLFbGUiM60e4f2D0hmirTA", "width": 5760}], "place_id": "ChIJFbtQf8pwfkgR819qk6J_cas", "plus_code": {"compound_code": "X9FM+2F Newcastle upon Tyne, UK", "global_code": "9C6WX9FM+2F"}, "price_level": 1, "rating": 4.2, "reference": "ChIJFbtQf8pwfkgR819qk6J_cas", "scope": "GOOGLE", "types": ["bar", "point_of_interest", "establishment"], "user_ratings_total": 423, "vicinity": "18 Clayton St, Newcastle upon Tyne"}, {"business_status": "OPERATIONAL", "geometry": {"location": {"lat": 54.93908399999999, "lng": -1.585824}, "viewport": {"northeast": {"lat": 54.94037582989272, "lng": -1.584612820107278}, "southwest": {"lat": 54.93767617010728, "lng": -1.587312479892722}}}, "icon": "https://maps.gstatic.com/mapfiles/place_api/icons/v1/png_71/bar-71.png", "icon_background_color": "#FF9E67", "icon_mask_base_uri": "https://maps.gstatic.com/mapfiles/place_api/icons/v2/bar_pinlet", "name": "The Travellers Rest", "opening_hours": {"open_now": true}, "photos": [{"height": 1816, "html_attributions": ["<a href=\"https://maps.google.com/maps/contrib/115914208403496060477\">James Gardner</a>"], "photo_reference": "AUc7tXX-BEsdpcYQccBzm_JUK8aaSW-uBjhwNUoZE_CbjotcNSche_gfBzGFz5ZCKXflZoPWmu2QGdu2MRIDo1008T1SXuiFHH5BJgAytsaSN2MmB7jOLOPcXdQc_aDK7qshfAWWp9MqKQkSH0e1GdHVOGzH7325Zy32zwTstNHJZZQ3sOCG", "width": 4032}], "place_id": "ChIJSRP3wW16fkgRYd6LxMjxk5A", "plus_code": {"compound_code": "WCQ7+JM Gateshead, United Kingdom", "global_code": "9C6WWCQ7+JM"}, "price_level": 1, "rating": 4.5, "reference": "ChIJSRP3wW16fkgRYd6LxMjxk5A", "scope": "GOOGLE", "types": ["bar", "point_of_interest", "establishment"], "user_ratings_total": 113, "vicinity": "1-2 Southend Rd, Gateshead"}, {"business_status": "OPERATIONAL", "geometry": {"location": {"lat": 54.9685543, "lng": -1.6102708}, "viewport": {"northeast": {"lat": 54.96994777989272, "lng": -1.608898870107278}, "southwest": {"lat": 54.96724812010728, "lng": -1.611598529892722}}}, "icon": "https://maps.gstatic.com/mapfiles/place_api/icons/v1/png_71/bar-71.png", "icon_background_color": "#FF9E67", "icon_mask_base_uri": "https://maps.gstatic.com/mapfiles/place_api/icons/v2/bar_pinlet", "name": "Bridge Hotel", "opening_hours": {"open_now": true}, "photos": [{"height": 9000, "html_attributions": ["<a href=\"https://maps.google.com/maps/contrib/116730259729975959987\">A Google User</a>"], "photo_reference": "AUc7tXXgNg6yRrfawQO999Ycgl80YGaR9_mdGMhxR-DWrd0kEQ3d15Qm3jEGgsPqdIJM9Oal2k_i3t8Bq6BcfTVnh0XhG-AmeAUdlQn56BRQ0ach4HAXYMyo9EhszHRsbQM2u11vqzXhPyOOiRYM5S1K3RUBU28SrddUYwa4d0NaFo3QxlDZ", "width": 12000}], "place_id": "ChIJRcqn6blwfkgR-4SZIP7Ksyk", "plus_code": {"compound_code": "X99Q+CW Newcastle upon Tyne, UK", "global_code": "9C6WX99Q+CW"}, "price_level": 2, "rating": 4.5, "reference": "ChIJRcqn6blwfkgR-4SZIP7Ksyk", "scope": "GOOGLE", "types": ["bar", "point_of_interest", "establishment"], "user_ratings_total": 1705, "vicinity": "Castle Garth, Newcastle upon Tyne"}, {"business_status": "OPERATIONAL", "geometry": {"location": {"lat": 54.9585427, "lng": -1.6100465}, "viewport": {"northeast": {"lat": 54.95989267989273, "lng": -1.608717470107278}, "southwest": {"lat": 54.95719302010728, "lng": -1.611417129892722}}}, "icon": "https://maps.gstatic.com/mapfiles/place_api/icons/v1/png_71/bar-71.png", "icon_background_color": "#FF9E67", "icon_mask_base_uri": "https://maps.gstatic.com/mapfiles/place_api/icons/v2/bar_pinlet", "name": "The Crown", "opening_hours": {"open_now": true}, "photos": [{"height": 4000, "html_attributions": ["<a href=\"https://maps.google.com/maps/contrib/109530016236053350838\">A Google User</a>"], "photo_reference": "AUc7tXWfRw2naVOo6P8lyBVn6kluIMDM5_DI3_6h3lqv15pyN4cFFnPeDu9r_NbzXVLcy1zjjE0TzF89zWq0l09rhy4I4HusBFdICx7tsAC6McfdT9AYQZiHpM5Ex9GSGPMUj2q8qr3ArmgxISQExXTD1bILRh3uWwT_k5rRrWzlgyt1YClR", "width": 3000}], "place_id": "ChIJv5HqjM9xfkgRR5Ca7eZTQ8s", "plus_code": {"compound_code": "X95R+C2 Gateshead, United Kingdom", "global_code": "9C6WX95R+C2"}, "price_level": 1, "rating": 4.4, "reference": "ChIJv5HqjM9xfkgRR5Ca7eZTQ8s", "scope": "GOOGLE", "types": ["bar", "point_of_interest", "establishment"], "user_ratings_total": 33, "vicinity": "The Crown, 2 Coatsworth Rd, Gateshead"}, {"business_status": "OPERATIONAL", "geometry": {"location": {"lat": 54.9726392, "lng": -1.6111887}, "viewport": {"northeast": {"lat": 54.97403487989273, "lng": -1.609839670107277}, "southwest": {"lat": 54.97133522010728, "lng": -1.612539329892722}}}, "icon": "https://maps.gstatic.com/mapfiles/place_api/icons/v1/png_71/bar-71.png", "icon_background_color": "#FF9E67", "icon_mask_base_uri": "https://maps.gstatic.com/mapfiles/place_api/icons/v2/bar_pinlet", "name": "Lady Greys", "opening_hours": {"open_now": true}, "photos": [{"height": 1800, "html_attributions": ["<a href=\"https://maps.google.com/maps/contrib/101800272430594321508\">alessio spano</a>"], "photo_reference": "AUc7tXV_QN5WjVp1g_BtBi468QFdvKR87LNHtAiUkL4sBbz0Cxa3YQIYbHjfIPOZ5Zs6cwHeA5Mmxx-dWHW9WAigD5uXsN3XViaqsKEVYITIokqmJIj2UCPWkl3c8wAaiDW3gWleUSFZ7UrGcAzga2S2k-lQVKtAa6J7BsZb1tVSR4SVsIz8", "width": 4000}], "place_id": "ChIJTR0038lwfkgR7yXyQEG2A70", "plus_code": {"compound_code": "X9FQ+3G Newcastle upon Tyne, UK", "global_code": "9C6WX9FQ+3G"}, "price_level": 2, "rating": 4.4, "reference": "ChIJTR0038lwfkgR7yXyQEG2A70", "scope": "GOOGLE", "types": ["bar", "point_of_interest", "establishment"], "user_ratings_total": 1817, "vicinity": "20 Shakespeare St, Newcastle upon Tyne"}, {"business_status": "OPERATIONAL", "geometry": {"location": {"lat": 54.94938209999999, "lng": -1.5721644}, "viewport": {"northeast": {"lat": 54.95074577989273, "lng": -1.570763670107278}, "southwest": {"lat": 54.94804612010728, "lng": -1.573463329892722}}}, "icon": "https://maps.gstatic.com/mapfiles/place_api/icons/v1/png_71/bar-71.png", "icon_background_color": "#FF9E67", "icon_mask_base_uri": "https://maps.gstatic.com/mapfiles/place_api/icons/v2/bar_pinlet", "name": "Portland Arms", "opening_hours": {"open_now": true}, "photos": [{"height": 3968, "html_attributions": ["<a href=\"https://maps.google.com/maps/contrib/117238483554108414865\">wwe figers boss 2007</a>"], "photo_reference": "AUc7tXV6VUo9B5gSEKk5xXcog0XFn4l9OEgvA8EonBWOBcFzYz-exE8WQU7ekuWnY7Qo9Hyns7pb0gVPI47rpk-V7Xf7C-VW6MHC5gSbdTErMLYJsd8wS-IASyTNsaYC4W1hmi2nvXzqupuHjSJxq9qNQNEwX2YLIiycWNQ9rQe6DN0IlHWL", "width": 2976}], "place_id": "ChIJ0bIxwXh6fkgRI7OQh3nGGHw", "plus_code": {"compound_code": "WCXH+P4 Gateshead, United Kingdom", "global_code": "9C6WWCXH+P4"}, "price_level": 1, "rating": 4.1, "reference": "ChIJ0bIxwXh6fkgRI7OQh3nGGHw", "scope": "GOOGLE", "types": ["bar", "point_of_interest", "establishment"], "user_ratings_total": 60, "vicinity": "5-7 Split Crow Rd, Felling, Gateshead"}, {"business_status": "OPERATIONAL", "geometry": {"location": {"lat": 54.9701969, "lng": -1.6186254}, "viewport": {"northeast": {"lat": 54.97159567989272, "lng": -1.617325320107278}, "southwest": {"lat": 54.96889602010727, "lng": -1.620024979892722}}}, "icon": "https://maps.gstatic.com/mapfiles/place_api/icons/v1/png_71/bar-71.png", "icon_background_color": "#FF9E67", "icon_mask_base_uri": "https://maps.gstatic.com/mapfiles/place_api/icons/v2/bar_pinlet", "name": "The Geordie Star", "opening_hours": {"open_now": true}, "photos": [{"height": 2252, "html_attributions": ["<a href=\"https://maps.google.com/maps/contrib/112534032662175334242\">A Google User</a>"], "photo_reference": "AUc7tXW495w_vBQfaQuWr1naEEczWH757HTqTZkYMC9omwbON2GNHrLT_d92w2eM0vXdv7XhdFkHmnm1o3Wd8T7P7fNo6bTgxMumQX-g9ukTp4nuHoTxGTAris30WWjrKjpP14qZCbJUMAD-LRf-ZqTBAOMewN0RPZhcL9JI0_KruzNC71eV", "width": 4000}], "place_id": "ChIJkTNL-m9xfkgRyLQA28_ohRI", "plus_code": {"compound_code": "X9CJ+3G Newcastle upon Tyne, UK", "global_code": "9C6WX9CJ+3G"}, "price_level": 2, "rating": 4.6, "reference": "ChIJkTNL-m9xfkgRyLQA28_ohRI", "scope": "GOOGLE", "types": ["bar", "point_of_interest", "establishment"], "user_ratings_total": 52, "vicinity": "79 Westgate Rd, Newcastle upon Tyne"}, {"business_status": "OPERATIONAL", "geometry": {"location": {"lat": 54.9613334, "lng": -1.600459}, "viewport": {"northeast": {"lat": 54.96270142989272, "lng": -1.599015220107278}, "southwest": {"lat": 54.96000177010728, "lng": -1.601714879892722}}}, "icon": "https://maps.gstatic.com/mapfiles/place_api/icons/v1/png_71/bar-71.png", "icon_background_color": "#FF9E67", "icon_mask_base_uri": "https://maps.gstatic.com/mapfiles/place_api/icons/v2/bar_pinlet", "name": "Curleys", "opening_hours": {"open_now": true}, "photos": [{"height": 3096, "html_attributions": ["<a href=\"https://maps.google.com/maps/contrib/109997543537034925882\">Steven Marshall</a>"], "photo_reference": "AUc7tXUhr396NNwzpDpYtbJeNlUoJpBeZ8KhnsBm3TICwT6UORKnkwNOAzVSNvhnr6ixKgQW8SDCphj2_AJL8fdAl5drCJvRmlq4x0DQlbW8eDUEqzg0lZ9B42-QkzozzQHYZwZGONcF9muDKQCQou8DhNyrnKa_ovYD5ToBE3RM8pa22MRM", "width": 4128}], "place_id": "ChIJc92qtqRwfkgR1C4WwkcngRU", "plus_code": {"compound_code": "X96X+GR Gateshead, United Kingdom", "global_code": "9C6WX96X+GR"}, "price_level": 1, "rating": 3.9, "reference": "ChIJc92qtqRwfkgR1C4WwkcngRU", "scope": "GOOGLE", "types": ["bar", "point_of_interest", "establishment"], "user_ratings_total": 122, "vicinity": "266-268 High St, Gateshead"}]