[
  {
    "business_status": "OPERATIONAL",
    "geometry": {
      "location": { "lat": 50.36935649999999, "lng": -4.139266 },
      "viewport": {
        "northeast": { "lat": 50.37072457989272, "lng": -4.137958570107277 },
        "southwest": { "lat": 50.36802492010727, "lng": -4.140658229892721 }
      }
    },
    "icon": "https://maps.gstatic.com/mapfiles/place_api/icons/v1/png_71/bar-71.png",
    "icon_background_color": "#FF9E67",
    "icon_mask_base_uri": "https://maps.gstatic.com/mapfiles/place_api/icons/v2/bar_pinlet",
    "name": "Kitty O'Hanlons",
    "opening_hours": { "open_now": true },
    "photos": [
      {
        "height": 2500,
        "html_attributions": [
          "<a href=\"https://maps.google.com/maps/contrib/106755928638063629489\">PAUL CLEGG</a>"
        ],
        "photo_reference": "AelY_CtxKU-BjhNvKFMuKF2AiA9FJ8qTrwGPZRGwR1MLASVYmmPVobCV7T_6aFZuiLft73KDaO2WpEvxfWFfb45PQOGGj-Rp1MMd1uV7ctvkcODQtTyeS9IxPu4s--Qjy-57rk2P5QVhUVk4dkq4GkYqHk7WMwUYU4HPIzsEh5tUOrbMcZOy",
        "width": 6399
      }
    ],
    "place_id": "ChIJYUgvFk2TbEgR41lL8jugqH4",
    "plus_code": {
      "compound_code": "9V96+P8 Plymouth",
      "global_code": "9C2Q9V96+P8"
    },
    "price_level": 2,
    "rating": 4.4,
    "reference": "ChIJYUgvFk2TbEgR41lL8jugqH4",
    "scope": "GOOGLE",
    "types": [
      "bar",
      "restaurant",
      "food",
      "point_of_interest",
      "establishment"
    ],
    "user_ratings_total": 771,
    "vicinity": "5 St Andrew St, Plymouth"
  },
  {
    "business_status": "OPERATIONAL",
    "geometry": {
      "location": { "lat": 50.3735218, "lng": -4.1380665 },
      "viewport": {
        "northeast": { "lat": 50.37483667989271, "lng": -4.136850170107278 },
        "southwest": { "lat": 50.37213702010727, "lng": -4.139549829892722 }
      }
    },
    "icon": "https://maps.gstatic.com/mapfiles/place_api/icons/v1/png_71/bar-71.png",
    "icon_background_color": "#FF9E67",
    "icon_mask_base_uri": "https://maps.gstatic.com/mapfiles/place_api/icons/v2/bar_pinlet",
    "name": "The Roundabout",
    "opening_hours": { "open_now": true },
    "photos": [
      {
        "height": 1000,
        "html_attributions": [
          "<a href=\"https://maps.google.com/maps/contrib/112240441139104080650\">Roundabout</a>"
        ],
        "photo_reference": "AelY_CskCIkzts0XGwPGn5Kr3JgTjbjalnAIP5WeNb5Zp4SdryZUs_Nx9CM8RwEGgYSN2d5II6lSZYYiMWoA54jldhuC7AcLNZXZMYQiNa2UlOxBsrPWYcDaG9ICKOAL92j2imQoR9r93FAmuJwn7fE60N2kbA8p_nyaOms470ZZcfUNw5DM",
        "width": 1500
      }
    ],
    "place_id": "ChIJV0KZsrTsbEgRxqmLsxuucGI",
    "plus_code": {
      "compound_code": "9VF6+CQ Plymouth",
      "global_code": "9C2Q9VF6+CQ"
    },
    "price_level": 1,
    "rating": 4.3,
    "reference": "ChIJV0KZsrTsbEgRxqmLsxuucGI",
    "scope": "GOOGLE",
    "types": ["bar", "point_of_interest", "establishment"],
    "user_ratings_total": 1319,
    "vicinity": "2-4 Drake Circus, Plymouth"
  },
  {
    "business_status": "OPERATIONAL",
    "geometry": {
      "location": { "lat": 50.36759989999999, "lng": -4.1371734 },
      "viewport": {
        "northeast": { "lat": 50.36897792989272, "lng": -4.135813670107278 },
        "southwest": { "lat": 50.36627827010727, "lng": -4.138513329892722 }
      }
    },
    "icon": "https://maps.gstatic.com/mapfiles/place_api/icons/v1/png_71/bar-71.png",
    "icon_background_color": "#FF9E67",
    "icon_mask_base_uri": "https://maps.gstatic.com/mapfiles/place_api/icons/v2/bar_pinlet",
    "name": "The Queens Arms",
    "opening_hours": { "open_now": true },
    "photos": [
      {
        "height": 2268,
        "html_attributions": [
          "<a href=\"https://maps.google.com/maps/contrib/118307246235664635266\">Trond Fuhre</a>"
        ],
        "photo_reference": "AelY_Cs7GWjU_RIT1Ix_q8fMl9jYVr8m_SzydubHM0-Gyxnz75Q5VdardtyGONAA8RXjbBQR5XdCtKN5BkQ-NvmRBW6cWJaz3fI1B177p4cArKphWArJYd5kYNm1q4j9uPZ4UuTreWSAp4EC5C_PrfW-6ia4mht5RdtI8xXcXjGVTtql7ecU",
        "width": 4032
      }
    ],
    "place_id": "ChIJEScMVa3sbEgRvtucmZtSTVM",
    "plus_code": {
      "compound_code": "9V97+24 Plymouth",
      "global_code": "9C2Q9V97+24"
    },
    "price_level": 2,
    "rating": 4.4,
    "reference": "ChIJEScMVa3sbEgRvtucmZtSTVM",
    "scope": "GOOGLE",
    "types": ["bar", "point_of_interest", "establishment"],
    "user_ratings_total": 433,
    "vicinity": "55 Southside St, Plymouth"
  },
  {
    "business_status": "OPERATIONAL",
    "geometry": {
      "location": { "lat": 50.3669357, "lng": -4.141112 },
      "viewport": {
        "northeast": { "lat": 50.36827597989272, "lng": -4.139779070107278 },
        "southwest": { "lat": 50.36557632010727, "lng": -4.142478729892722 }
      }
    },
    "icon": "https://maps.gstatic.com/mapfiles/place_api/icons/v1/png_71/bar-71.png",
    "icon_background_color": "#FF9E67",
    "icon_mask_base_uri": "https://maps.gstatic.com/mapfiles/place_api/icons/v2/bar_pinlet",
    "name": "The Gipsy Moth",
    "opening_hours": { "open_now": true },
    "photos": [
      {
        "height": 3472,
        "html_attributions": [
          "<a href=\"https://maps.google.com/maps/contrib/115840187122006839169\">Neville Skitt</a>"
        ],
        "photo_reference": "AelY_Cst2s1SQQjaa1MRr7i3WZQEafuSZBKm4H9ih4_IZS96JmzwdDVH2-ksS5v-eP9cGxwaKR0uIcIjuBWmfzixJQjle2ftUlNxmSNFapRjdEqQI2uZAH7jHzCThVQc9DG0UtS8Bual5wmj53PPNomXsMI6gq_Tiz4p60rqJl8t9zz-GenQ",
        "width": 4640
      }
    ],
    "place_id": "ChIJc17ib1KTbEgRCPSWTzpWBYk",
    "plus_code": {
      "compound_code": "9V85+QH Plymouth",
      "global_code": "9C2Q9V85+QH"
    },
    "price_level": 2,
    "rating": 4.3,
    "reference": "ChIJc17ib1KTbEgRCPSWTzpWBYk",
    "scope": "GOOGLE",
    "types": ["bar", "point_of_interest", "establishment"],
    "user_ratings_total": 884,
    "vicinity": "159 Citadel Rd, Plymouth"
  },
  {
    "business_status": "OPERATIONAL",
    "geometry": {
      "location": { "lat": 50.3696919, "lng": -4.147223299999999 },
      "viewport": {
        "northeast": { "lat": 50.37110527989271, "lng": -4.145908320107279 },
        "southwest": { "lat": 50.36840562010727, "lng": -4.148607979892723 }
      }
    },
    "icon": "https://maps.gstatic.com/mapfiles/place_api/icons/v1/png_71/bar-71.png",
    "icon_background_color": "#FF9E67",
    "icon_mask_base_uri": "https://maps.gstatic.com/mapfiles/place_api/icons/v2/bar_pinlet",
    "name": "Walkabout - Plymouth",
    "opening_hours": { "open_now": true },
    "photos": [
      {
        "height": 3024,
        "html_attributions": [
          "<a href=\"https://maps.google.com/maps/contrib/117668801197595940374\">Angela Kerr</a>"
        ],
        "photo_reference": "AelY_Cvi6irSvoOsqfrHt08o4QbASLXS8yaHbudvqPgj7646lws87NfMP8BBzyT0isqwxrCDYdDcNd_c1pADNubPjMGq49MEs7MLeOhICj9pc4dUj27P289_hboQR318LCNPDk03t1pqjlFxdfk8ZASSGxT3-2u6onqy76sf1IH4_xFd1iWx",
        "width": 4032
      }
    ],
    "place_id": "ChIJG-1qqU-TbEgRNkTfPCBc1Ew",
    "plus_code": {
      "compound_code": "9V93+V4 Plymouth",
      "global_code": "9C2Q9V93+V4"
    },
    "price_level": 2,
    "rating": 4.1,
    "reference": "ChIJG-1qqU-TbEgRNkTfPCBc1Ew",
    "scope": "GOOGLE",
    "types": [
      "night_club",
      "bar",
      "restaurant",
      "food",
      "point_of_interest",
      "establishment"
    ],
    "user_ratings_total": 1427,
    "vicinity": "5 Union St, Plymouth"
  },
  {
    "business_status": "OPERATIONAL",
    "geometry": {
      "location": { "lat": 50.3652727, "lng": -4.150722099999999 },
      "viewport": {
        "northeast": { "lat": 50.36662897989272, "lng": -4.149392470107278 },
        "southwest": { "lat": 50.36392932010727, "lng": -4.152092129892722 }
      }
    },
    "icon": "https://maps.gstatic.com/mapfiles/place_api/icons/v1/png_71/bar-71.png",
    "icon_background_color": "#FF9E67",
    "icon_mask_base_uri": "https://maps.gstatic.com/mapfiles/place_api/icons/v2/bar_pinlet",
    "name": "The West Hoe",
    "opening_hours": { "open_now": true },
    "photos": [
      {
        "height": 3024,
        "html_attributions": [
          "<a href=\"https://maps.google.com/maps/contrib/103961797512684539899\">Steve Melhuish</a>"
        ],
        "photo_reference": "AelY_CvC4QTinK9GIZPuxd0RgmWsZ8F4g4AEVfWcqhpeW5AnBBm9hSo6zJPty0APgsHQBVQHQYXwK4wnr3msJ1TvZP6rrFKd_FNNnpRd_2lDeOxg-3_Cp4aEKBaTMrO25148bQ7YXsoDttEZ6IEEpgr2siCnEJtTOCotiKI1yv6RAFy2iM_x",
        "width": 4032
      }
    ],
    "place_id": "ChIJqdGf7FqTbEgRgFy9wiob1zA",
    "plus_code": {
      "compound_code": "9R8X+4M Plymouth",
      "global_code": "9C2Q9R8X+4M"
    },
    "price_level": 1,
    "rating": 4.5,
    "reference": "ChIJqdGf7FqTbEgRgFy9wiob1zA",
    "scope": "GOOGLE",
    "types": ["bar", "point_of_interest", "establishment"],
    "user_ratings_total": 287,
    "vicinity": "24 Bishops Place, Plymouth"
  },
  {
    "business_status": "OPERATIONAL",
    "geometry": {
      "location": { "lat": 50.3695654, "lng": -4.1442684 },
      "viewport": {
        "northeast": { "lat": 50.37089212989272, "lng": -4.143078820107279 },
        "southwest": { "lat": 50.36819247010727, "lng": -4.145778479892723 }
      }
    },
    "icon": "https://maps.gstatic.com/mapfiles/place_api/icons/v1/png_71/bar-71.png",
    "icon_background_color": "#FF9E67",
    "icon_mask_base_uri": "https://maps.gstatic.com/mapfiles/place_api/icons/v2/bar_pinlet",
    "name": "The Bank",
    "opening_hours": { "open_now": true },
    "photos": [
      {
        "height": 1776,
        "html_attributions": [
          "<a href=\"https://maps.google.com/maps/contrib/100647970327172062104\">Bryan Roberts</a>"
        ],
        "photo_reference": "AelY_CsS0l7WGispiVVPsh4lvgVHCWiQtvg221EkooaqAXTnkp8Hca1-IZ-hTYHtOf8DzVnUOavX929nQbty__vId-aGowTYh5KYRSDYlptcsBskC8eBA180YE05h4DQ3cWXWfdt6F8WNdzj-7LLXc6rrlYFG-rPVRv6prSjTLAg7OgSXnqz",
        "width": 3277
      }
    ],
    "place_id": "ChIJd_moaE6TbEgR4ojkhkxVRr4",
    "plus_code": {
      "compound_code": "9V94+R7 Plymouth",
      "global_code": "9C2Q9V94+R7"
    },
    "price_level": 1,
    "rating": 4.3,
    "reference": "ChIJd_moaE6TbEgR4ojkhkxVRr4",
    "scope": "GOOGLE",
    "types": ["bar", "point_of_interest", "establishment"],
    "user_ratings_total": 2325,
    "vicinity": "Old George St, Plymouth"
  },
  {
    "business_status": "OPERATIONAL",
    "geometry": {
      "location": { "lat": 50.3749884, "lng": -4.137075400000001 },
      "viewport": {
        "northeast": { "lat": 50.37639302989272, "lng": -4.135673520107278 },
        "southwest": { "lat": 50.37369337010728, "lng": -4.138373179892722 }
      }
    },
    "icon": "https://maps.gstatic.com/mapfiles/place_api/icons/v1/png_71/bar-71.png",
    "icon_background_color": "#FF9E67",
    "icon_mask_base_uri": "https://maps.gstatic.com/mapfiles/place_api/icons/v2/bar_pinlet",
    "name": "The Skiving Scholar",
    "opening_hours": { "open_now": true },
    "photos": [
      {
        "height": 768,
        "html_attributions": [
          "<a href=\"https://maps.google.com/maps/contrib/100849466879509215826\">Ian Turner</a>"
        ],
        "photo_reference": "AelY_CuDRwKY_htaArfx9pWPKMIHFKkp0NnUoK9o-Aj2js1GXCIC5waWCd0qPDk4D84SZPg_wZXMl6WAO40yePi-e8VKyWOhv3kRAQskpDnPxO5USiBgHt9Ow_-MLuhhDrM6rmuHdNd_6NEyPINrzYfXWKdMmxymKdbT7jzTtsQDaDViJEiV",
        "width": 1024
      }
    ],
    "place_id": "ChIJ3fkD3bTsbEgRL8_JNDgc_WA",
    "plus_code": {
      "compound_code": "9VG7+25 Plymouth",
      "global_code": "9C2Q9VG7+25"
    },
    "price_level": 1,
    "rating": 3.9,
    "reference": "ChIJ3fkD3bTsbEgRL8_JNDgc_WA",
    "scope": "GOOGLE",
    "types": [
      "bar",
      "restaurant",
      "food",
      "point_of_interest",
      "establishment"
    ],
    "user_ratings_total": 340,
    "vicinity": "1 Tavistock Pl, Plymouth"
  },
  {
    "business_status": "OPERATIONAL",
    "geometry": {
      "location": { "lat": 50.37278300000001, "lng": -4.1458702 },
      "viewport": {
        "northeast": { "lat": 50.37412647989272, "lng": -4.144534870107278 },
        "southwest": { "lat": 50.37142682010727, "lng": -4.147234529892722 }
      }
    },
    "icon": "https://maps.gstatic.com/mapfiles/place_api/icons/v1/png_71/bar-71.png",
    "icon_background_color": "#FF9E67",
    "icon_mask_base_uri": "https://maps.gstatic.com/mapfiles/place_api/icons/v2/bar_pinlet",
    "name": "The Newmarket Tavern",
    "opening_hours": { "open_now": true },
    "photos": [
      {
        "height": 3000,
        "html_attributions": [
          "<a href=\"https://maps.google.com/maps/contrib/101180450124557481941\">Sir Joshua Reynolds</a>"
        ],
        "photo_reference": "AelY_CsSENeU04364OE7cNiDVtwpl49WmR5lUfE4IWUKjQIhVDziVslSYxsz6xg7_RCRrjKqHX2TR_WRI_ZHXu0_SN-eqF7KDKyGXE1EYDdSSoFrkRxkvSYmIF6WBsTLWgUCwGe4rRkpoV2sT0iY0DY6wzXpwtiZFH30DLnI2r3-efzdkcA5",
        "width": 4000
      }
    ],
    "place_id": "ChIJH1dP6CTsbEgRWRc6JzxixpA",
    "plus_code": {
      "compound_code": "9VF3+4M Plymouth",
      "global_code": "9C2Q9VF3+4M"
    },
    "price_level": 1,
    "rating": 4.2,
    "reference": "ChIJH1dP6CTsbEgRWRc6JzxixpA",
    "scope": "GOOGLE",
    "types": ["bar", "point_of_interest", "establishment"],
    "user_ratings_total": 444,
    "vicinity": "The Newmarket, 2 Market Way, Plymouth"
  },
  {
    "business_status": "OPERATIONAL",
    "geometry": {
      "location": { "lat": 50.3707133, "lng": -4.135381 },
      "viewport": {
        "northeast": { "lat": 50.37206337989272, "lng": -4.134039470107278 },
        "southwest": { "lat": 50.36936372010727, "lng": -4.136739129892722 }
      }
    },
    "icon": "https://maps.gstatic.com/mapfiles/place_api/icons/v1/png_71/bar-71.png",
    "icon_background_color": "#FF9E67",
    "icon_mask_base_uri": "https://maps.gstatic.com/mapfiles/place_api/icons/v2/bar_pinlet",
    "name": "The Kings Head",
    "opening_hours": { "open_now": true },
    "photos": [
      {
        "height": 3024,
        "html_attributions": [
          "<a href=\"https://maps.google.com/maps/contrib/101188825269263868526\">Andrew Smith</a>"
        ],
        "photo_reference": "AelY_CsGVX7b0plPeEKHoGB1R-AKokCvvtI_Wr_N2KwR5IagpZr5f5BQd-dYvuqSv_nlJk0Hcvo8UboLkDf-y5dqzYNcP5SyK2QK6dYjGE129PH6UH2k1fvZFasyRo7BGeB5oTnKx3DwIftrMF1h5uGvyEw6x4KzEWntQuq9x90pnOOJSaq6",
        "width": 4032
      }
    ],
    "place_id": "ChIJzeXAATPtbEgRH_umJyrn314",
    "plus_code": {
      "compound_code": "9VC7+7V Plymouth",
      "global_code": "9C2Q9VC7+7V"
    },
    "price_level": 1,
    "rating": 4.4,
    "reference": "ChIJzeXAATPtbEgRH_umJyrn314",
    "scope": "GOOGLE",
    "types": ["bar", "point_of_interest", "establishment"],
    "user_ratings_total": 513,
    "vicinity": "21 Bretonside, Plymouth"
  },
  {
    "business_status": "OPERATIONAL",
    "geometry": {
      "location": { "lat": 50.3706324, "lng": -4.1370553 },
      "viewport": {
        "northeast": { "lat": 50.37198222989272, "lng": -4.135705470107278 },
        "southwest": { "lat": 50.36928257010727, "lng": -4.138405129892722 }
      }
    },
    "icon": "https://maps.gstatic.com/mapfiles/place_api/icons/v1/png_71/bar-71.png",
    "icon_background_color": "#FF9E67",
    "icon_mask_base_uri": "https://maps.gstatic.com/mapfiles/place_api/icons/v2/bar_pinlet",
    "name": "BrewDog Plymouth",
    "opening_hours": { "open_now": true },
    "photos": [
      {
        "height": 9000,
        "html_attributions": [
          "<a href=\"https://maps.google.com/maps/contrib/108797947694814744492\">Shaun Badmin</a>"
        ],
        "photo_reference": "AelY_Cs8azfpEd7l48QcMAIUELntwNL81VAW8fe1h_oEMePU-Gbjc4eBuiCvSEiyj0stqKlQQjGSFAVkmckips-IuzJXn_HUX1QjCW9WxN5Z1Jelab9mKf8ddwGLJSQsTobKs0tZbDx6u6u1_zu9IdLE-QBgU8t7HJUaijoRPD294lkkMDyj",
        "width": 12000
      }
    ],
    "place_id": "ChIJMzZmWGvtbEgR0C3mXio4MB8",
    "plus_code": {
      "compound_code": "9VC7+75 Plymouth",
      "global_code": "9C2Q9VC7+75"
    },
    "price_level": 2,
    "rating": 4.3,
    "reference": "ChIJMzZmWGvtbEgR0C3mXio4MB8",
    "scope": "GOOGLE",
    "types": [
      "bar",
      "restaurant",
      "food",
      "point_of_interest",
      "establishment"
    ],
    "user_ratings_total": 366,
    "vicinity": "Unit 10, the barcode, 11 Bretonside, Plymouth"
  },
  {
    "business_status": "OPERATIONAL",
    "geometry": {
      "location": { "lat": 50.3677571, "lng": -4.1359987 },
      "viewport": {
        "northeast": { "lat": 50.36917267989272, "lng": -4.134693570107278 },
        "southwest": { "lat": 50.36647302010728, "lng": -4.137393229892722 }
      }
    },
    "icon": "https://maps.gstatic.com/mapfiles/place_api/icons/v1/png_71/bar-71.png",
    "icon_background_color": "#FF9E67",
    "icon_mask_base_uri": "https://maps.gstatic.com/mapfiles/place_api/icons/v2/bar_pinlet",
    "name": "The Ship, Plymouth",
    "opening_hours": { "open_now": true },
    "photos": [
      {
        "height": 550,
        "html_attributions": [
          "<a href=\"https://maps.google.com/maps/contrib/114912191000432467795\">The Ship</a>"
        ],
        "photo_reference": "AelY_CsUuPHS0wIN0qnwNk_OaAfHiNhYaUAN9m588vqOFQLtjwpWPf6Xkuv1ctuPkQvGxx3ICYPUEyk8lCN-Vq7wiOfbsDYDyeHB-0qzuerY_vTaxy5f-sLaj3gFWuOR3Yl0Pl8egL3TUcSwj3fTlsvSNkSAa11D4aftZapyrCCLiZ25pWE",
        "width": 960
      }
    ],
    "place_id": "ChIJ33ncYa3sbEgRNZ4N7GWH6xc",
    "plus_code": {
      "compound_code": "9V97+4J Plymouth",
      "global_code": "9C2Q9V97+4J"
    },
    "price_level": 2,
    "rating": 4.2,
    "reference": "ChIJ33ncYa3sbEgRNZ4N7GWH6xc",
    "scope": "GOOGLE",
    "types": ["night_club", "bar", "point_of_interest", "establishment"],
    "user_ratings_total": 1313,
    "vicinity": "The Barbican, Plymouth"
  },
  {
    "business_status": "OPERATIONAL",
    "geometry": {
      "location": { "lat": 50.3659847, "lng": -4.1348271 },
      "viewport": {
        "northeast": { "lat": 50.36730367989271, "lng": -4.133512220107278 },
        "southwest": { "lat": 50.36460402010727, "lng": -4.136211879892722 }
      }
    },
    "icon": "https://maps.gstatic.com/mapfiles/place_api/icons/v1/png_71/bar-71.png",
    "icon_background_color": "#FF9E67",
    "icon_mask_base_uri": "https://maps.gstatic.com/mapfiles/place_api/icons/v2/bar_pinlet",
    "name": "The Fishermans Arms",
    "opening_hours": { "open_now": true },
    "photos": [
      {
        "height": 2448,
        "html_attributions": [
          "<a href=\"https://maps.google.com/maps/contrib/113808646082424622450\">petes_awreet</a>"
        ],
        "photo_reference": "AelY_Cv2OKVaM7tWL_nY9Lna6CLEqo3eETFjPp3HH_KNuFEZG-ffROdNInQYxUQAZASVWd6sUrcOY_9iMFsPCEOeqf6DxHBxCBC4SpJB9vYQ6qDYNM2qYVRohhXK5NZ06mQdmljVT8ebgwonmfu-Gmu7Htunh1tvSZUCwMvX4Y6VTW0UvZy8",
        "width": 3264
      }
    ],
    "place_id": "ChIJxe3DEK3sbEgRTu8Z8Htefis",
    "plus_code": {
      "compound_code": "9V88+93 Plymouth",
      "global_code": "9C2Q9V88+93"
    },
    "price_level": 2,
    "rating": 4.7,
    "reference": "ChIJxe3DEK3sbEgRTu8Z8Htefis",
    "scope": "GOOGLE",
    "types": [
      "bar",
      "restaurant",
      "food",
      "point_of_interest",
      "establishment"
    ],
    "user_ratings_total": 1076,
    "vicinity": "31 Lambhay St, Plymouth"
  },
  {
    "business_status": "OPERATIONAL",
    "geometry": {
      "location": { "lat": 50.3743671, "lng": -4.1354204 },
      "viewport": {
        "northeast": { "lat": 50.37569367989272, "lng": -4.134022370107278 },
        "southwest": { "lat": 50.37299402010727, "lng": -4.136722029892722 }
      }
    },
    "icon": "https://maps.gstatic.com/mapfiles/place_api/icons/v1/png_71/bar-71.png",
    "icon_background_color": "#FF9E67",
    "icon_mask_base_uri": "https://maps.gstatic.com/mapfiles/place_api/icons/v2/bar_pinlet",
    "name": "The Nowhere Inn",
    "opening_hours": { "open_now": true },
    "photos": [
      {
        "height": 2322,
        "html_attributions": [
          "<a href=\"https://maps.google.com/maps/contrib/113432924024199553661\">A Google User</a>"
        ],
        "photo_reference": "AelY_Csj39j-iVhzr2t8hEw5JkpupN_W1vmvPut6OY8tteoklKwPCSl0lUwSxM5YhoUv-_oFXBPqsHcyahVnFngZq6b8q72t9t670XGq3fwvE5u_5iGOIg_xUEtccJcJhoJaJ2yPGkCHb-wtMKVCajrcaNjAGrDGQf7IXIWd-uq38bF3RPaz",
        "width": 4128
      }
    ],
    "place_id": "ChIJFf_f9LTsbEgRXfLwkU9kMOo",
    "plus_code": {
      "compound_code": "9VF7+PR Plymouth",
      "global_code": "9C2Q9VF7+PR"
    },
    "price_level": 1,
    "rating": 4.6,
    "reference": "ChIJFf_f9LTsbEgRXfLwkU9kMOo",
    "scope": "GOOGLE",
    "types": ["bar", "point_of_interest", "establishment"],
    "user_ratings_total": 306,
    "vicinity": "21 Gilwell St, Plymouth"
  },
  {
    "business_status": "OPERATIONAL",
    "geometry": {
      "location": { "lat": 50.3669588, "lng": -4.1346688 },
      "viewport": {
        "northeast": { "lat": 50.36827992989272, "lng": -4.133288170107278 },
        "southwest": { "lat": 50.36558027010728, "lng": -4.135987829892722 }
      }
    },
    "icon": "https://maps.gstatic.com/mapfiles/place_api/icons/v1/png_71/bar-71.png",
    "icon_background_color": "#FF9E67",
    "icon_mask_base_uri": "https://maps.gstatic.com/mapfiles/place_api/icons/v2/bar_pinlet",
    "name": "Crown & Anchor",
    "opening_hours": { "open_now": true },
    "photos": [
      {
        "height": 688,
        "html_attributions": [
          "<a href=\"https://maps.google.com/maps/contrib/114324894043725342308\">A Google User</a>"
        ],
        "photo_reference": "AelY_CtipEVNx0B6VbTKOCPbfxQbUm6zlvsUYZf7emXzoP5xQt4rAkh4kOLyqImEz51Zlv6JasvIUSAlRT12s8SV0-kCidjSegqBwKE7JJX8A6H8DSOguVA7nT4rUrr_f0dtu1M9YAjX3fh_wXfxzZ47Zix-ZLgHiopylJIF187pIxUUAngr",
        "width": 1360
      }
    ],
    "place_id": "ChIJS8ZKcK3sbEgRlwE5gq3eCNY",
    "plus_code": {
      "compound_code": "9V88+Q4 Plymouth",
      "global_code": "9C2Q9V88+Q4"
    },
    "price_level": 2,
    "rating": 4.4,
    "reference": "ChIJS8ZKcK3sbEgRlwE5gq3eCNY",
    "scope": "GOOGLE",
    "types": [
      "bar",
      "restaurant",
      "food",
      "point_of_interest",
      "establishment"
    ],
    "user_ratings_total": 803,
    "vicinity": "10 The Barbican, Plymouth"
  },
  {
    "business_status": "OPERATIONAL",
    "geometry": {
      "location": { "lat": 50.3775835, "lng": -4.1341503 },
      "viewport": {
        "northeast": { "lat": 50.37896527989271, "lng": -4.132756220107279 },
        "southwest": { "lat": 50.37626562010727, "lng": -4.135455879892723 }
      }
    },
    "icon": "https://maps.gstatic.com/mapfiles/place_api/icons/v1/png_71/bar-71.png",
    "icon_background_color": "#FF9E67",
    "icon_mask_base_uri": "https://maps.gstatic.com/mapfiles/place_api/icons/v2/bar_pinlet",
    "name": "The Providence",
    "opening_hours": { "open_now": true },
    "photos": [
      {
        "height": 4032,
        "html_attributions": [
          "<a href=\"https://maps.google.com/maps/contrib/108409542837066628159\">Martyn Ellison</a>"
        ],
        "photo_reference": "AelY_CutUUDMAUgmoJwz32VONgTamLYtdHnyR-F6kkLLgaLaJcceDOWucZYcrwLAp0EpNz6njA7ixDxHURY2QRBnQnTq6nhNP27K8y3hPOJ_CFmjeqGg_JCKI3YDw9rkW5cFtaRKi9XgmrVV0rMBB8ZY4UtXwlLzUt3G0u_WXzbd-Qi4MPL1",
        "width": 3024
      }
    ],
    "place_id": "ChIJVwD2PJbtbEgRj4MG3kU5HAc",
    "plus_code": {
      "compound_code": "9VH8+28 Plymouth",
      "global_code": "9C2Q9VH8+28"
    },
    "rating": 4.9,
    "reference": "ChIJVwD2PJbtbEgRj4MG3kU5HAc",
    "scope": "GOOGLE",
    "types": ["bar", "point_of_interest", "establishment"],
    "user_ratings_total": 78,
    "vicinity": "22 Providence St, Plymouth"
  },
  {
    "business_status": "OPERATIONAL",
    "geometry": {
      "location": { "lat": 50.3727381, "lng": -4.132889599999999 },
      "viewport": {
        "northeast": { "lat": 50.37406292989272, "lng": -4.131520570107279 },
        "southwest": { "lat": 50.37136327010728, "lng": -4.134220229892723 }
      }
    },
    "icon": "https://maps.gstatic.com/mapfiles/place_api/icons/v1/png_71/bar-71.png",
    "icon_background_color": "#FF9E67",
    "icon_mask_base_uri": "https://maps.gstatic.com/mapfiles/place_api/icons/v2/bar_pinlet",
    "name": "The Woodside Pub",
    "opening_hours": { "open_now": true },
    "photos": [
      {
        "height": 3024,
        "html_attributions": [
          "<a href=\"https://maps.google.com/maps/contrib/103961797512684539899\">Steve Melhuish</a>"
        ],
        "photo_reference": "AelY_CsiHIyqSHqRZyet0CgRuQqnJDhdDcFakPC7geviWpGW3QyU5Bscetmbf4Q-MFsi3TvRqCopvwaHAwOQbSf4zxPg13Suwi7c3AB1E5cncGLKWzNX8ACfkE1zwCtsuvj5h8739rnoQlawCnBzIQb0ChgANteYKLSZwHNDd0h5bZMIk8iF",
        "width": 4032
      }
    ],
    "place_id": "ChIJW6WU8bPsbEgRl9DL566QTNA",
    "plus_code": {
      "compound_code": "9VF8+3R Plymouth",
      "global_code": "9C2Q9VF8+3R"
    },
    "price_level": 2,
    "rating": 4.1,
    "reference": "ChIJW6WU8bPsbEgRl9DL566QTNA",
    "scope": "GOOGLE",
    "types": ["bar", "point_of_interest", "establishment"],
    "user_ratings_total": 276,
    "vicinity": "12 Gasking St, Plymouth"
  },
  {
    "business_status": "OPERATIONAL",
    "geometry": {
      "location": { "lat": 50.3725053, "lng": -4.1340777 },
      "viewport": {
        "northeast": { "lat": 50.37381772989271, "lng": -4.132726670107277 },
        "southwest": { "lat": 50.37111807010727, "lng": -4.135426329892721 }
      }
    },
    "icon": "https://maps.gstatic.com/mapfiles/place_api/icons/v1/png_71/bar-71.png",
    "icon_background_color": "#FF9E67",
    "icon_mask_base_uri": "https://maps.gstatic.com/mapfiles/place_api/icons/v2/bar_pinlet",
    "name": "The Bread and Roses Free House",
    "opening_hours": { "open_now": true },
    "photos": [
      {
        "height": 3036,
        "html_attributions": [
          "<a href=\"https://maps.google.com/maps/contrib/103020363875325433492\">Mike McLoughlin</a>"
        ],
        "photo_reference": "AelY_CsAfPbgQK1_pYQtRg9VsWwJnq6w3HmQ4AzHO1vtdhorQqpZnbA8dRQNyxkqVzWnKdsZrWZcdpw-CWiAHqRl-yXt1piq9x47XfajdOdhwB8uXFWmWWC98xjMejgGM-RzvAXHg-meZX1KnNq86j6pV3i7dRN_F93ZVvl3qzS76PB1cGdc",
        "width": 4048
      }
    ],
    "place_id": "ChIJnwNBhbPsbEgR-pRuug8Cta0",
    "plus_code": {
      "compound_code": "9VF8+29 Plymouth",
      "global_code": "9C2Q9VF8+29"
    },
    "price_level": 2,
    "rating": 4.5,
    "reference": "ChIJnwNBhbPsbEgR-pRuug8Cta0",
    "scope": "GOOGLE",
    "types": ["bar", "point_of_interest", "establishment"],
    "user_ratings_total": 637,
    "vicinity": "62 Ebrington St, Plymouth"
  },
  {
    "business_status": "OPERATIONAL",
    "geometry": {
      "location": { "lat": 50.3683228, "lng": -4.1357731 },
      "viewport": {
        "northeast": { "lat": 50.36969382989273, "lng": -4.134437220107277 },
        "southwest": { "lat": 50.36699417010728, "lng": -4.137136879892721 }
      }
    },
    "icon": "https://maps.gstatic.com/mapfiles/place_api/icons/v1/png_71/bar-71.png",
    "icon_background_color": "#FF9E67",
    "icon_mask_base_uri": "https://maps.gstatic.com/mapfiles/place_api/icons/v2/bar_pinlet",
    "name": "The Three Crowns",
    "opening_hours": { "open_now": true },
    "photos": [
      {
        "height": 2268,
        "html_attributions": [
          "<a href=\"https://maps.google.com/maps/contrib/103900957305844367790\">A Google User</a>"
        ],
        "photo_reference": "AelY_Cu2kkmEWaYv46dpnYJnDF5u7yr8UvYbVgUbGX8_6s5hjt5QjbSL2Bcg_vIJTxR64di6XWyE156VSwkz8Isv-nnu_bkcnn9uC733gPS835zxlSN_Lmt4kxhaF3s1UvR0-Vt9b8eHg8ro1olq4-e2Agmqd-8IXOMD4g_dk0B2LyzDec1y",
        "width": 4032
      }
    ],
    "place_id": "ChIJrdlporLsbEgRMT3BhV1iV50",
    "plus_code": {
      "compound_code": "9V97+8M Plymouth",
      "global_code": "9C2Q9V97+8M"
    },
    "price_level": 2,
    "rating": 4.1,
    "reference": "ChIJrdlporLsbEgRMT3BhV1iV50",
    "scope": "GOOGLE",
    "types": [
      "meal_takeaway",
      "bar",
      "restaurant",
      "food",
      "point_of_interest",
      "establishment"
    ],
    "user_ratings_total": 901,
    "vicinity": "11 The Parade, Plymouth"
  },
  {
    "business_status": "OPERATIONAL",
    "geometry": {
      "location": { "lat": 50.3631906, "lng": -4.1476084 },
      "viewport": {
        "northeast": { "lat": 50.36451797989272, "lng": -4.146188020107279 },
        "southwest": { "lat": 50.36181832010728, "lng": -4.148887679892723 }
      }
    },
    "icon": "https://maps.gstatic.com/mapfiles/place_api/icons/v1/png_71/bar-71.png",
    "icon_background_color": "#FF9E67",
    "icon_mask_base_uri": "https://maps.gstatic.com/mapfiles/place_api/icons/v2/bar_pinlet",
    "name": "The Waterfront, Plymouth",
    "opening_hours": { "open_now": true },
    "photos": [
      {
        "height": 527,
        "html_attributions": [
          "<a href=\"https://maps.google.com/maps/contrib/110033552605819172431\">The Waterfront Bar &amp; Restaurant</a>"
        ],
        "photo_reference": "AelY_Cv-rdQv9_r6SzKXwrdwrKRElOLzcC-ButNtpxNOvGMgp2gRWAgIUgYmFelaPi9-3ZV0GUowvbb-c9XEqm0Phv1ERVl9UFWpW-hInhu-bYsETGye8useYEmRVN-pEwiRTSj9GFcWUmlvytTfoGt5U5op0dXVZgD2KhLdHFh1F695Y95N",
        "width": 805
      }
    ],
    "place_id": "ChIJGTu8B1qTbEgRv57aAbUymhY",
    "plus_code": {
      "compound_code": "9V72+7X Plymouth",
      "global_code": "9C2Q9V72+7X"
    },
    "price_level": 2,
    "rating": 4.3,
    "reference": "ChIJGTu8B1qTbEgRv57aAbUymhY",
    "scope": "GOOGLE",
    "types": [
      "bar",
      "restaurant",
      "food",
      "store",
      "point_of_interest",
      "establishment"
    ],
    "user_ratings_total": 2260,
    "vicinity": "9 Grand Parade, Plymouth"
  },
  {
    "business_status": "OPERATIONAL",
    "geometry": {
      "location": { "lat": 50.3673848, "lng": -4.1349406 },
      "viewport": {
        "northeast": { "lat": 50.36872197989271, "lng": -4.133566170107279 },
        "southwest": { "lat": 50.36602232010727, "lng": -4.136265829892722 }
      }
    },
    "icon": "https://maps.gstatic.com/mapfiles/place_api/icons/v1/png_71/bar-71.png",
    "icon_background_color": "#FF9E67",
    "icon_mask_base_uri": "https://maps.gstatic.com/mapfiles/place_api/icons/v2/bar_pinlet",
    "name": "The Navy Inn",
    "opening_hours": { "open_now": true },
    "photos": [
      {
        "height": 2988,
        "html_attributions": [
          "<a href=\"https://maps.google.com/maps/contrib/112680527964014029364\">Heiko Zahn</a>"
        ],
        "photo_reference": "AelY_CsMcqgb5S3gOLKfW_-VjI3YMMaSEHoP-XgIbzJNuRrRYRXIIPV-_FA8WalZhiGGH0lLly0ll0gtR1rVvwZd6puEzrVXPXFGl_M5K5oUae7GiQR1MIMRnmq0ZVJWqrVGFs8t7VkBMJehVR7-_4_0Pq5ptfeyrpJiElLKIuOjCjNQfzNi",
        "width": 5312
      }
    ],
    "place_id": "ChIJJRWPcK3sbEgRLolXV9j0qKI",
    "plus_code": {
      "compound_code": "9V88+X3 Plymouth",
      "global_code": "9C2Q9V88+X3"
    },
    "price_level": 2,
    "rating": 4.3,
    "reference": "ChIJJRWPcK3sbEgRLolXV9j0qKI",
    "scope": "GOOGLE",
    "types": [
      "bar",
      "restaurant",
      "food",
      "point_of_interest",
      "establishment"
    ],
    "user_ratings_total": 1006,
    "vicinity": "34 Southside St, Plymouth"
  },
  {
    "business_status": "OPERATIONAL",
    "geometry": {
      "location": { "lat": 50.3707307, "lng": -4.1517787 },
      "viewport": {
        "northeast": { "lat": 50.37209462989272, "lng": -4.150418770107278 },
        "southwest": { "lat": 50.36939497010728, "lng": -4.153118429892722 }
      }
    },
    "icon": "https://maps.gstatic.com/mapfiles/place_api/icons/v1/png_71/bar-71.png",
    "icon_background_color": "#FF9E67",
    "icon_mask_base_uri": "https://maps.gstatic.com/mapfiles/place_api/icons/v2/bar_pinlet",
    "name": "The Tradesmans",
    "opening_hours": { "open_now": true },
    "photos": [
      {
        "height": 4032,
        "html_attributions": [
          "<a href=\"https://maps.google.com/maps/contrib/104178475972391172710\">Robert McCullough</a>"
        ],
        "photo_reference": "AelY_CsATFxDbGngG0DWgRUg8gs1aTbbekNv0szTDFDmeGQleiTqDy7zEYWViJ2KFRdPAxX2dZtZ1r8Ntnp9m1JWTXPCL7d87vi-_U1IU064hGanFk7Ql7P92WIt5RHguqfcMMNcwLoocd_yC-HiGUI7InNv4MsFl3xkyGDzboi3oAotTasu",
        "width": 3024
      }
    ],
    "place_id": "ChIJxU9TvEWTbEgRd8hyP19TVyo",
    "plus_code": {
      "compound_code": "9RCX+77 Plymouth",
      "global_code": "9C2Q9RCX+77"
    },
    "price_level": 2,
    "rating": 4.3,
    "reference": "ChIJxU9TvEWTbEgRd8hyP19TVyo",
    "scope": "GOOGLE",
    "types": ["bar", "point_of_interest", "establishment"],
    "user_ratings_total": 141,
    "vicinity": "19 Octagon St, Stonehouse, Plymouth"
  },
  {
    "business_status": "OPERATIONAL",
    "geometry": {
      "location": { "lat": 50.36877639999999, "lng": -4.141716400000001 },
      "viewport": {
        "northeast": { "lat": 50.37015437989272, "lng": -4.140548620107277 },
        "southwest": { "lat": 50.36745472010728, "lng": -4.143248279892721 }
      }
    },
    "icon": "https://maps.gstatic.com/mapfiles/place_api/icons/v1/png_71/bar-71.png",
    "icon_background_color": "#FF9E67",
    "icon_mask_base_uri": "https://maps.gstatic.com/mapfiles/place_api/icons/v2/bar_pinlet",
    "name": "Slug & Lettuce - Plymouth",
    "opening_hours": { "open_now": true },
    "photos": [
      {
        "height": 3024,
        "html_attributions": [
          "<a href=\"https://maps.google.com/maps/contrib/105394489000294686567\">Tom Way</a>"
        ],
        "photo_reference": "AelY_CvPfAsls4zOzMzKweyApCadvQorEc_pH4g0b-iPaOt6VrDhWsovAa4Svyx3V7COzpRGIeIMyzq7Wuzz9kPqj-GiQDk1kDA1sDvcPH_42zlG0nKFEgsJhtsXBU9GXqg6kaX4wPVeYexJRmmlfZ0RduoQhVem-goFxMLEQuSeVlosokeJ",
        "width": 4032
      }
    ],
    "place_id": "ChIJEQfav02TbEgRUUS859E0Qwc",
    "plus_code": {
      "compound_code": "9V95+G8 Plymouth",
      "global_code": "9C2Q9V95+G8"
    },
    "price_level": 2,
    "rating": 4.1,
    "reference": "ChIJEQfav02TbEgRUUS859E0Qwc",
    "scope": "GOOGLE",
    "types": [
      "bar",
      "restaurant",
      "food",
      "point_of_interest",
      "establishment"
    ],
    "user_ratings_total": 2148,
    "vicinity": "19 Princess St, Plymouth"
  },
  {
    "business_status": "OPERATIONAL",
    "geometry": {
      "location": { "lat": 50.3676375, "lng": -4.151208 },
      "viewport": {
        "northeast": { "lat": 50.36897647989272, "lng": -4.149797270107277 },
        "southwest": { "lat": 50.36627682010728, "lng": -4.152496929892721 }
      }
    },
    "icon": "https://maps.gstatic.com/mapfiles/place_api/icons/v1/png_71/bar-71.png",
    "icon_background_color": "#FF9E67",
    "icon_mask_base_uri": "https://maps.gstatic.com/mapfiles/place_api/icons/v2/bar_pinlet",
    "name": "Salumi Bar & Eatery",
    "opening_hours": { "open_now": true },
    "photos": [
      {
        "height": 3456,
        "html_attributions": [
          "<a href=\"https://maps.google.com/maps/contrib/104554782630872228228\">Jeff H</a>"
        ],
        "photo_reference": "AelY_Cs2GPIO9iZ6bq-hc9_qNMzA54q_uZPeaYmGmYgz_Se2hS4HsFb1CmmVDiMylOhzeDGwgkywYDf6pcb3w33HiSlMpS-K3o5dEInMj3iD1E8yGl-sh2Qy8o4LuywkHchYM23y9dHag6lepmfIihLnPXnAo4fy_NqUsij0UTPk4NnKjo_1",
        "width": 4608
      }
    ],
    "place_id": "ChIJt2RINkWTbEgRsNw9CQJTeuk",
    "plus_code": {
      "compound_code": "9R9X+3G Plymouth",
      "global_code": "9C2Q9R9X+3G"
    },
    "price_level": 2,
    "rating": 4.6,
    "reference": "ChIJt2RINkWTbEgRsNw9CQJTeuk",
    "scope": "GOOGLE",
    "types": [
      "bar",
      "restaurant",
      "food",
      "point_of_interest",
      "establishment"
    ],
    "user_ratings_total": 956,
    "vicinity": "18 Millbay Rd, Plymouth"
  },
  {
    "business_status": "OPERATIONAL",
    "geometry": {
      "location": { "lat": 50.37710999999999, "lng": -4.1358343 },
      "viewport": {
        "northeast": { "lat": 50.37847702989272, "lng": -4.134548420107278 },
        "southwest": { "lat": 50.37577737010728, "lng": -4.137248079892722 }
      }
    },
    "icon": "https://maps.gstatic.com/mapfiles/place_api/icons/v1/png_71/bar-71.png",
    "icon_background_color": "#FF9E67",
    "icon_mask_base_uri": "https://maps.gstatic.com/mapfiles/place_api/icons/v2/bar_pinlet",
    "name": "The Crafty Half",
    "opening_hours": { "open_now": true },
    "photos": [
      {
        "height": 3024,
        "html_attributions": [
          "<a href=\"https://maps.google.com/maps/contrib/106487581954793494957\">A Google User</a>"
        ],
        "photo_reference": "AelY_Cu7Pf3Nu88_sSr1tzO9BMXSP84e-LZ90LWCfAmN2QCKyYxpwWkF37iEqsLLc1xBWOc52OcpzEFTGiPipxvyJS2UlZQTYVNzuVJPR7IEqAtQ8yDeEwYtfB7EPjw8MQ1gB7d19ymRpVPOtPPoPNfv_2cxgyxkqPr2_LXFrQB-xSbMna2O",
        "width": 4032
      }
    ],
    "place_id": "ChIJPYbLLzbtbEgRTg-NrmluFgY",
    "plus_code": {
      "compound_code": "9VG7+RM Plymouth",
      "global_code": "9C2Q9VG7+RM"
    },
    "rating": 4.1,
    "reference": "ChIJPYbLLzbtbEgRTg-NrmluFgY",
    "scope": "GOOGLE",
    "types": ["bar", "point_of_interest", "establishment"],
    "user_ratings_total": 108,
    "vicinity": "50 North Hill, Plymouth"
  },
  {
    "business_status": "OPERATIONAL",
    "geometry": {
      "location": { "lat": 50.37404429999999, "lng": -4.1511383 },
      "viewport": {
        "northeast": { "lat": 50.37538127989273, "lng": -4.149814170107278 },
        "southwest": { "lat": 50.37268162010728, "lng": -4.152513829892722 }
      }
    },
    "icon": "https://maps.gstatic.com/mapfiles/place_api/icons/v1/png_71/bar-71.png",
    "icon_background_color": "#FF9E67",
    "icon_mask_base_uri": "https://maps.gstatic.com/mapfiles/place_api/icons/v2/bar_pinlet",
    "name": "Melbourne Inn",
    "opening_hours": { "open_now": true },
    "photos": [
      {
        "height": 2988,
        "html_attributions": [
          "<a href=\"https://maps.google.com/maps/contrib/108427063793675044641\">Diane Clayton</a>"
        ],
        "photo_reference": "AelY_Cuur2BFgNNG2BtFnQ-yacvCp0i66KvQ_t_YfvHD6bSJI7v33ZDf_IarOfEWJFDdFEYbasr9dIRR-LVXVCct1PgNZp5XE4R0CQVx5H1ex4opp-UPlxuDI4X9qHcmuvgoNREC1gYeVxYeY2gx72AiufPtZ_m8tVaGp2sJm4bqhOJ-ntFW",
        "width": 5312
      }
    ],
    "place_id": "ChIJL4OfJEaTbEgR573nV5eRgg4",
    "plus_code": {
      "compound_code": "9RFX+JG Plymouth",
      "global_code": "9C2Q9RFX+JG"
    },
    "price_level": 1,
    "rating": 4.4,
    "reference": "ChIJL4OfJEaTbEgR573nV5eRgg4",
    "scope": "GOOGLE",
    "types": ["bar", "point_of_interest", "establishment"],
    "user_ratings_total": 152,
    "vicinity": "224 Cecil St, Stonehouse, Plymouth"
  },
  {
    "business_status": "OPERATIONAL",
    "geometry": {
      "location": { "lat": 50.3764847, "lng": -4.1402221 },
      "viewport": {
        "northeast": { "lat": 50.37782337989273, "lng": -4.138884620107278 },
        "southwest": { "lat": 50.37512372010728, "lng": -4.141584279892721 }
      }
    },
    "icon": "https://maps.gstatic.com/mapfiles/place_api/icons/v1/png_71/bar-71.png",
    "icon_background_color": "#FF9E67",
    "icon_mask_base_uri": "https://maps.gstatic.com/mapfiles/place_api/icons/v2/bar_pinlet",
    "name": "James Street Vaults (JSV)",
    "opening_hours": { "open_now": true },
    "photos": [
      {
        "height": 2976,
        "html_attributions": [
          "<a href=\"https://maps.google.com/maps/contrib/108824655350902927354\">Kevin Warmington</a>"
        ],
        "photo_reference": "AelY_CvvrNxIYXWz5zpnhOzoRRjYJRS7upqUxOsCGy2mrKmg8dlojf6vEDS_uWYHiWnkix-_qSea2Tr9No8hceacR5luq4xWzPUsVF_ojozQiP6GDdo-OVLr86QXuQCUp1YWsd3zYnI-fd9FBstGbjJSicQr2Mr0fEMWXXxuA5Ct1tD1lClQ",
        "width": 3968
      }
    ],
    "place_id": "ChIJtSSp60qTbEgRXguOp6rvJxA",
    "plus_code": {
      "compound_code": "9VG5+HW Plymouth",
      "global_code": "9C2Q9VG5+HW"
    },
    "price_level": 1,
    "rating": 4.4,
    "reference": "ChIJtSSp60qTbEgRXguOp6rvJxA",
    "scope": "GOOGLE",
    "types": ["bar", "point_of_interest", "establishment"],
    "user_ratings_total": 483,
    "vicinity": "24 James St, Plymouth"
  },
  {
    "business_status": "OPERATIONAL",
    "geometry": {
      "location": { "lat": 50.3682092, "lng": -4.145614399999999 },
      "viewport": {
        "northeast": { "lat": 50.36946352989272, "lng": -4.143960070107277 },
        "southwest": { "lat": 50.36676387010727, "lng": -4.146659729892721 }
      }
    },
    "icon": "https://maps.gstatic.com/mapfiles/place_api/icons/v1/png_71/bar-71.png",
    "icon_background_color": "#FF9E67",
    "icon_mask_base_uri": "https://maps.gstatic.com/mapfiles/place_api/icons/v2/bar_pinlet",
    "name": "The Walrus Pub",
    "opening_hours": { "open_now": true },
    "photos": [
      {
        "height": 3072,
        "html_attributions": [
          "<a href=\"https://maps.google.com/maps/contrib/106369505615315715917\">Nic Watson</a>"
        ],
        "photo_reference": "AelY_Cu7AH2kARTeiDzyjWf398E3Z9RanTgF_-WHusKDxIletGaQaprtk_jJmlan6WpPy9EovOsg4ktXWJlvC14EwYO-hb5PPtPDcIHFVZyqXihdLZIsXv4xZhEDhKnM0hGOKYeZKYNU-a2t_V-G10jG4fy06TIpRO-RVZt_Z6Rag_F3DcT_",
        "width": 4080
      }
    ],
    "place_id": "ChIJeWO7Jk6TbEgR9WtujeMD65o",
    "plus_code": {
      "compound_code": "9V93+7Q Plymouth",
      "global_code": "9C2Q9V93+7Q"
    },
    "price_level": 2,
    "rating": 3.9,
    "reference": "ChIJeWO7Jk6TbEgR9WtujeMD65o",
    "scope": "GOOGLE",
    "types": ["bar", "point_of_interest", "establishment"],
    "user_ratings_total": 433,
    "vicinity": "Athenaeum St, Plymouth"
  },
  {
    "business_status": "OPERATIONAL",
    "geometry": {
      "location": { "lat": 50.3678043, "lng": -4.1363831 },
      "viewport": {
        "northeast": { "lat": 50.36920767989272, "lng": -4.135073370107277 },
        "southwest": { "lat": 50.36650802010728, "lng": -4.137773029892721 }
      }
    },
    "icon": "https://maps.gstatic.com/mapfiles/place_api/icons/v1/png_71/bar-71.png",
    "icon_background_color": "#FF9E67",
    "icon_mask_base_uri": "https://maps.gstatic.com/mapfiles/place_api/icons/v2/bar_pinlet",
    "name": "The Maritime Inn",
    "opening_hours": { "open_now": true },
    "photos": [
      {
        "height": 3096,
        "html_attributions": [
          "<a href=\"https://maps.google.com/maps/contrib/111843950627205945311\">Matthew Burt</a>"
        ],
        "photo_reference": "AelY_CtAxkWBf7fpprE7SRiqwgygVitdJ3zqgvLDDbyc8tyxyDQuyrCVtpdOm7CluFyc7kysMc9iJ1DvwCMLJ2uDu5tp1Dyo6gF4lQt1tMPTpkjUMLtTF2oj_TXO2x2VTFWNVEmPa7h362aTyxvchB-xHwU_-SDuR9S6wBuaXxnTIcXFELB0",
        "width": 5504
      }
    ],
    "place_id": "ChIJsbSrX63sbEgR0fq8RF0237M",
    "plus_code": {
      "compound_code": "9V97+4C Plymouth",
      "global_code": "9C2Q9V97+4C"
    },
    "price_level": 2,
    "rating": 4,
    "reference": "ChIJsbSrX63sbEgR0fq8RF0237M",
    "scope": "GOOGLE",
    "types": ["bar", "point_of_interest", "establishment"],
    "user_ratings_total": 364,
    "vicinity": "19 Southside St, Plymouth"
  },
  {
    "business_status": "OPERATIONAL",
    "geometry": {
      "location": { "lat": 50.3815855, "lng": -4.1334776 },
      "viewport": {
        "northeast": { "lat": 50.38288972989272, "lng": -4.132098170107278 },
        "southwest": { "lat": 50.38019007010728, "lng": -4.134797829892721 }
      }
    },
    "icon": "https://maps.gstatic.com/mapfiles/place_api/icons/v1/png_71/bar-71.png",
    "icon_background_color": "#FF9E67",
    "icon_mask_base_uri": "https://maps.gstatic.com/mapfiles/place_api/icons/v2/bar_pinlet",
    "name": "The Fortescue",
    "opening_hours": { "open_now": true },
    "photos": [
      {
        "height": 3395,
        "html_attributions": [
          "<a href=\"https://maps.google.com/maps/contrib/106755928638063629489\">PAUL CLEGG</a>"
        ],
        "photo_reference": "AelY_CsnQfixxUqh4fainaRynnpXm2-quWnTi8wT6dAgw6v_0mNBuoJOkFtcfBzag4-PtmJz-JxYvHWxqE2xlEIRuvcYewdvSDz2l4ExY0p3gFhu0s83ie3__v8aFDjnQKEK9ASMzxAxIEa3N3ZO0hknHvVnmR5tDA-XkUNFYuwnZA-eZLEA",
        "width": 4712
      }
    ],
    "place_id": "ChIJbbiL2cvsbEgRxLLOMYSrKcQ",
    "plus_code": {
      "compound_code": "9VJ8+JJ Plymouth",
      "global_code": "9C2Q9VJ8+JJ"
    },
    "price_level": 2,
    "rating": 4.6,
    "reference": "ChIJbbiL2cvsbEgRxLLOMYSrKcQ",
    "scope": "GOOGLE",
    "types": [
      "bar",
      "restaurant",
      "food",
      "point_of_interest",
      "establishment"
    ],
    "user_ratings_total": 929,
    "vicinity": "37 Mutley Plain, Mutley, Plymouth"
  },
  {
    "business_status": "OPERATIONAL",
    "geometry": {
      "location": { "lat": 50.3693672, "lng": -4.1406893 },
      "viewport": {
        "northeast": { "lat": 50.3706800302915, "lng": -4.139465919708498 },
        "southwest": { "lat": 50.3679820697085, "lng": -4.142163880291503 }
      }
    },
    "icon": "https://maps.gstatic.com/mapfiles/place_api/icons/v1/png_71/worship_jewish-71.png",
    "icon_background_color": "#7B9EB0",
    "icon_mask_base_uri": "https://maps.gstatic.com/mapfiles/place_api/icons/v2/worship_jewish_pinlet",
    "name": "Plymouth Synagogue",
    "photos": [
      {
        "height": 2736,
        "html_attributions": [
          "<a href=\"https://maps.google.com/maps/contrib/112689847047022796464\">A Walker</a>"
        ],
        "photo_reference": "AelY_CuVx27HVbqjg8u6p1srea0v2TCVbccP028y5xfOf_Qe1_WIhagf83wZnK_mFXgGo03w55lOY9fkCnzcwBNbvJbPQITtHI7mzi-cL0pD2evRN6HOofyWl46XH7pzmGowjq9l6_2-xy9kZu5lr6tYuEvnejIrVEUGQT2w9oIlEG6zVnam",
        "width": 3648
      }
    ],
    "place_id": "ChIJ28doBk2TbEgRchTOga77P90",
    "plus_code": {
      "compound_code": "9V95+PP Plymouth, UK",
      "global_code": "9C2Q9V95+PP"
    },
    "rating": 5,
    "reference": "ChIJ28doBk2TbEgRchTOga77P90",
    "scope": "GOOGLE",
    "types": [
      "tourist_attraction",
      "synagogue",
      "place_of_worship",
      "point_of_interest",
      "establishment"
    ],
    "user_ratings_total": 54,
    "vicinity": "Synagogue Chambers, Catherine Street, Plymouth"
  },
  {
    "business_status": "OPERATIONAL",
    "geometry": {
      "location": { "lat": 50.3669504, "lng": -4.1358165 },
      "viewport": {
        "northeast": { "lat": 50.36837448029149, "lng": -4.134739819708497 },
        "southwest": { "lat": 50.3656765197085, "lng": -4.137437780291502 }
      }
    },
    "icon": "https://maps.gstatic.com/mapfiles/place_api/icons/v1/png_71/park-71.png",
    "icon_background_color": "#4DB546",
    "icon_mask_base_uri": "https://maps.gstatic.com/mapfiles/place_api/icons/v2/tree_pinlet",
    "name": "Elizabethan Gardens",
    "opening_hours": { "open_now": false },
    "photos": [
      {
        "height": 2736,
        "html_attributions": [
          "<a href=\"https://maps.google.com/maps/contrib/104254405306374637140\">John Ernest McGeorge-Oanta</a>"
        ],
        "photo_reference": "AelY_CtsYRfs8oL3K7b1_Lnh5wFCapCVARBkhlCT649ZproeNLsldO14oqxqx5-Tn_RV5BehZrADESTHTngqe7WeiTIazmcg1t_eaMZcIn-7gruXTDMeLpzRfEyHFOck1cOiQQgOjJ1FO0gtFQTXB7XzZRpbB9ihqeukK3-mDKRRB-zugHC7",
        "width": 3648
      }
    ],
    "place_id": "ChIJXSY2aa3sbEgR5AjZiYkl3qo",
    "plus_code": {
      "compound_code": "9V87+QM Plymouth, UK",
      "global_code": "9C2Q9V87+QM"
    },
    "rating": 4.5,
    "reference": "ChIJXSY2aa3sbEgR5AjZiYkl3qo",
    "scope": "GOOGLE",
    "types": [
      "tourist_attraction",
      "park",
      "point_of_interest",
      "establishment"
    ],
    "user_ratings_total": 100,
    "vicinity": "34 New Street, Plymouth"
  },
  {
    "business_status": "OPERATIONAL",
    "geometry": {
      "location": { "lat": 50.3663398, "lng": -4.134259399999999 },
      "viewport": {
        "northeast": { "lat": 50.36770403029151, "lng": -4.132856919708498 },
        "southwest": { "lat": 50.36500606970851, "lng": -4.135554880291502 }
      }
    },
    "icon": "https://maps.gstatic.com/mapfiles/place_api/icons/v1/png_71/museum-71.png",
    "icon_background_color": "#13B5C7",
    "icon_mask_base_uri": "https://maps.gstatic.com/mapfiles/place_api/icons/v2/museum_pinlet",
    "name": "The Mayflower Museum",
    "opening_hours": { "open_now": false },
    "photos": [
      {
        "height": 2848,
        "html_attributions": [
          "<a href=\"https://maps.google.com/maps/contrib/103252266271756594826\">Bill Delperdange</a>"
        ],
        "photo_reference": "AelY_Csp4TR5UmgslhCz2iQ7IzVfFdXY68x7QdVgBKBJhyVBEXSmsP2D7ZyLKG0B9lMLCipNuDRsdk_YcDrRPr0OpXaFg99bB4eT0TUCtUM19bN_kP7Dkf4Li_qeUAuInaIS26vGN2VMgLYh8_OuKKw9Kxe_JsvzDiF0uYY_OZOVtVxbDUda",
        "width": 4272
      }
    ],
    "place_id": "ChIJ-d6vC63sbEgRMCcDc4uqFcc",
    "plus_code": {
      "compound_code": "9V88+G7 Plymouth, UK",
      "global_code": "9C2Q9V88+G7"
    },
    "rating": 4.2,
    "reference": "ChIJ-d6vC63sbEgRMCcDc4uqFcc",
    "scope": "GOOGLE",
    "types": [
      "museum",
      "tourist_attraction",
      "point_of_interest",
      "establishment"
    ],
    "user_ratings_total": 194,
    "vicinity": "3-5 The Barbican, Plymouth"
  },
  {
    "business_status": "OPERATIONAL",
    "geometry": {
      "location": { "lat": 50.364798, "lng": -4.137421599999999 },
      "viewport": {
        "northeast": { "lat": 50.36667123029149, "lng": -4.136210019708496 },
        "southwest": { "lat": 50.3639732697085, "lng": -4.138907980291501 }
      }
    },
    "icon": "https://maps.gstatic.com/mapfiles/place_api/icons/v1/png_71/generic_business-71.png",
    "icon_background_color": "#13B5C7",
    "icon_mask_base_uri": "https://maps.gstatic.com/mapfiles/place_api/icons/v2/generic_pinlet",
    "name": "Royal Citadel",
    "photos": [
      {
        "height": 5376,
        "html_attributions": [
          "<a href=\"https://maps.google.com/maps/contrib/111120579107480876302\">Dave Morgan (DKMphotography.co.uk)</a>"
        ],
        "photo_reference": "AelY_CuHtKaUWCz5lIKo9RpPQA37pMtjnhf45JY-8OnPNeIAIIwO7dT18yIhnzs6L9Wlx8ZhUe4y59D9_3CqnoDy-_Hg3BNuB0umFrZPS8zwsPUZ5NEdDPuvAw-hCpZGgQyelhRTD1hdOq4ERjwXEG4OYqgOXMEAmr2rxLcsEVT_2a5QZTzl",
        "width": 8064
      }
    ],
    "place_id": "ChIJ4-QXL1OTbEgRPPsD3ELPVNU",
    "plus_code": {
      "compound_code": "9V77+W2 Plymouth, UK",
      "global_code": "9C2Q9V77+W2"
    },
    "rating": 4.5,
    "reference": "ChIJ4-QXL1OTbEgRPPsD3ELPVNU",
    "scope": "GOOGLE",
    "types": ["tourist_attraction", "point_of_interest", "establishment"],
    "user_ratings_total": 50,
    "vicinity": "Royal Citadel Plymouth, Lambhay Hill, Plymouth"
  },
  {
    "business_status": "OPERATIONAL",
    "geometry": {
      "location": { "lat": 50.3661377, "lng": -4.133784299999999 },
      "viewport": {
        "northeast": { "lat": 50.3674936802915, "lng": -4.132595419708498 },
        "southwest": { "lat": 50.3647957197085, "lng": -4.135293380291502 }
      }
    },
    "icon": "https://maps.gstatic.com/mapfiles/place_api/icons/v1/png_71/generic_business-71.png",
    "icon_background_color": "#13B5C7",
    "icon_mask_base_uri": "https://maps.gstatic.com/mapfiles/place_api/icons/v2/generic_pinlet",
    "name": "Mayflower Steps Memorial",
    "opening_hours": { "open_now": true },
    "photos": [
      {
        "height": 4080,
        "html_attributions": [
          "<a href=\"https://maps.google.com/maps/contrib/103920504265560354087\">Le Wi</a>"
        ],
        "photo_reference": "AelY_Csze25je-aMJXvwWMTzYqnewgY-FxOVtyE1RR09lSLMnQYQxN5-5hF3NKwJwdETdXhVw1_oMlJy45q_7DcxXjjnjybVctA6_YNipHvcXbWu4zpEQ9bog6lkstazGtbbCQI-yPYVrgX_J4MCiLxW50n4FlYwTtVdP3S-gu23WWAhEDj5",
        "width": 3072
      }
    ],
    "place_id": "ChIJS5wBp63sbEgRKvsYZiEoLso",
    "plus_code": {
      "compound_code": "9V88+FF Plymouth, UK",
      "global_code": "9C2Q9V88+FF"
    },
    "rating": 4.4,
    "reference": "ChIJS5wBp63sbEgRKvsYZiEoLso",
    "scope": "GOOGLE",
    "types": ["tourist_attraction", "point_of_interest", "establishment"],
    "user_ratings_total": 1116,
    "vicinity": "The Barbican, Plymouth"
  },
  {
    "business_status": "OPERATIONAL",
    "geometry": {
      "location": { "lat": 50.3677755, "lng": -4.1377915 },
      "viewport": {
        "northeast": { "lat": 50.3691584802915, "lng": -4.136395319708497 },
        "southwest": { "lat": 50.3664605197085, "lng": -4.139093280291502 }
      }
    },
    "icon": "https://maps.gstatic.com/mapfiles/place_api/icons/v1/png_71/generic_business-71.png",
    "icon_background_color": "#7B9EB0",
    "icon_mask_base_uri": "https://maps.gstatic.com/mapfiles/place_api/icons/v2/generic_pinlet",
    "name": "Plymouth Gin Distillery",
    "opening_hours": { "open_now": false },
    "photos": [
      {
        "height": 3024,
        "html_attributions": [
          "<a href=\"https://maps.google.com/maps/contrib/101210027522605410088\">Jeff Kite</a>"
        ],
        "photo_reference": "AelY_CvwtFM7b6wFKSkS59CKprCQcOrMuET13cv0DZD9fxLoDXkAimCBcDbIvT9BpDqd7wqYJo1lUZmnkn7ifSi4L_PGGhrL4CsFrT1icbl8UU_0aH9dTabcDDRug_0m3Qi0V1d3KW5OaTiVqpqJCTIBxW0iWHcJO-XGvfPaUDQGqwRnDxUE",
        "width": 3024
      }
    ],
    "place_id": "ChIJyx8OVk2TbEgRqyPXy63ryf0",
    "plus_code": {
      "compound_code": "9V96+4V Plymouth, UK",
      "global_code": "9C2Q9V96+4V"
    },
    "rating": 4.7,
    "reference": "ChIJyx8OVk2TbEgRqyPXy63ryf0",
    "scope": "GOOGLE",
    "types": ["tourist_attraction", "point_of_interest", "establishment"],
    "user_ratings_total": 311,
    "vicinity": "60 Southside Street, Plymouth"
  },
  {
    "business_status": "OPERATIONAL",
    "geometry": {
      "location": { "lat": 50.373572, "lng": -4.130104899999999 },
      "viewport": {
        "northeast": { "lat": 50.3751009302915, "lng": -4.128335769708497 },
        "southwest": { "lat": 50.3724029697085, "lng": -4.131033730291501 }
      }
    },
    "icon": "https://maps.gstatic.com/mapfiles/place_api/icons/v1/png_71/park-71.png",
    "icon_background_color": "#4DB546",
    "icon_mask_base_uri": "https://maps.gstatic.com/mapfiles/place_api/icons/v2/tree_pinlet",
    "name": "Beaumont Park",
    "opening_hours": { "open_now": false },
    "photos": [
      {
        "height": 3000,
        "html_attributions": [
          "<a href=\"https://maps.google.com/maps/contrib/105862505182160611107\">Alexandra KR</a>"
        ],
        "photo_reference": "AelY_CvBdd80xwebMOFyu93LDHBux6WZmFVn_tjrmWcjQ9D76CVmcs8Sl0TfQ0Z9SNmlRIpPzWtMwBf4u7qBfpkR48FxVpxnrSAvuaXs3xkTIKhxVL4Y8isB2_U_lZy_SDzahTcr54CJIcNL_2Z4gDJph8XPn-zPKNXuNbvvMxNiKZL1lS4b",
        "width": 4000
      }
    ],
    "place_id": "ChIJgz_LzrbsbEgRlttiRjc7xtk",
    "plus_code": {
      "compound_code": "9VF9+CX Plymouth, UK",
      "global_code": "9C2Q9VF9+CX"
    },
    "rating": 4.5,
    "reference": "ChIJgz_LzrbsbEgRlttiRjc7xtk",
    "scope": "GOOGLE",
    "types": [
      "park",
      "tourist_attraction",
      "point_of_interest",
      "establishment"
    ],
    "user_ratings_total": 569,
    "vicinity": "8 Tothill Avenue, Plymouth"
  },
  {
    "business_status": "OPERATIONAL",
    "geometry": {
      "location": { "lat": 50.3667327, "lng": -4.1309528 },
      "viewport": {
        "northeast": { "lat": 50.3680089302915, "lng": -4.129610019708498 },
        "southwest": { "lat": 50.3653109697085, "lng": -4.132307980291503 }
      }
    },
    "icon": "https://maps.gstatic.com/mapfiles/place_api/icons/v1/png_71/generic_business-71.png",
    "icon_background_color": "#13B5C7",
    "icon_mask_base_uri": "https://maps.gstatic.com/mapfiles/place_api/icons/v2/generic_pinlet",
    "name": "National Marine Aquarium",
    "opening_hours": { "open_now": false },
    "photos": [
      {
        "height": 2736,
        "html_attributions": [
          "<a href=\"https://maps.google.com/maps/contrib/116499663091101107151\">James Hogg</a>"
        ],
        "photo_reference": "AelY_CtteXV7LA1G6LLmsTgBTcGY-yJ2nIc9mNlNS3v9kjCgBTGNWEg_7JMqDS0xTOzFAt72Ys6E4rUkLls8o2wq0EuXCoFlMoLTHmz0lG6Kn-SPveZF2Kp_8A9EQCOjt5vKL50xLEfL20OJ2g383xNG1HMsKUO3rq8EGEl4QdQxAxLZ1L5C",
        "width": 3648
      }
    ],
    "place_id": "ChIJJxG4cq7sbEgRQBERG1vYaXI",
    "plus_code": {
      "compound_code": "9V89+MJ Plymouth, UK",
      "global_code": "9C2Q9V89+MJ"
    },
    "rating": 4.4,
    "reference": "ChIJJxG4cq7sbEgRQBERG1vYaXI",
    "scope": "GOOGLE",
    "types": [
      "aquarium",
      "tourist_attraction",
      "travel_agency",
      "gym",
      "health",
      "store",
      "point_of_interest",
      "establishment"
    ],
    "user_ratings_total": 5894,
    "vicinity": "Rope Walk, Coxside, Plymouth"
  },
  {
    "business_status": "OPERATIONAL",
    "geometry": {
      "location": { "lat": 50.368978, "lng": -4.155103299999999 },
      "viewport": {
        "northeast": { "lat": 50.3702836302915, "lng": -4.153793719708498 },
        "southwest": { "lat": 50.3675856697085, "lng": -4.156491680291503 }
      }
    },
    "icon": "https://maps.gstatic.com/mapfiles/place_api/icons/v1/png_71/generic_business-71.png",
    "icon_background_color": "#7B9EB0",
    "icon_mask_base_uri": "https://maps.gstatic.com/mapfiles/place_api/icons/v2/generic_pinlet",
    "name": "Roomsmiths Plymouth Escape Rooms",
    "opening_hours": { "open_now": false },
    "photos": [
      {
        "height": 3448,
        "html_attributions": [
          "<a href=\"https://maps.google.com/maps/contrib/114315994960841570608\">Roomsmiths Escape Rooms</a>"
        ],
        "photo_reference": "AelY_Csuzvn9v7OA-uxEKswxLIsfxwC-L_i0xqt1MN6K3rEzNJIcFVNjaCioHsMWiaqx-EHNxff5a99bZJ2g2c-pVeG9VA_dpqnJcvuTxc20ZdAzFX6qtELIWVwBaZlUtxDiRo21PD-o_8EVgbiOM2qAnAViS0FU0SbZxWxzAOpGQyS9tqlC",
        "width": 4592
      }
    ],
    "place_id": "ChIJ7VjYhESTbEgRICgrFrWO-Y4",
    "plus_code": {
      "compound_code": "9R9V+HX Plymouth, UK",
      "global_code": "9C2Q9R9V+HX"
    },
    "rating": 4.9,
    "reference": "ChIJ7VjYhESTbEgRICgrFrWO-Y4",
    "scope": "GOOGLE",
    "types": ["tourist_attraction", "point_of_interest", "establishment"],
    "user_ratings_total": 137,
    "vicinity": "30-34 George Place, Plymouth"
  },
  {
    "business_status": "OPERATIONAL",
    "geometry": {
      "location": { "lat": 50.3643612, "lng": -4.1418819 },
      "viewport": {
        "northeast": { "lat": 50.36571018029149, "lng": -4.140532919708497 },
        "southwest": { "lat": 50.3630122197085, "lng": -4.143230880291502 }
      }
    },
    "icon": "https://maps.gstatic.com/mapfiles/place_api/icons/v1/png_71/generic_business-71.png",
    "icon_background_color": "#13B5C7",
    "icon_mask_base_uri": "https://maps.gstatic.com/mapfiles/place_api/icons/v2/generic_pinlet",
    "name": "Smeaton's Tower",
    "opening_hours": { "open_now": false },
    "photos": [
      {
        "height": 4032,
        "html_attributions": [
          "<a href=\"https://maps.google.com/maps/contrib/101296747271816602634\">ANDREA RUDGE</a>"
        ],
        "photo_reference": "AelY_CtY5ZvKAvdoerYfR9c5V0VIstOvNUT376jDZMCUgsncGROpqe6q4bLs1GJojsKMYLx29j5MuPCiXqK8Ju7rqWJN4jwOsJz5tQHnT-BsUslrIBJTmTMfQyd4_W5rHn3iHgvNk5Lj8ruaRE4ykHkOz0FPMsPWK9kFSeUK9qIo_dbY0D0Y",
        "width": 3024
      }
    ],
    "place_id": "ChIJ_xpZflGTbEgRy_7rL1aC51w",
    "plus_code": {
      "compound_code": "9V75+P6 Plymouth, UK",
      "global_code": "9C2Q9V75+P6"
    },
    "rating": 4.7,
    "reference": "ChIJ_xpZflGTbEgRy_7rL1aC51w",
    "scope": "GOOGLE",
    "types": ["tourist_attraction", "point_of_interest", "establishment"],
    "user_ratings_total": 1434,
    "vicinity": "West Hoe Road, Plymouth"
  }
]
