[
  {
    "business_status": "OPERATIONAL",
    "geometry": {
      "location": { "lat": 52.9231343, "lng": -1.4772886 },
      "viewport": {
        "northeast": { "lat": 52.92449327989273, "lng": -1.475920420107278 },
        "southwest": { "lat": 52.92179362010728, "lng": -1.478620079892722 }
      }
    },
    "icon": "https://maps.gstatic.com/mapfiles/place_api/icons/v1/png_71/bar-71.png",
    "icon_background_color": "#FF9E67",
    "icon_mask_base_uri": "https://maps.gstatic.com/mapfiles/place_api/icons/v2/bar_pinlet",
    "name": "The Hideout Derby",
    "opening_hours": { "open_now": true },
    "photos": [
      {
        "height": 1365,
        "html_attributions": [
          "<a href=\"https://maps.google.com/maps/contrib/105362131932855260096\">A Google User</a>"
        ],
        "photo_reference": "AelY_Cukek8ylJ9cFaP_y_HYEWEuiXyErm6mczXpMNnjLQPFDc5CJYn3iyPlK1-CqazFit5cb3f2-D4BLRPQhWc1-RGTeodqqzIwdPUL4JqyouxAcvNREAJTZFWtQtrHFiZ_T6hd7Cq21okwIZRYHgSYuIuTC7XdOt3YEt_b45ayIOfMRhOu",
        "width": 2048
      }
    ],
    "place_id": "ChIJV66M4ODxeUgRXGVFg-cOGHc",
    "plus_code": {
      "compound_code": "WGFF+63 Derby",
      "global_code": "9C4WWGFF+63"
    },
    "rating": 4.4,
    "reference": "ChIJV66M4ODxeUgRXGVFg-cOGHc",
    "scope": "GOOGLE",
    "types": ["bar", "point_of_interest", "establishment"],
    "user_ratings_total": 628,
    "vicinity": "9-11 Market Pl, Derby"
  },
  {
    "business_status": "OPERATIONAL",
    "geometry": {
      "location": { "lat": 52.9292131, "lng": -1.4827766 },
      "viewport": {
        "northeast": { "lat": 52.93058052989272, "lng": -1.481383420107278 },
        "southwest": { "lat": 52.92788087010728, "lng": -1.484083079892722 }
      }
    },
    "icon": "https://maps.gstatic.com/mapfiles/place_api/icons/v1/png_71/bar-71.png",
    "icon_background_color": "#FF9E67",
    "icon_mask_base_uri": "https://maps.gstatic.com/mapfiles/place_api/icons/v2/bar_pinlet",
    "name": "Five Lamps Pub",
    "opening_hours": { "open_now": true },
    "photos": [
      {
        "height": 2736,
        "html_attributions": [
          "<a href=\"https://maps.google.com/maps/contrib/105530233408411014556\">Thomas M\u00fcthing</a>"
        ],
        "photo_reference": "AelY_CsD6DI6iJTdvkbxh8M61FzqNHeW3loZlWZsxdLPuWSdCq0xzJf9EsS7cxxLockf99N_m6fD2rM4trc5EqQqLpQZfgIP0963xo11ZVsfq8yXuEH3QewN6fgWQkkWWhbH6AgyCOFBDFdMn3JKJWzgG-u4-Y3bHMOgowJmjC84f4QMusj8",
        "width": 3648
      }
    ],
    "place_id": "ChIJiXFlXT_xeUgRfCtgmm3aHTY",
    "plus_code": {
      "compound_code": "WGH8+MV Derby",
      "global_code": "9C4WWGH8+MV"
    },
    "price_level": 2,
    "rating": 4.4,
    "reference": "ChIJiXFlXT_xeUgRfCtgmm3aHTY",
    "scope": "GOOGLE",
    "types": ["bar", "point_of_interest", "establishment"],
    "user_ratings_total": 796,
    "vicinity": "25 Duffield Rd, Derby"
  },
  {
    "business_status": "OPERATIONAL",
    "geometry": {
      "location": { "lat": 52.9232869, "lng": -1.4678036 },
      "viewport": {
        "northeast": { "lat": 52.92465732989272, "lng": -1.466427470107278 },
        "southwest": { "lat": 52.92195767010728, "lng": -1.469127129892722 }
      }
    },
    "icon": "https://maps.gstatic.com/mapfiles/place_api/icons/v1/png_71/bar-71.png",
    "icon_background_color": "#FF9E67",
    "icon_mask_base_uri": "https://maps.gstatic.com/mapfiles/place_api/icons/v2/bar_pinlet",
    "name": "The Smithfield",
    "opening_hours": { "open_now": true },
    "photos": [
      {
        "height": 3456,
        "html_attributions": [
          "<a href=\"https://maps.google.com/maps/contrib/116173550999178467076\">Cliff Perry</a>"
        ],
        "photo_reference": "AelY_Ctto1VuiktAluFk74GQCoW0iJZBPPVMu3Xo1WAdfvJwkLWre0Tip8kS4bQ5iiDAzX9jX8nLTA_J7squMTNHPDKhlz34ubLM1QdWjriBiS6zXATiM66Qip5fh_ke9mwNHS7KbHLR5wijt8FYSzmU16I75xdkkN3xwapdjcg20mj8hlhL",
        "width": 4608
      }
    ],
    "place_id": "ChIJMc8qdhHxeUgRQZZOqsVCBVY",
    "plus_code": {
      "compound_code": "WGFJ+8V Derby",
      "global_code": "9C4WWGFJ+8V"
    },
    "price_level": 1,
    "rating": 4.6,
    "reference": "ChIJMc8qdhHxeUgRQZZOqsVCBVY",
    "scope": "GOOGLE",
    "types": ["bar", "point_of_interest", "establishment"],
    "user_ratings_total": 926,
    "vicinity": "Riverlights House, Meadow Road, Derby, Meadow Rd, Derby"
  },
  {
    "business_status": "OPERATIONAL",
    "geometry": {
      "location": { "lat": 52.9275086, "lng": -1.4811242 },
      "viewport": {
        "northeast": { "lat": 52.92881327989273, "lng": -1.479851720107278 },
        "southwest": { "lat": 52.92611362010729, "lng": -1.482551379892722 }
      }
    },
    "icon": "https://maps.gstatic.com/mapfiles/place_api/icons/v1/png_71/bar-71.png",
    "icon_background_color": "#FF9E67",
    "icon_mask_base_uri": "https://maps.gstatic.com/mapfiles/place_api/icons/v2/bar_pinlet",
    "name": "Seven Stars",
    "opening_hours": { "open_now": true },
    "photos": [
      {
        "height": 2160,
        "html_attributions": [
          "<a href=\"https://maps.google.com/maps/contrib/114684893693794600205\">Steven Hall</a>"
        ],
        "photo_reference": "AelY_CtcGx3HP_MnliaOuxKkINVxJ2ZuYFsPrNX6jFxKtDipeOT2kA3by4qTu-vST0LVlQcedkdzoU03thpVX76bCIFjoA8K2je8KdrfU3gZpPwLP6TkrlVwdhAqWvObXZXdbRx9Eij1vDt-IPkzv8i3evsazRuHImj3Xom7WSbGaxPRW8WN",
        "width": 3840
      }
    ],
    "place_id": "ChIJ0ectCT_xeUgRFkbrDSm1oO0",
    "plus_code": {
      "compound_code": "WGH9+2H Derby",
      "global_code": "9C4WWGH9+2H"
    },
    "price_level": 2,
    "rating": 4.5,
    "reference": "ChIJ0ectCT_xeUgRFkbrDSm1oO0",
    "scope": "GOOGLE",
    "types": ["bar", "point_of_interest", "establishment"],
    "user_ratings_total": 455,
    "vicinity": "Seven Stars Inn, 97 King St, Derby"
  },
  {
    "business_status": "OPERATIONAL",
    "geometry": {
      "location": { "lat": 52.9259158, "lng": -1.468938 },
      "viewport": {
        "northeast": { "lat": 52.92724267989271, "lng": -1.467497520107278 },
        "southwest": { "lat": 52.92454302010727, "lng": -1.470197179892722 }
      }
    },
    "icon": "https://maps.gstatic.com/mapfiles/place_api/icons/v1/png_71/bar-71.png",
    "icon_background_color": "#FF9E67",
    "icon_mask_base_uri": "https://maps.gstatic.com/mapfiles/place_api/icons/v2/bar_pinlet",
    "name": "The Tavern",
    "opening_hours": { "open_now": true },
    "photos": [
      {
        "height": 2448,
        "html_attributions": [
          "<a href=\"https://maps.google.com/maps/contrib/110004947808848771498\">A Google User</a>"
        ],
        "photo_reference": "AelY_CsLvWsUyrj77ieFnC4yYUSORlMvH78cZT8A1NGcRfxKOlBYxegs9fz_UAbTw1AnJJgYipBTNES74mJLTt-Mpjw6Tc0aii4QCnZwvswysEfJMDGHayBL8R2c26Im9lhRU9MaOrE6LpzR_bnUSTVYHx6WS7TI4kpxVXdXWOmVz8YiM9Ad",
        "width": 3264
      }
    ],
    "place_id": "ChIJe-eQsBPxeUgRuOz9bk3q6MI",
    "plus_code": {
      "compound_code": "WGGJ+9C Derby",
      "global_code": "9C4WWGGJ+9C"
    },
    "price_level": 2,
    "rating": 4.4,
    "reference": "ChIJe-eQsBPxeUgRuOz9bk3q6MI",
    "scope": "GOOGLE",
    "types": ["bar", "point_of_interest", "establishment"],
    "user_ratings_total": 220,
    "vicinity": "123 Nottingham Rd, Derby"
  },
  {
    "business_status": "OPERATIONAL",
    "geometry": {
      "location": { "lat": 52.91833519999999, "lng": -1.4641121 },
      "viewport": {
        "northeast": { "lat": 52.91967722989272, "lng": -1.462716670107278 },
        "southwest": { "lat": 52.91697757010728, "lng": -1.465416329892722 }
      }
    },
    "icon": "https://maps.gstatic.com/mapfiles/place_api/icons/v1/png_71/bar-71.png",
    "icon_background_color": "#FF9E67",
    "icon_mask_base_uri": "https://maps.gstatic.com/mapfiles/place_api/icons/v2/bar_pinlet",
    "name": "The Brunswick Inn",
    "opening_hours": { "open_now": true },
    "photos": [
      {
        "height": 3024,
        "html_attributions": [
          "<a href=\"https://maps.google.com/maps/contrib/105173302953200343218\">105173302953200343218</a>"
        ],
        "photo_reference": "AelY_CvOpItGTV_yhXkXpU75XbPmsMLAFbSZgiGVlgjKjhOsyFVExmJm5I_HdXfBrsQk2HHE5-4SFShV2hOeHyHDXtxT_jfi7YyTJpoNKJUv9hFvyt8IaE1zpUGYczhAqy_dcgDffic7RR4-rMjFFr8RzeWsKRWvoX4D00s0-Y5u1b3jtlMM",
        "width": 4032
      }
    ],
    "place_id": "ChIJ491AMwXxeUgRTY9Uqz1-T9E",
    "plus_code": {
      "compound_code": "WG9P+89 Derby",
      "global_code": "9C4WWG9P+89"
    },
    "price_level": 1,
    "rating": 4.6,
    "reference": "ChIJ491AMwXxeUgRTY9Uqz1-T9E",
    "scope": "GOOGLE",
    "types": [
      "bar",
      "restaurant",
      "food",
      "point_of_interest",
      "establishment"
    ],
    "user_ratings_total": 1532,
    "vicinity": "1 Railway Terrace, Derby"
  },
  {
    "business_status": "OPERATIONAL",
    "geometry": {
      "location": { "lat": 52.9233196, "lng": -1.4836882 },
      "viewport": {
        "northeast": { "lat": 52.92472707989272, "lng": -1.482306620107278 },
        "southwest": { "lat": 52.92202742010728, "lng": -1.485006279892722 }
      }
    },
    "icon": "https://maps.gstatic.com/mapfiles/place_api/icons/v1/png_71/bar-71.png",
    "icon_background_color": "#FF9E67",
    "icon_mask_base_uri": "https://maps.gstatic.com/mapfiles/place_api/icons/v2/bar_pinlet",
    "name": "Friary Derby",
    "opening_hours": { "open_now": true },
    "photos": [
      {
        "height": 4248,
        "html_attributions": [
          "<a href=\"https://maps.google.com/maps/contrib/108043094345994503367\">charley.logan@ntlworld.com</a>"
        ],
        "photo_reference": "AelY_CvMWqUHR6yaWCIIP6KBpNfY0GeARsM_XxMQ663szRui0E0B9QmJJRLx7sCBvZKba99OupllbmtiPEGH_v2x_pXQTdz3c1K52TjUe82Y5TE7pKcyO6kMtCHlXhKSRp2OYkWoTInbi2g7B1GD2Nqka1g4AZCxYx36NQpJiOphmFkzXfyT",
        "width": 5664
      }
    ],
    "place_id": "ChIJZ_-FWDnxeUgRoQFpRSUMmz0",
    "plus_code": {
      "compound_code": "WGF8+7G Derby",
      "global_code": "9C4WWGF8+7G"
    },
    "price_level": 2,
    "rating": 4.1,
    "reference": "ChIJZ_-FWDnxeUgRoQFpRSUMmz0",
    "scope": "GOOGLE",
    "types": ["bar", "point_of_interest", "establishment"],
    "user_ratings_total": 805,
    "vicinity": "Friar Gate, Derby"
  },
  {
    "business_status": "OPERATIONAL",
    "geometry": {
      "location": { "lat": 52.9252698, "lng": -1.4779331 },
      "viewport": {
        "northeast": { "lat": 52.92663702989272, "lng": -1.476626270107278 },
        "southwest": { "lat": 52.92393737010728, "lng": -1.479325929892722 }
      }
    },
    "icon": "https://maps.gstatic.com/mapfiles/place_api/icons/v1/png_71/bar-71.png",
    "icon_background_color": "#FF9E67",
    "icon_mask_base_uri": "https://maps.gstatic.com/mapfiles/place_api/icons/v2/bar_pinlet",
    "name": "Ye Olde Dolphin Inne",
    "opening_hours": { "open_now": true },
    "photos": [
      {
        "height": 4000,
        "html_attributions": [
          "<a href=\"https://maps.google.com/maps/contrib/111587837835121432464\">David Striker</a>"
        ],
        "photo_reference": "AelY_Cv0ZJdU0tiiAmkxQPmo0nCEUMkU3bbSHiHfZgVKS_aA-IIqDWSei5F8_Lf0Q4w6LaP0mdiKNPFdDhvKXejuGXg6qb-LkQWA6H_qI5eG3ljeCaaRjUZkX6E63PzqkW6RxsXtHNZCKgH9RjMevjej7qku1abPujaWuJ689MPYlrrO7shj",
        "width": 6000
      }
    ],
    "place_id": "ChIJy2nZHj7xeUgR35G36fokEow",
    "plus_code": {
      "compound_code": "WGGC+4R Derby",
      "global_code": "9C4WWGGC+4R"
    },
    "price_level": 2,
    "rating": 4.3,
    "reference": "ChIJy2nZHj7xeUgR35G36fokEow",
    "scope": "GOOGLE",
    "types": [
      "bar",
      "restaurant",
      "food",
      "point_of_interest",
      "establishment"
    ],
    "user_ratings_total": 1075,
    "vicinity": "Ye Olde Dolphin Inn, 5 Queen St, Derby"
  },
  {
    "business_status": "OPERATIONAL",
    "geometry": {
      "location": { "lat": 52.9190164, "lng": -1.4751432 },
      "viewport": {
        "northeast": { "lat": 52.92037592989272, "lng": -1.473755970107278 },
        "southwest": { "lat": 52.91767627010728, "lng": -1.476455629892722 }
      }
    },
    "icon": "https://maps.gstatic.com/mapfiles/place_api/icons/v1/png_71/bar-71.png",
    "icon_background_color": "#FF9E67",
    "icon_mask_base_uri": "https://maps.gstatic.com/mapfiles/place_api/icons/v2/bar_pinlet",
    "name": "The Neptune",
    "opening_hours": { "open_now": true },
    "photos": [
      {
        "height": 3006,
        "html_attributions": [
          "<a href=\"https://maps.google.com/maps/contrib/106315803317127543597\">Paul Dack</a>"
        ],
        "photo_reference": "AelY_Csf4pLHRnj9fTZNDXHclQpZ2l9JGN1p-ncA6ABUUNSSNiz8Ty9QKitzBOBv7DmSYQTgQd1G1QUc65ptIgYz8mX0sfSjpWVej5o5P7bc6FA_mmSCnq5dgCf5QJhG0C1U3G6zyFVsSOFn3WQonby4t28P7W8vuW3cJfjL86xMUNNNhCCf",
        "width": 5344
      }
    ],
    "place_id": "ChIJhzw0ihfxeUgRIlll6EYAWDM",
    "plus_code": {
      "compound_code": "WG9F+JW Derby",
      "global_code": "9C4WWG9F+JW"
    },
    "price_level": 2,
    "rating": 4.5,
    "reference": "ChIJhzw0ihfxeUgRIlll6EYAWDM",
    "scope": "GOOGLE",
    "types": ["bar", "point_of_interest", "establishment"],
    "user_ratings_total": 501,
    "vicinity": "10 Osmaston Rd, Derby"
  },
  {
    "business_status": "OPERATIONAL",
    "geometry": {
      "location": { "lat": 52.9236073, "lng": -1.4775621 },
      "viewport": {
        "northeast": { "lat": 52.92496322989273, "lng": -1.476134470107278 },
        "southwest": { "lat": 52.92226357010728, "lng": -1.478834129892722 }
      }
    },
    "icon": "https://maps.gstatic.com/mapfiles/place_api/icons/v1/png_71/bar-71.png",
    "icon_background_color": "#FF9E67",
    "icon_mask_base_uri": "https://maps.gstatic.com/mapfiles/place_api/icons/v2/bar_pinlet",
    "name": "Jorrocks",
    "opening_hours": { "open_now": true },
    "photos": [
      {
        "height": 1536,
        "html_attributions": [
          "<a href=\"https://maps.google.com/maps/contrib/101274021045343692203\">A Google User</a>"
        ],
        "photo_reference": "AelY_Cu4Ebkb1gmag62E3QfRpfbsr6J0ZIg1bym097k4Cj4rFshNA6_xrg7awoYjag5SFuuervWqmSRNKooyLglfIFOZKoC6Vmy8CkWy-zMDPcQ20fvXrgmHu8mUWPGMI7marky__T13LQjOS7N7o72bpZtyPTAsanzqhJG1wMW78L-qOTBm",
        "width": 2048
      }
    ],
    "place_id": "ChIJd6M5_D3xeUgRMCSaxhV1dVc",
    "plus_code": {
      "compound_code": "WGFC+CX Derby",
      "global_code": "9C4WWGFC+CX"
    },
    "price_level": 2,
    "rating": 4.1,
    "reference": "ChIJd6M5_D3xeUgRMCSaxhV1dVc",
    "scope": "GOOGLE",
    "types": ["bar", "point_of_interest", "establishment"],
    "user_ratings_total": 364,
    "vicinity": "41 Iron Gate, Derby"
  },
  {
    "business_status": "OPERATIONAL",
    "geometry": {
      "location": { "lat": 52.9218816, "lng": -1.4738548 },
      "viewport": {
        "northeast": { "lat": 52.92324722989272, "lng": -1.472505620107278 },
        "southwest": { "lat": 52.92054757010728, "lng": -1.475205279892722 }
      }
    },
    "icon": "https://maps.gstatic.com/mapfiles/place_api/icons/v1/png_71/bar-71.png",
    "icon_background_color": "#FF9E67",
    "icon_mask_base_uri": "https://maps.gstatic.com/mapfiles/place_api/icons/v2/bar_pinlet",
    "name": "The White Horse",
    "opening_hours": { "open_now": true },
    "photos": [
      {
        "height": 3492,
        "html_attributions": [
          "<a href=\"https://maps.google.com/maps/contrib/113016633084872624007\">Jamie Mann</a>"
        ],
        "photo_reference": "AelY_Ctjxc66JuQy4Prc0lz2VcLH1pFEynPJidDic6Wo0Zd777TrMzyAt2yXIiPupWMw6oU7_Iyqwg4XHhtw0B5qukdd6r9anrYX-Mk_b1ju9EfP2zgL8AkAnRY2adX_x_rZ7QDRs8PzRnc4rG-cmhBeSM6DLmYe2YsTZ_KA7W1Ghh03Zlxm",
        "width": 4656
      }
    ],
    "place_id": "ChIJofhd-RbxeUgRsVEblTpzXHc",
    "plus_code": {
      "compound_code": "WGCG+QF Derby",
      "global_code": "9C4WWGCG+QF"
    },
    "price_level": 2,
    "rating": 4.1,
    "reference": "ChIJofhd-RbxeUgRsVEblTpzXHc",
    "scope": "GOOGLE",
    "types": ["bar", "point_of_interest", "establishment"],
    "user_ratings_total": 839,
    "vicinity": "25 Morledge, Derby"
  },
  {
    "business_status": "OPERATIONAL",
    "geometry": {
      "location": { "lat": 52.9218297, "lng": -1.4771381 },
      "viewport": {
        "northeast": { "lat": 52.92306642989272, "lng": -1.475784770107278 },
        "southwest": { "lat": 52.92036677010728, "lng": -1.478484429892722 }
      }
    },
    "icon": "https://maps.gstatic.com/mapfiles/place_api/icons/v1/png_71/restaurant-71.png",
    "icon_background_color": "#FF9E67",
    "icon_mask_base_uri": "https://maps.gstatic.com/mapfiles/place_api/icons/v2/restaurant_pinlet",
    "name": "Cosy Club",
    "opening_hours": { "open_now": true },
    "photos": [
      {
        "height": 3456,
        "html_attributions": [
          "<a href=\"https://maps.google.com/maps/contrib/106149353299378931823\">106149353299378931823</a>"
        ],
        "photo_reference": "AelY_CvTYTcy-pRPrxodHt0JI2BP6H126jpYwoYwgEAN2MEP1D37mZstYknA5xYsL-Gfdzxf1XXToRhXbG0ayxLDexQxpBqf7oVEOsxpANeH2ly3b11kVzUNcjAUzqvuuE-s8IfoxNDNDjTwMNeyATeYAR8n-mUOjs6iVNJTNsKL4MYwQpiq",
        "width": 4608
      }
    ],
    "place_id": "ChIJvx6-gT3xeUgRTyeIc4zxtlY",
    "plus_code": {
      "compound_code": "WGCF+P4 Derby",
      "global_code": "9C4WWGCF+P4"
    },
    "price_level": 2,
    "rating": 4.4,
    "reference": "ChIJvx6-gT3xeUgRTyeIc4zxtlY",
    "scope": "GOOGLE",
    "types": [
      "bar",
      "restaurant",
      "food",
      "point_of_interest",
      "establishment"
    ],
    "user_ratings_total": 1742,
    "vicinity": "Royal Building, Victoria St, Derby"
  },
  {
    "business_status": "OPERATIONAL",
    "geometry": {
      "location": { "lat": 52.9172862, "lng": -1.4702462 },
      "viewport": {
        "northeast": { "lat": 52.91853032989272, "lng": -1.469058870107278 },
        "southwest": { "lat": 52.91583067010727, "lng": -1.471758529892722 }
      }
    },
    "icon": "https://maps.gstatic.com/mapfiles/place_api/icons/v1/png_71/bar-71.png",
    "icon_background_color": "#FF9E67",
    "icon_mask_base_uri": "https://maps.gstatic.com/mapfiles/place_api/icons/v2/bar_pinlet",
    "name": "Royal Telegraph",
    "opening_hours": { "open_now": true },
    "photos": [
      {
        "height": 3024,
        "html_attributions": [
          "<a href=\"https://maps.google.com/maps/contrib/100843265939353346068\">Raamfan Raamfan</a>"
        ],
        "photo_reference": "AelY_CvrAMgqkgck-M0r_Gf2ZztlliQ-5hxDftXtLgeQFpCQnu2cJJ5BNE5czrK2p0IAUK2hfq0gFmheXYHnC9Yf2NavQ-igA_oZVShpYRKEaA5600PnuSoA_sr4XicjCW0312cWgehMirFukbZmK7aP9XWxzOffOowKJNr6HLX9NrhmyfmY",
        "width": 4032
      }
    ],
    "place_id": "ChIJv8xIcxvxeUgRiVOTcWlAEM0",
    "plus_code": {
      "compound_code": "WG8H+WW Derby",
      "global_code": "9C4WWG8H+WW"
    },
    "price_level": 1,
    "rating": 4.1,
    "reference": "ChIJv8xIcxvxeUgRiVOTcWlAEM0",
    "scope": "GOOGLE",
    "types": ["bar", "point_of_interest", "establishment"],
    "user_ratings_total": 712,
    "vicinity": "73 London Rd, Derby"
  },
  {
    "business_status": "OPERATIONAL",
    "geometry": {
      "location": { "lat": 52.9246194, "lng": -1.4721944 },
      "viewport": {
        "northeast": { "lat": 52.92590177989272, "lng": -1.470773070107278 },
        "southwest": { "lat": 52.92320212010727, "lng": -1.473472729892722 }
      }
    },
    "icon": "https://maps.gstatic.com/mapfiles/place_api/icons/v1/png_71/bar-71.png",
    "icon_background_color": "#FF9E67",
    "icon_mask_base_uri": "https://maps.gstatic.com/mapfiles/place_api/icons/v2/bar_pinlet",
    "name": "Exeter Arms",
    "opening_hours": { "open_now": true },
    "photos": [
      {
        "height": 3024,
        "html_attributions": [
          "<a href=\"https://maps.google.com/maps/contrib/104875234974246804824\">win task</a>"
        ],
        "photo_reference": "AelY_CsjrAUTj21glLaqek8tp75di52zT13WbxgkFFArs7YCmfBioYeZp7YcEEhg-930PKw3cu4QwibTCMA9sv2dAMe7XgwXLW91SN0fYpXkvWIE3pL8nYCR1oLaCqEFEQjf0M5vS6RUokZdZXa1nktv4Q7luQ5cVvo4L8bDorRLoCIOfpE3",
        "width": 4032
      }
    ],
    "place_id": "ChIJyWPNGxTxeUgRo_oUDR2vf0U",
    "plus_code": {
      "compound_code": "WGFH+R4 Derby",
      "global_code": "9C4WWGFH+R4"
    },
    "price_level": 2,
    "rating": 4.6,
    "reference": "ChIJyWPNGxTxeUgRo_oUDR2vf0U",
    "scope": "GOOGLE",
    "types": [
      "bar",
      "restaurant",
      "food",
      "point_of_interest",
      "establishment"
    ],
    "user_ratings_total": 1668,
    "vicinity": "Exeter Pl, Derby"
  },
  {
    "business_status": "OPERATIONAL",
    "geometry": {
      "location": { "lat": 52.9265171, "lng": -1.4858818 },
      "viewport": {
        "northeast": { "lat": 52.92790442989273, "lng": -1.484604220107278 },
        "southwest": { "lat": 52.92520477010728, "lng": -1.487303879892722 }
      }
    },
    "icon": "https://maps.gstatic.com/mapfiles/place_api/icons/v1/png_71/bar-71.png",
    "icon_background_color": "#FF9E67",
    "icon_mask_base_uri": "https://maps.gstatic.com/mapfiles/place_api/icons/v2/bar_pinlet",
    "name": "The Woodlark",
    "opening_hours": { "open_now": true },
    "photos": [
      {
        "height": 2736,
        "html_attributions": [
          "<a href=\"https://maps.google.com/maps/contrib/105530233408411014556\">Thomas M\u00fcthing</a>"
        ],
        "photo_reference": "AelY_CsszELhUjsMyQDZBXD_oFkZe8YJ7ofn3i_LGBLqpHuGEVolD5QPbA1fRrTuE1gmw_AlBR1wNb3ZYkpFX-3J71VIhbNjyeGn4MpicCN1L8_sQWtU2H3PkPTswdp_zU6HWuUt96uNsEhi_UQrIzKjynysFubNasSKFYEVAZ1ZWAg_H5Jf",
        "width": 3648
      }
    ],
    "place_id": "ChIJvfiAvTnxeUgR9VfgkYQ3xa8",
    "plus_code": {
      "compound_code": "WGG7+JJ Derby",
      "global_code": "9C4WWGG7+JJ"
    },
    "price_level": 1,
    "rating": 4.4,
    "reference": "ChIJvfiAvTnxeUgR9VfgkYQ3xa8",
    "scope": "GOOGLE",
    "types": ["bar", "point_of_interest", "establishment"],
    "user_ratings_total": 162,
    "vicinity": "Bridge St, Derby"
  },
  {
    "business_status": "OPERATIONAL",
    "geometry": {
      "location": { "lat": 52.9250814, "lng": -1.4907948 },
      "viewport": {
        "northeast": { "lat": 52.92646067989271, "lng": -1.489505420107277 },
        "southwest": { "lat": 52.92376102010727, "lng": -1.492205079892722 }
      }
    },
    "icon": "https://maps.gstatic.com/mapfiles/place_api/icons/v1/png_71/bar-71.png",
    "icon_background_color": "#FF9E67",
    "icon_mask_base_uri": "https://maps.gstatic.com/mapfiles/place_api/icons/v2/bar_pinlet",
    "name": "The Last Post, Derby",
    "opening_hours": { "open_now": true },
    "photos": [
      {
        "height": 2736,
        "html_attributions": [
          "<a href=\"https://maps.google.com/maps/contrib/105530233408411014556\">Thomas M\u00fcthing</a>"
        ],
        "photo_reference": "AelY_Csqy2JxqTLflJaQoeQXvkxyJWI5rDw90kRtaw4_hczzRAsZlvxyelcV2wzrk0e5WPgfwMuGbG5K-GniCKEKhxfLDxNCARXHIfEbH0S-pEmjJxdRYCqTsLTGLIXaZxnDMj75Z1mhlOjdlKsxVFFjCILwKftEocx0S4Cdpo2dbOF50uEQ",
        "width": 3648
      }
    ],
    "place_id": "ChIJ66TxZzfxeUgRhlCk_RbMR2s",
    "plus_code": {
      "compound_code": "WGG5+2M Derby",
      "global_code": "9C4WWGG5+2M"
    },
    "price_level": 1,
    "rating": 4.7,
    "reference": "ChIJ66TxZzfxeUgRhlCk_RbMR2s",
    "scope": "GOOGLE",
    "types": ["bar", "point_of_interest", "establishment"],
    "user_ratings_total": 201,
    "vicinity": "1 Uttoxeter Old Rd, Derby"
  },
  {
    "business_status": "OPERATIONAL",
    "geometry": {
      "location": { "lat": 52.9236413, "lng": -1.48378 },
      "viewport": {
        "northeast": { "lat": 52.92495037989273, "lng": -1.482452770107278 },
        "southwest": { "lat": 52.92225072010728, "lng": -1.485152429892722 }
      }
    },
    "icon": "https://maps.gstatic.com/mapfiles/place_api/icons/v1/png_71/bar-71.png",
    "icon_background_color": "#FF9E67",
    "icon_mask_base_uri": "https://maps.gstatic.com/mapfiles/place_api/icons/v2/bar_pinlet",
    "name": "The Mixing House",
    "opening_hours": { "open_now": true },
    "photos": [
      {
        "height": 2252,
        "html_attributions": [
          "<a href=\"https://maps.google.com/maps/contrib/101690669013024833066\">A Google User</a>"
        ],
        "photo_reference": "AelY_Ct28QNOYqF3MRuXF4yldCzjDMMuJXx6BwZStzflN86DLN0TnKoDYkKj8QLjemsigV2iw2gaShUrMCKD_Ftf5xUUEPxgeetIj4oli3o1AkR3DGZ8udyPxbcipsQ7iGJ8v2D5s46gncxqmpeHCmj-DWnEswgBD0BwPx39RzevcWZJr2WR",
        "width": 4000
      }
    ],
    "place_id": "ChIJw7spOObxeUgRq-0eJPvANn4",
    "plus_code": {
      "compound_code": "WGF8+FF Derby",
      "global_code": "9C4WWGF8+FF"
    },
    "price_level": 2,
    "rating": 4.1,
    "reference": "ChIJw7spOObxeUgRq-0eJPvANn4",
    "scope": "GOOGLE",
    "types": ["bar", "point_of_interest", "establishment"],
    "user_ratings_total": 91,
    "vicinity": "Friar Gate, Derby"
  },
  {
    "business_status": "OPERATIONAL",
    "geometry": {
      "location": { "lat": 52.9161893, "lng": -1.480354 },
      "viewport": {
        "northeast": { "lat": 52.91762122989272, "lng": -1.478809170107278 },
        "southwest": { "lat": 52.91492157010728, "lng": -1.481508829892722 }
      }
    },
    "icon": "https://maps.gstatic.com/mapfiles/place_api/icons/v1/png_71/bar-71.png",
    "icon_background_color": "#FF9E67",
    "icon_mask_base_uri": "https://maps.gstatic.com/mapfiles/place_api/icons/v2/bar_pinlet",
    "name": "The Bell & Castle",
    "opening_hours": { "open_now": true },
    "photos": [
      {
        "height": 3024,
        "html_attributions": [
          "<a href=\"https://maps.google.com/maps/contrib/104038645383019203263\">The Bell &amp; Castle</a>"
        ],
        "photo_reference": "AelY_CvQBczlQhVxqeHPLMv-YFSQo_fLbhx2NIJZHn0tEiOryC0ChcVE97Kl26Qhzk0GC0Nn1gkLb506y7JU9gXToEgGpcYmZPFFbdb7rPSVskthkZqrapy1vhkmgTLGsYOYj46D6luu9j_Ud6Wd1hgtG_3gMqKPdes7n209qLKh_bfs3D3R",
        "width": 4032
      }
    ],
    "place_id": "ChIJbdMF_SLxeUgRQRVrBhoUKwQ",
    "plus_code": {
      "compound_code": "WG89+FV Derby",
      "global_code": "9C4WWG89+FV"
    },
    "price_level": 1,
    "rating": 4.6,
    "reference": "ChIJbdMF_SLxeUgRQRVrBhoUKwQ",
    "scope": "GOOGLE",
    "types": [
      "bar",
      "restaurant",
      "food",
      "point_of_interest",
      "establishment"
    ],
    "user_ratings_total": 389,
    "vicinity": "98 Burton Rd, Derby"
  },
  {
    "business_status": "OPERATIONAL",
    "geometry": {
      "location": { "lat": 52.9252615, "lng": -1.4785433 },
      "viewport": {
        "northeast": { "lat": 52.92671052989272, "lng": -1.477206770107278 },
        "southwest": { "lat": 52.92401087010727, "lng": -1.479906429892722 }
      }
    },
    "icon": "https://maps.gstatic.com/mapfiles/place_api/icons/v1/png_71/bar-71.png",
    "icon_background_color": "#FF9E67",
    "icon_mask_base_uri": "https://maps.gstatic.com/mapfiles/place_api/icons/v2/bar_pinlet",
    "name": "Derby Sports Bar",
    "opening_hours": { "open_now": true },
    "photos": [
      {
        "height": 3024,
        "html_attributions": [
          "<a href=\"https://maps.google.com/maps/contrib/100215941302304138907\">A Google User</a>"
        ],
        "photo_reference": "AelY_Cs82BoJNWUqU3rbcWKiGFpKruChqm3tl7dk-yQ5L2-cs0idBWqk3ae2NJLBv2PkCHUVCoArTZcWTOLyrDsBarE2tovQ5e7zsZ-kIr3VU-dyUC6hj6CGpRFXGVb74Y1VjZoNPTNjasw14JxM9AwsWfALHTAjTwIPVo80MavPPTp9Eck",
        "width": 4032
      }
    ],
    "place_id": "ChIJ8Zh9ugbxeUgRO5edDTd-gJQ",
    "plus_code": {
      "compound_code": "WGGC+4H Derby",
      "global_code": "9C4WWGGC+4H"
    },
    "price_level": 2,
    "rating": 4.3,
    "reference": "ChIJ8Zh9ugbxeUgRO5edDTd-gJQ",
    "scope": "GOOGLE",
    "types": [
      "bar",
      "restaurant",
      "food",
      "point_of_interest",
      "establishment"
    ],
    "user_ratings_total": 165,
    "vicinity": "1 Queen St, Derby"
  },
  {
    "business_status": "OPERATIONAL",
    "geometry": {
      "location": { "lat": 52.9232939, "lng": -1.4806079 },
      "viewport": {
        "northeast": { "lat": 52.92445167989273, "lng": -1.479424070107278 },
        "southwest": { "lat": 52.92175202010728, "lng": -1.482123729892722 }
      }
    },
    "icon": "https://maps.gstatic.com/mapfiles/place_api/icons/v1/png_71/bar-71.png",
    "icon_background_color": "#FF9E67",
    "icon_mask_base_uri": "https://maps.gstatic.com/mapfiles/place_api/icons/v2/bar_pinlet",
    "name": "Seymours Bar",
    "opening_hours": { "open_now": true },
    "photos": [
      {
        "height": 1960,
        "html_attributions": [
          "<a href=\"https://maps.google.com/maps/contrib/107115802982205058401\">Rich Waring</a>"
        ],
        "photo_reference": "AelY_CsyP5jh8Gwt5lZ0SVjegsd-1XF-bD2f9jLvTRpdaRdO0axHTgT66D7hmHyJ9d8LFaST-geu8MMn6XuQiwyhr8-f8L1vkTrIv8ryLHB4Woz96ZW7nxfsgjlUNUKNN94mKDCNGDLOb8M8AgY80f_nbTx4pvmKFCGrzh-m42Y9-8hrSr5_",
        "width": 4032
      }
    ],
    "place_id": "ChIJSRmC0j3xeUgRuMJolQkdDm8",
    "plus_code": {
      "compound_code": "WGF9+8Q Derby",
      "global_code": "9C4WWGF9+8Q"
    },
    "price_level": 1,
    "rating": 4.1,
    "reference": "ChIJSRmC0j3xeUgRuMJolQkdDm8",
    "scope": "GOOGLE",
    "types": ["bar", "point_of_interest", "establishment"],
    "user_ratings_total": 482,
    "vicinity": "4 Cheapside, Derby"
  },
  {
    "business_status": "OPERATIONAL",
    "geometry": {
      "location": { "lat": 52.9233225, "lng": -1.4815091 },
      "viewport": {
        "northeast": { "lat": 52.92462567989272, "lng": -1.480299170107278 },
        "southwest": { "lat": 52.92192602010727, "lng": -1.482998829892722 }
      }
    },
    "icon": "https://maps.gstatic.com/mapfiles/place_api/icons/v1/png_71/bar-71.png",
    "icon_background_color": "#FF9E67",
    "icon_mask_base_uri": "https://maps.gstatic.com/mapfiles/place_api/icons/v2/bar_pinlet",
    "name": "The Distillery",
    "opening_hours": { "open_now": true },
    "photos": [
      {
        "height": 1365,
        "html_attributions": [
          "<a href=\"https://maps.google.com/maps/contrib/112037745241504860682\">A Google User</a>"
        ],
        "photo_reference": "AelY_CvZmk5d3_nsA8admRwatIjJDd7uNX6ZO6UAoklz-_Hlh7sJMoVYrHOE8Ov8GyYpvAlLP_FvO9WhR8LJbCRJtNGNK8LVEeapbsA8qMHjUiJj4INzGYktkfMyjL06XZkx2zEtt3iLF8bbfjNJ-jdJ3WQC4fPJKLGMv2u9o3dPzhrSC5zq",
        "width": 2048
      }
    ],
    "place_id": "ChIJAW6pHjzxeUgRpF8kSTtEzbk",
    "plus_code": {
      "compound_code": "WGF9+99 Derby",
      "global_code": "9C4WWGF9+99"
    },
    "price_level": 2,
    "rating": 4.2,
    "reference": "ChIJAW6pHjzxeUgRpF8kSTtEzbk",
    "scope": "GOOGLE",
    "types": [
      "bar",
      "restaurant",
      "food",
      "point_of_interest",
      "establishment"
    ],
    "user_ratings_total": 735,
    "vicinity": "3 Friar Gate, Derby"
  },
  {
    "business_status": "OPERATIONAL",
    "geometry": {
      "location": { "lat": 52.92317809999999, "lng": -1.4822269 },
      "viewport": {
        "northeast": { "lat": 52.92456382989272, "lng": -1.480872020107278 },
        "southwest": { "lat": 52.92186417010728, "lng": -1.483571679892722 }
      }
    },
    "icon": "https://maps.gstatic.com/mapfiles/place_api/icons/v1/png_71/bar-71.png",
    "icon_background_color": "#FF9E67",
    "icon_mask_base_uri": "https://maps.gstatic.com/mapfiles/place_api/icons/v2/bar_pinlet",
    "name": "The Bishop Blaise",
    "opening_hours": { "open_now": true },
    "photos": [
      {
        "height": 3024,
        "html_attributions": [
          "<a href=\"https://maps.google.com/maps/contrib/109343802547235047070\">A Google User</a>"
        ],
        "photo_reference": "AelY_CtlVXlRxzdkjW6hr-TB_VF0BvsNLPa8rOFhXU0dgRvx5657yBU-eTmBs2UDCowpi_KdlMIMITd67ElxR0b7eU0cA2JuoXTOcJOqNoKZD8kjRE1SukWfzxY8aY3GMNVMWce7khkfFHZTQS9HWw2ooeL2diULLgn6Mj9I2ux-6EASNrut",
        "width": 4032
      }
    ],
    "place_id": "ChIJ_SNqFzzxeUgRmDRGLUU7Boc",
    "plus_code": {
      "compound_code": "WGF9+74 Derby",
      "global_code": "9C4WWGF9+74"
    },
    "price_level": 2,
    "rating": 4.1,
    "reference": "ChIJ_SNqFzzxeUgRmDRGLUU7Boc",
    "scope": "GOOGLE",
    "types": ["bar", "point_of_interest", "establishment"],
    "user_ratings_total": 358,
    "vicinity": "114 Friar Gate, Derby"
  },
  {
    "business_status": "OPERATIONAL",
    "geometry": {
      "location": { "lat": 52.9221947, "lng": -1.4748242 },
      "viewport": {
        "northeast": { "lat": 52.92359142989272, "lng": -1.473586320107278 },
        "southwest": { "lat": 52.92089177010727, "lng": -1.476285979892722 }
      }
    },
    "icon": "https://maps.gstatic.com/mapfiles/place_api/icons/v1/png_71/bar-71.png",
    "icon_background_color": "#FF9E67",
    "icon_mask_base_uri": "https://maps.gstatic.com/mapfiles/place_api/icons/v2/bar_pinlet",
    "name": "City Bar",
    "opening_hours": { "open_now": true },
    "photos": [
      {
        "height": 448,
        "html_attributions": [
          "<a href=\"https://maps.google.com/maps/contrib/105089219395349511039\">A Google User</a>"
        ],
        "photo_reference": "AelY_CtjukNDP_dXRs8CMhpIU3QhM7OW8sXDYNJyZHzhhVB5PXWABCa2r9IyTHDirK-GcO_TWI7rVvo-P9oTtuWgXxzXnM0r7mFWOVrxcc2KMsxbRqMdEsTz2txciGYFAxCvrXEGTjsAnLqONtr2mW0GiFRoABWOQf8wdBLQdGx_3EdakLdX",
        "width": 1024
      }
    ],
    "place_id": "ChIJhRlTKAPxeUgRZIiZHF4TG34",
    "plus_code": {
      "compound_code": "WGCG+V3 Derby",
      "global_code": "9C4WWGCG+V3"
    },
    "rating": 3.9,
    "reference": "ChIJhRlTKAPxeUgRZIiZHF4TG34",
    "scope": "GOOGLE",
    "types": ["bar", "point_of_interest", "establishment"],
    "user_ratings_total": 91,
    "vicinity": "12 Albert St, Derby"
  },
  {
    "business_status": "OPERATIONAL",
    "geometry": {
      "location": { "lat": 52.9253253, "lng": -1.4865699 },
      "viewport": {
        "northeast": { "lat": 52.92664447989272, "lng": -1.485244370107278 },
        "southwest": { "lat": 52.92394482010728, "lng": -1.487944029892722 }
      }
    },
    "icon": "https://maps.gstatic.com/mapfiles/place_api/icons/v1/png_71/bar-71.png",
    "icon_background_color": "#FF9E67",
    "icon_mask_base_uri": "https://maps.gstatic.com/mapfiles/place_api/icons/v2/bar_pinlet",
    "name": "Golden Eagle pub",
    "opening_hours": { "open_now": true },
    "photos": [
      {
        "height": 3456,
        "html_attributions": [
          "<a href=\"https://maps.google.com/maps/contrib/114496960589810099927\">Barry Eggleton</a>"
        ],
        "photo_reference": "AelY_CtlQslK9BdLtlqnjeN1dKJ_KuEJVoRUHTYeM5d46tsKrqQc0TSpNqP_DlIwZJfBjj6Q1GIzKlEBXAt_QJaRi13clqKuGQkS2-FxPWr9E3eyrtYsaXKd38bldwa1FuhBEy_30uAMVvFx-ES2DTiNd2KvZBmXhGmOPbc65enkcOK0z8I1",
        "width": 4608
      }
    ],
    "place_id": "ChIJo0SfCznxeUgRnkvSS0p2MX8",
    "plus_code": {
      "compound_code": "WGG7+49 Derby",
      "global_code": "9C4WWGG7+49"
    },
    "price_level": 1,
    "rating": 4.6,
    "reference": "ChIJo0SfCznxeUgRnkvSS0p2MX8",
    "scope": "GOOGLE",
    "types": ["bar", "point_of_interest", "establishment"],
    "user_ratings_total": 331,
    "vicinity": "55 Agard St, Derby"
  },
  {
    "business_status": "OPERATIONAL",
    "geometry": {
      "location": { "lat": 52.9201612, "lng": -1.4760744 },
      "viewport": {
        "northeast": { "lat": 52.92137902989273, "lng": -1.474483820107278 },
        "southwest": { "lat": 52.91867937010728, "lng": -1.477183479892722 }
      }
    },
    "icon": "https://maps.gstatic.com/mapfiles/place_api/icons/v1/png_71/bar-71.png",
    "icon_background_color": "#FF9E67",
    "icon_mask_base_uri": "https://maps.gstatic.com/mapfiles/place_api/icons/v2/bar_pinlet",
    "name": "Ryans Bar",
    "opening_hours": { "open_now": true },
    "photos": [
      {
        "height": 3024,
        "html_attributions": [
          "<a href=\"https://maps.google.com/maps/contrib/103729851276338755029\">Jeremy Van Den Dikkenberg</a>"
        ],
        "photo_reference": "AelY_Ctk-0rPJPwAvZ38tPYQI9iFKJlHGjTP0JsNMOVJHIyTAdGhIhOMnN87vaGXSBBLKZ14Isqs9ornpE7gjlcWQbNvqYMlU0v6WbYI9veoficprS7mcePdapoDWKM9fh6YwFi7B4jreNZ7-NLlhbfb3W40HZ-0MKo7r21sQXfHdmQ81-ly",
        "width": 4032
      }
    ],
    "place_id": "ChIJ_-_9whfxeUgRfMgSyqCSYBw",
    "plus_code": {
      "compound_code": "WGCF+3H Derby",
      "global_code": "9C4WWGCF+3H"
    },
    "price_level": 2,
    "rating": 4.1,
    "reference": "ChIJ_-_9whfxeUgRfMgSyqCSYBw",
    "scope": "GOOGLE",
    "types": ["bar", "point_of_interest", "establishment"],
    "user_ratings_total": 283,
    "vicinity": "56 St Peters St, Derby"
  },
  {
    "business_status": "OPERATIONAL",
    "geometry": {
      "location": { "lat": 52.9164225, "lng": -1.4641402 },
      "viewport": {
        "northeast": { "lat": 52.91778622989273, "lng": -1.462738770107278 },
        "southwest": { "lat": 52.91508657010728, "lng": -1.465438429892722 }
      }
    },
    "icon": "https://maps.gstatic.com/mapfiles/place_api/icons/v1/png_71/bar-71.png",
    "icon_background_color": "#FF9E67",
    "icon_mask_base_uri": "https://maps.gstatic.com/mapfiles/place_api/icons/v2/bar_pinlet",
    "name": "The Merry Widows",
    "opening_hours": { "open_now": true },
    "photos": [
      {
        "height": 1600,
        "html_attributions": [
          "<a href=\"https://maps.google.com/maps/contrib/100944530734954133589\">A Google User</a>"
        ],
        "photo_reference": "AelY_Cuw8mVe-dznB8Xhzwp0Ok4TeypawW3ayRN7iX8Ked0ci8iIS8fwby4k3YxlgNXnInzeNqP5T3bJO46uvdKZ8VGx6xk5gHfFPYeOMoj0PVpHXnKjQbNIy0yWCsXC5-_wMimjWyhO0hBd_ipSKz0KAr-whYCaoa3qXruRXOxmyokR1K3Q",
        "width": 1200
      }
    ],
    "place_id": "ChIJC3qVLAXxeUgRb1SYDXwy6sc",
    "plus_code": {
      "compound_code": "WG8P+H8 Derby",
      "global_code": "9C4WWG8P+H8"
    },
    "price_level": 2,
    "rating": 4.3,
    "reference": "ChIJC3qVLAXxeUgRb1SYDXwy6sc",
    "scope": "GOOGLE",
    "types": ["bar", "point_of_interest", "establishment"],
    "user_ratings_total": 227,
    "vicinity": "24 Railway Terrace, Derby"
  },
  {
    "business_status": "OPERATIONAL",
    "geometry": {
      "location": { "lat": 52.9242949, "lng": -1.4774251 },
      "viewport": {
        "northeast": { "lat": 52.92561757989273, "lng": -1.476118570107278 },
        "southwest": { "lat": 52.92291792010729, "lng": -1.478818229892722 }
      }
    },
    "icon": "https://maps.gstatic.com/mapfiles/place_api/icons/v1/png_71/bar-71.png",
    "icon_background_color": "#FF9E67",
    "icon_mask_base_uri": "https://maps.gstatic.com/mapfiles/place_api/icons/v2/bar_pinlet",
    "name": "Slug & Lettuce - Derby",
    "opening_hours": { "open_now": true },
    "photos": [
      {
        "height": 3024,
        "html_attributions": [
          "<a href=\"https://maps.google.com/maps/contrib/114828527818714728307\">ron harris</a>"
        ],
        "photo_reference": "AelY_CvC4m7S3GRHaf2tdjPpo5AprD-rasgnu-HU8IpiVSOsLMy_L0YTBeZSgwupN4NsPwr77pUXGqIZWvZKufn8N4acgqsG9T6XSgzRVM4k0Fi3NIKHXP-H0DZ-rg_nIambLC13ElcGcnJU5x5NXIYCrMvLWij0HKgIOjaTkkztfcXujhaG",
        "width": 4032
      }
    ],
    "place_id": "ChIJlxLo_hXxeUgRVezV2ny1xP8",
    "plus_code": {
      "compound_code": "WGFF+P2 Derby",
      "global_code": "9C4WWGFF+P2"
    },
    "price_level": 2,
    "rating": 4.6,
    "reference": "ChIJlxLo_hXxeUgRVezV2ny1xP8",
    "scope": "GOOGLE",
    "types": [
      "bar",
      "restaurant",
      "food",
      "point_of_interest",
      "establishment"
    ],
    "user_ratings_total": 3024,
    "vicinity": "11 Iron Gate, Derby"
  },
  {
    "business_status": "OPERATIONAL",
    "geometry": {
      "location": { "lat": 52.92212689999999, "lng": -1.4748752 },
      "viewport": {
        "northeast": { "lat": 52.92335872989272, "lng": -1.473672220107278 },
        "southwest": { "lat": 52.92065907010728, "lng": -1.476371879892722 }
      }
    },
    "icon": "https://maps.gstatic.com/mapfiles/place_api/icons/v1/png_71/bar-71.png",
    "icon_background_color": "#FF9E67",
    "icon_mask_base_uri": "https://maps.gstatic.com/mapfiles/place_api/icons/v2/bar_pinlet",
    "name": "Corn Exchange Sports Bar",
    "opening_hours": { "open_now": true },
    "photos": [
      {
        "height": 433,
        "html_attributions": [
          "<a href=\"https://maps.google.com/maps/contrib/102096113584209255459\">A Google User</a>"
        ],
        "photo_reference": "AelY_CsKOCwfOad8iBrYs0dUFTQ4Bmt9bVUnpQwFXgw8k6BRzzo0PMfamFugD1CEHCnP9cy2I0pHxD9Xfi9q5xoyTKPU-euuJLhDViaDznlUcrDkuW9pVNa99Lf3cSlGQHnwD3Dzr2x2i8LYJdiUBwmCdoWqXMglPhTqzovErGRadpzKjIlx",
        "width": 768
      }
    ],
    "place_id": "ChIJAfsFSBbxeUgRxNbsbfACvbc",
    "plus_code": {
      "compound_code": "WGCG+V3 Derby",
      "global_code": "9C4WWGCG+V3"
    },
    "price_level": 1,
    "rating": 4.3,
    "reference": "ChIJAfsFSBbxeUgRxNbsbfACvbc",
    "scope": "GOOGLE",
    "types": ["bar", "point_of_interest", "establishment"],
    "user_ratings_total": 219,
    "vicinity": "Corn Exchange, Albert St, Derby"
  },
  {
    "business_status": "OPERATIONAL",
    "geometry": {
      "location": { "lat": 52.92552269999999, "lng": -1.4772701 },
      "viewport": {
        "northeast": { "lat": 52.92680987989272, "lng": -1.475846520107278 },
        "southwest": { "lat": 52.92411022010727, "lng": -1.478546179892722 }
      }
    },
    "icon": "https://maps.gstatic.com/mapfiles/place_api/icons/v1/png_71/bar-71.png",
    "icon_background_color": "#FF9E67",
    "icon_mask_base_uri": "https://maps.gstatic.com/mapfiles/place_api/icons/v2/bar_pinlet",
    "name": "Silk Mill Derby",
    "opening_hours": { "open_now": true },
    "photos": [
      {
        "height": 3024,
        "html_attributions": [
          "<a href=\"https://maps.google.com/maps/contrib/104875234974246804824\">win task</a>"
        ],
        "photo_reference": "AelY_CuqkCRRmzMOQp9cCssLEdYuB8bzTGnbmamyidpy_7PnwjqBppEilgBApAgiN48VW66BCk9Mo36tf2iuWTnEWJO2UBJfQ1VmkzprllXVKy_LkvszhbmJzf10PgOareXMy6QnF3MEDWvTIGYw85YatFYkPSllNIfPENiUcQRh2SlfYVo6",
        "width": 4032
      }
    ],
    "place_id": "ChIJtxe8ixXxeUgRIUcuS3kqd8M",
    "plus_code": {
      "compound_code": "WGGF+64 Derby",
      "global_code": "9C4WWGGF+64"
    },
    "price_level": 2,
    "rating": 4.4,
    "reference": "ChIJtxe8ixXxeUgRIUcuS3kqd8M",
    "scope": "GOOGLE",
    "types": ["bar", "point_of_interest", "establishment"],
    "user_ratings_total": 1511,
    "vicinity": "19 Full St, Derby"
  },
  {
    "business_status": "OPERATIONAL",
    "geometry": {
      "location": { "lat": 52.9296154, "lng": -1.4868543 },
      "viewport": {
        "northeast": { "lat": 52.93096677989272, "lng": -1.485555370107278 },
        "southwest": { "lat": 52.92826712010727, "lng": -1.488255029892722 }
      }
    },
    "icon": "https://maps.gstatic.com/mapfiles/place_api/icons/v1/png_71/bar-71.png",
    "icon_background_color": "#FF9E67",
    "icon_mask_base_uri": "https://maps.gstatic.com/mapfiles/place_api/icons/v2/bar_pinlet",
    "name": "The Horse And Groom",
    "opening_hours": { "open_now": true },
    "photos": [
      {
        "height": 3072,
        "html_attributions": [
          "<a href=\"https://maps.google.com/maps/contrib/105530233408411014556\">Thomas M\u00fcthing</a>"
        ],
        "photo_reference": "AelY_CuatVv2znv-4MZYjcodxs_kR_lKK-4YcEz0dCnA1x_RriFfj1ciK_tmmQbVg97kCzcRK5-phmwLNpYduzMA6W-6zYz2jmK3uC-CsY32cRIL8LIBiVdDIzzwDoIX610tzTM_mqeCWTgPgD3ap9tIsSKuJUBAhxQAQY4CDYdoFhE9LuZE",
        "width": 4096
      }
    ],
    "place_id": "ChIJZ_tzUXnxeUgR_DPN8eIvHzs",
    "plus_code": {
      "compound_code": "WGH7+V7 Derby",
      "global_code": "9C4WWGH7+V7"
    },
    "price_level": 1,
    "rating": 4.4,
    "reference": "ChIJZ_tzUXnxeUgR_DPN8eIvHzs",
    "scope": "GOOGLE",
    "types": ["bar", "point_of_interest", "establishment"],
    "user_ratings_total": 237,
    "vicinity": "48 Elms St, Derby"
  },
  {
    "business_status": "OPERATIONAL",
    "geometry": {
      "location": { "lat": 52.9230554, "lng": -1.4802014 },
      "viewport": {
        "northeast": { "lat": 52.9244627802915, "lng": -1.478739519708498 },
        "southwest": { "lat": 52.9217648197085, "lng": -1.481437480291502 }
      }
    },
    "icon": "https://maps.gstatic.com/mapfiles/place_api/icons/v1/png_71/museum-71.png",
    "icon_background_color": "#13B5C7",
    "icon_mask_base_uri": "https://maps.gstatic.com/mapfiles/place_api/icons/v2/museum_pinlet",
    "name": "Derby Museum & Art Gallery",
    "opening_hours": { "open_now": false },
    "photos": [
      {
        "height": 514,
        "html_attributions": [
          "<a href=\"https://maps.google.com/maps/contrib/111766667362648294070\">Derby Museum &amp; Art Gallery</a>"
        ],
        "photo_reference": "AelY_Cuc8ltUreHaooBCgbS4OSRy4l3n_kqvDmcXjkaXGlWTKSEdTtnW6M6f7GGDR48LHbUHNfN5WJqnDhH3wyUWtfxIMjB4jdAEj_mQd36Oa2jGfdoF0OcIZaEfyK4mHyylduFqm2mSJgzWv5nVRPFjd1shGdl7sDZpW082Ci1CTUaeBjeG",
        "width": 1200
      }
    ],
    "place_id": "ChIJsYzSzD3xeUgRotc-6izfaQ8",
    "plus_code": {
      "compound_code": "WGF9+6W Derby, UK",
      "global_code": "9C4WWGF9+6W"
    },
    "rating": 4.6,
    "reference": "ChIJsYzSzD3xeUgRotc-6izfaQ8",
    "scope": "GOOGLE",
    "types": [
      "museum",
      "tourist_attraction",
      "art_gallery",
      "point_of_interest",
      "establishment"
    ],
    "user_ratings_total": 1470,
    "vicinity": "The Strand, Derby"
  },
  {
    "business_status": "OPERATIONAL",
    "geometry": {
      "location": { "lat": 52.924791, "lng": -1.4777617 },
      "viewport": {
        "northeast": { "lat": 52.92619923029149, "lng": -1.476553719708498 },
        "southwest": { "lat": 52.9235012697085, "lng": -1.479251680291502 }
      }
    },
    "icon": "https://maps.gstatic.com/mapfiles/place_api/icons/v1/png_71/worship_general-71.png",
    "icon_background_color": "#7B9EB0",
    "icon_mask_base_uri": "https://maps.gstatic.com/mapfiles/place_api/icons/v2/worship_christian_pinlet",
    "name": "Derby Cathedral",
    "opening_hours": { "open_now": false },
    "photos": [
      {
        "height": 1365,
        "html_attributions": [
          "<a href=\"https://maps.google.com/maps/contrib/102688526015753600082\">Derby Cathedral</a>"
        ],
        "photo_reference": "AelY_CuKOXBg0Kwj_Ks-4vC0k5ljyJUuNQiDaITk404MSVtFXNkLxw73yRfCafp-uTprsZPKsWjh1He5L5PJTVt_SCY5hWV5ODd2gcsxNWYjyN5alVCeVuo3f6P5nyxZQLbx_xwfPsFmBQHNeqHlW6XaxxSz-YCl65S6lQoYWwauYSxWhDO5",
        "width": 2048
      }
    ],
    "place_id": "ChIJNyPWGj7xeUgR_BaH2YYlZUs",
    "plus_code": {
      "compound_code": "WGFC+WV Derby, UK",
      "global_code": "9C4WWGFC+WV"
    },
    "rating": 4.6,
    "reference": "ChIJNyPWGj7xeUgR_BaH2YYlZUs",
    "scope": "GOOGLE",
    "types": [
      "tourist_attraction",
      "church",
      "place_of_worship",
      "point_of_interest",
      "establishment"
    ],
    "user_ratings_total": 1403,
    "vicinity": "18-19 Iron Gate, Derby"
  },
  {
    "business_status": "OPERATIONAL",
    "geometry": {
      "location": { "lat": 52.9232326, "lng": -1.481172 },
      "viewport": {
        "northeast": { "lat": 52.9244797802915, "lng": -1.479925369708498 },
        "southwest": { "lat": 52.92178181970851, "lng": -1.482623330291502 }
      }
    },
    "icon": "https://maps.gstatic.com/mapfiles/place_api/icons/v1/png_71/worship_general-71.png",
    "icon_background_color": "#7B9EB0",
    "icon_mask_base_uri": "https://maps.gstatic.com/mapfiles/place_api/icons/v2/worship_christian_pinlet",
    "name": "Saint Werburgh's Church, Derby",
    "opening_hours": { "open_now": false },
    "photos": [
      {
        "height": 1080,
        "html_attributions": [
          "<a href=\"https://maps.google.com/maps/contrib/113022333088815471016\">Andy Bond</a>"
        ],
        "photo_reference": "AelY_Cv2APq_xlvP3_oxS_H2NuFir8K81j8UuzcjPZ-9sXo0iBpKGO4-_k9MuzYdCXvEB2UvcONie9Li15V7OTpTcpovfcXQlmAFT-ExCtmwkAvSo-4br0lAtG8q90WvIAaePgiq_aLxbPBpd9wY68VRNi7ihyF25HlCwqgv_NpJdg5Om0WN",
        "width": 1080
      }
    ],
    "place_id": "ChIJb_NSMDzxeUgR8mEpvXu2SRA",
    "plus_code": {
      "compound_code": "WGF9+7G Derby, UK",
      "global_code": "9C4WWGF9+7G"
    },
    "rating": 4.8,
    "reference": "ChIJb_NSMDzxeUgR8mEpvXu2SRA",
    "scope": "GOOGLE",
    "types": [
      "church",
      "tourist_attraction",
      "place_of_worship",
      "point_of_interest",
      "establishment"
    ],
    "user_ratings_total": 80,
    "vicinity": "St Werburgh's Church, Friar Gate, Derby"
  },
  {
    "business_status": "OPERATIONAL",
    "geometry": {
      "location": { "lat": 52.92232130000001, "lng": -1.4797597 },
      "viewport": {
        "northeast": { "lat": 52.92368718029149, "lng": -1.478385819708498 },
        "southwest": { "lat": 52.9209892197085, "lng": -1.481083780291502 }
      }
    },
    "icon": "https://maps.gstatic.com/mapfiles/place_api/icons/v1/png_71/generic_business-71.png",
    "icon_background_color": "#7B9EB0",
    "icon_mask_base_uri": "https://maps.gstatic.com/mapfiles/place_api/icons/v2/generic_pinlet",
    "name": "Unescapable Escape Room Derby",
    "opening_hours": { "open_now": true },
    "photos": [
      {
        "height": 800,
        "html_attributions": [
          "<a href=\"https://maps.google.com/maps/contrib/104288740999569114850\">Unescapable Escape Room Derby</a>"
        ],
        "photo_reference": "AelY_Cttbk9Fdie6NbT6_wvy4I3Fm1KJfGWksJdP3XNWVLOSoHLQPMAcTHw4ejP9XRI6IgYj5Zd5i5MWY_1NCYmiycW26_dN0z0-LqB-plORFhLLqx8jIbrhCBgXaAnZnKjtgcymiFeDty_AHHrnQB1RTwAVnFzGEOg6rG1O1joP2pPpqOAd",
        "width": 1280
      }
    ],
    "place_id": "ChIJifdEtz3xeUgRK3EQm87FAVo",
    "plus_code": {
      "compound_code": "WGCC+W3 Derby, UK",
      "global_code": "9C4WWGCC+W3"
    },
    "rating": 4.8,
    "reference": "ChIJifdEtz3xeUgRK3EQm87FAVo",
    "scope": "GOOGLE",
    "types": ["tourist_attraction", "point_of_interest", "establishment"],
    "user_ratings_total": 293,
    "vicinity": "25 Wardwick, Derby"
  },
  {
    "business_status": "OPERATIONAL",
    "geometry": {
      "location": { "lat": 52.9243134, "lng": -1.4859563 },
      "viewport": {
        "northeast": { "lat": 52.9258675802915, "lng": -1.484389019708498 },
        "southwest": { "lat": 52.9231696197085, "lng": -1.487086980291502 }
      }
    },
    "icon": "https://maps.gstatic.com/mapfiles/place_api/icons/v1/png_71/museum-71.png",
    "icon_background_color": "#13B5C7",
    "icon_mask_base_uri": "https://maps.gstatic.com/mapfiles/place_api/icons/v2/museum_pinlet",
    "name": "Pickford's House",
    "opening_hours": { "open_now": false },
    "photos": [
      {
        "height": 2368,
        "html_attributions": [
          "<a href=\"https://maps.google.com/maps/contrib/108348669376085648421\">Imsik Han</a>"
        ],
        "photo_reference": "AelY_Cuk2j5iwnSGrc4BgCHY99BRoA-aAB_djY-_Vku_3CHG_hRg5fSQ0IZfzpic39BjgA88r9x5JfiaRf3fphSMr18A0T1S5cCPZp-tF5ZXW8wTpQ8UYwMjyHJx_T28q7aRHRWIyUOahuW-EJ4IA1QGU2D4lt5xg0cwTVowf6imJVChzBMx",
        "width": 4208
      }
    ],
    "place_id": "ChIJcwI0ZDnxeUgRBcD8PXLBavc",
    "plus_code": {
      "compound_code": "WGF7+PJ Derby, UK",
      "global_code": "9C4WWGF7+PJ"
    },
    "rating": 4.6,
    "reference": "ChIJcwI0ZDnxeUgRBcD8PXLBavc",
    "scope": "GOOGLE",
    "types": [
      "museum",
      "tourist_attraction",
      "point_of_interest",
      "establishment"
    ],
    "user_ratings_total": 310,
    "vicinity": "41 Friar Gate, Derby"
  },
  {
    "business_status": "OPERATIONAL",
    "geometry": {
      "location": { "lat": 52.924691, "lng": -1.4872889 },
      "viewport": {
        "northeast": { "lat": 52.9259706802915, "lng": -1.485983719708498 },
        "southwest": { "lat": 52.9232727197085, "lng": -1.488681680291502 }
      }
    },
    "icon": "https://maps.gstatic.com/mapfiles/place_api/icons/v1/png_71/civic_building-71.png",
    "icon_background_color": "#7B9EB0",
    "icon_mask_base_uri": "https://maps.gstatic.com/mapfiles/place_api/icons/v2/civic-bldg_pinlet",
    "name": "Derby Ghost Walk and Jail",
    "opening_hours": { "open_now": false },
    "place_id": "ChIJbaiKmznxeUgROn1M7TaByFk",
    "plus_code": {
      "compound_code": "WGF7+V3 Derby, UK",
      "global_code": "9C4WWGF7+V3"
    },
    "reference": "ChIJbaiKmznxeUgROn1M7TaByFk",
    "scope": "GOOGLE",
    "types": [
      "tourist_attraction",
      "museum",
      "point_of_interest",
      "establishment"
    ],
    "vicinity": "50-51 Friar Gate, Derby"
  },
  {
    "business_status": "OPERATIONAL",
    "geometry": {
      "location": { "lat": 52.9228037, "lng": -1.4803476 },
      "viewport": {
        "northeast": { "lat": 52.92426373029149, "lng": -1.479125069708498 },
        "southwest": { "lat": 52.92156576970849, "lng": -1.481823030291502 }
      }
    },
    "icon": "https://maps.gstatic.com/mapfiles/place_api/icons/v1/png_71/generic_business-71.png",
    "icon_background_color": "#13B5C7",
    "icon_mask_base_uri": "https://maps.gstatic.com/mapfiles/place_api/icons/v2/generic_pinlet",
    "name": "Michael Thomas Bass Statue",
    "opening_hours": { "open_now": true },
    "photos": [
      {
        "height": 6000,
        "html_attributions": [
          "<a href=\"https://maps.google.com/maps/contrib/111587837835121432464\">David Striker</a>"
        ],
        "photo_reference": "AelY_CveNii-40hwRNniy5rT429Yqk0JWpgvjmcH1lRqy1YIULvqi0DqOhRg-9Hsj7l0Ckuf33HVq1oKJnzOoDg0p4nAqStFfy6NDRqQKoV1k-Crf88kaRevRM9hPycc6FHFM3SUA06ojMTfO95NvVevpSc8-b7gRgaenLOEEwTTRLwitdnk",
        "width": 4000
      }
    ],
    "place_id": "ChIJzZx0yz3xeUgRzIc8E5gdTBk",
    "plus_code": {
      "compound_code": "WGF9+4V Derby, UK",
      "global_code": "9C4WWGF9+4V"
    },
    "rating": 5,
    "reference": "ChIJzZx0yz3xeUgRzIc8E5gdTBk",
    "scope": "GOOGLE",
    "types": ["tourist_attraction", "point_of_interest", "establishment"],
    "user_ratings_total": 2,
    "vicinity": "13 Cheapside, Derby"
  },
  {
    "business_status": "OPERATIONAL",
    "geometry": {
      "location": { "lat": 52.9241547, "lng": -1.4862519 },
      "viewport": {
        "northeast": { "lat": 52.92553098029149, "lng": -1.484880119708498 },
        "southwest": { "lat": 52.92283301970849, "lng": -1.487578080291502 }
      }
    },
    "icon": "https://maps.gstatic.com/mapfiles/place_api/icons/v1/png_71/generic_business-71.png",
    "icon_background_color": "#13B5C7",
    "icon_mask_base_uri": "https://maps.gstatic.com/mapfiles/place_api/icons/v2/generic_pinlet",
    "name": "Reform Bill Heads (Friar Gate Heads)",
    "photos": [
      {
        "height": 3024,
        "html_attributions": [
          "<a href=\"https://maps.google.com/maps/contrib/115964837980026205956\">S AM</a>"
        ],
        "photo_reference": "AelY_CtgEui5rJMZANslxV9R_5xZnIrIOIDZQsyyzMDizz2-ZEUvjN5ZQNvLX3BRqDMgDkEB1v7HhGBwzx1iT3ah1FsM2y5Cxsa4iqRVeTSQgqxRr_RaAhhihaxPiVWSrikvr-fJs-Thz5J43Imzx7oUmhH5l1s7JecTOjBlWDDm4SjS69FR",
        "width": 4032
      }
    ],
    "place_id": "ChIJ3U_2azzxeUgR8cNkjg7XiLo",
    "plus_code": {
      "compound_code": "WGF7+MF Derby, UK",
      "global_code": "9C4WWGF7+MF"
    },
    "rating": 5,
    "reference": "ChIJ3U_2azzxeUgR8cNkjg7XiLo",
    "scope": "GOOGLE",
    "types": ["tourist_attraction", "point_of_interest", "establishment"],
    "user_ratings_total": 2,
    "vicinity": "93a Friar Gate, Derby"
  },
  {
    "business_status": "OPERATIONAL",
    "geometry": {
      "location": { "lat": 52.9242485, "lng": -1.4865118 },
      "viewport": {
        "northeast": { "lat": 52.9256129802915, "lng": -1.485149919708498 },
        "southwest": { "lat": 52.9229150197085, "lng": -1.487847880291502 }
      }
    },
    "icon": "https://maps.gstatic.com/mapfiles/place_api/icons/v1/png_71/generic_business-71.png",
    "icon_background_color": "#13B5C7",
    "icon_mask_base_uri": "https://maps.gstatic.com/mapfiles/place_api/icons/v2/generic_pinlet",
    "name": "'Signing Hands' Cast Iron Slabs",
    "photos": [
      {
        "height": 731,
        "html_attributions": [
          "<a href=\"https://maps.google.com/maps/contrib/109655194630554081738\">Michelle Catherine Doyle</a>"
        ],
        "photo_reference": "AelY_CudEtg10bsJ5pKOlY57-Y4pKCMwlYp4SsMNDNMk7KXSSVRAtmmDvVtkCFE19gIWOvgddxjbnDO7TD81Uq9DrPe-ak79AnynjZtoS3sENAlHe851yhikR34PJEwd-7kdBVOxloyJbk-M-yDSnOpb4fLvjpMUsKXCXOGcX1Iuqs-Ra_c4",
        "width": 759
      }
    ],
    "place_id": "ChIJ7QPnU-XxeUgRWTquHsiWjoI",
    "plus_code": {
      "compound_code": "WGF7+M9 Derby, UK",
      "global_code": "9C4WWGF7+M9"
    },
    "rating": 5,
    "reference": "ChIJ7QPnU-XxeUgRWTquHsiWjoI",
    "scope": "GOOGLE",
    "types": ["tourist_attraction", "point_of_interest", "establishment"],
    "user_ratings_total": 2,
    "vicinity": "44 Friar Gate, Derby"
  },
  {
    "business_status": "OPERATIONAL",
    "geometry": {
      "location": { "lat": 52.92438509999999, "lng": -1.4868765 },
      "viewport": {
        "northeast": { "lat": 52.9257290802915, "lng": -1.485531719708498 },
        "southwest": { "lat": 52.9230311197085, "lng": -1.488229680291502 }
      }
    },
    "icon": "https://maps.gstatic.com/mapfiles/place_api/icons/v1/png_71/generic_business-71.png",
    "icon_background_color": "#13B5C7",
    "icon_mask_base_uri": "https://maps.gstatic.com/mapfiles/place_api/icons/v2/generic_pinlet",
    "name": "1893 Electrical transformer kiosk",
    "photos": [
      {
        "height": 4000,
        "html_attributions": [
          "<a href=\"https://maps.google.com/maps/contrib/114688298645096489281\">Michael Case</a>"
        ],
        "photo_reference": "AelY_CvJfz-3Us3stl-Y3IK3S8KicIZoQSfXqwt3eic4xXm3xpBIAaupIRe2rvCTIKXC6XapR-C8RoiDtMHpqp97Mln_3jC8vc3ApzzgNyqQa7mNwwpAepaoxB_T51C33yKuaCX6oy2q2ZbIcF4t_dYk2wYvbYwMQ-GqwFuXtKebF0HsVpYJ",
        "width": 3000
      }
    ],
    "place_id": "ChIJiynOdMTxeUgRzBFCDhKI-aI",
    "plus_code": {
      "compound_code": "WGF7+Q6 Derby, UK",
      "global_code": "9C4WWGF7+Q6"
    },
    "rating": 5,
    "reference": "ChIJiynOdMTxeUgRzBFCDhKI-aI",
    "scope": "GOOGLE",
    "types": ["tourist_attraction", "point_of_interest", "establishment"],
    "user_ratings_total": 3,
    "vicinity": "19A Friar Gate Court, Friar Gate, Derby"
  }
]
