[{"business_status": "OPERATIONAL", "geometry": {"location": {"lat": 51.85032959999999, "lng": -2.2576286}, "viewport": {"northeast": {"lat": 51.85129652989272, "lng": -2.256356370107278}, "southwest": {"lat": 51.84859687010728, "lng": -2.259056029892723}}}, "icon": "https://maps.gstatic.com/mapfiles/place_api/icons/v1/png_71/bar-71.png", "icon_background_color": "#FF9E67", "icon_mask_base_uri": "https://maps.gstatic.com/mapfiles/place_api/icons/v2/bar_pinlet", "name": "Avenue", "opening_hours": {"open_now": true}, "photos": [{"height": 4248, "html_attributions": ["<a href=\"https://maps.google.com/maps/contrib/117779819688934919286\">A Google User</a>"], "photo_reference": "AUc7tXVoWkTK_EUYd8yuhzoXtugDPPFjtBvoXU1oBMfHcI8PaLsogP2n9LK21RBbLWAUkuW4DqPdmWT0PB1WnS2WqkY-BYR42I67OBHX06-m8OM8gXd7B0SnbbwLA2Kl4MRi4HtRwwBfy1fmQZ-TstaLD9gHMP8AQgk3fXD9B1zr7Hqe11IU", "width": 5664}], "place_id": "ChIJzxtMahUGcUgRfc6besk8DQ8", "plus_code": {"compound_code": "VP2R+4W Gloucester, United Kingdom", "global_code": "9C3VVP2R+4W"}, "price_level": 1, "rating": 4.4, "reference": "ChIJzxtMahUGcUgRfc6besk8DQ8", "scope": "GOOGLE", "types": ["bar", "point_of_interest", "establishment"], "user_ratings_total": 555, "vicinity": "227 Bristol Rd, Gloucester"}, {"business_status": "OPERATIONAL", "geometry": {"location": {"lat": 51.865793, "lng": -2.2475489}, "viewport": {"northeast": {"lat": 51.86714247989272, "lng": -2.246179620107278}, "southwest": {"lat": 51.86444282010728, "lng": -2.248879279892722}}}, "icon": "https://maps.gstatic.com/mapfiles/place_api/icons/v1/png_71/bar-71.png", "icon_background_color": "#FF9E67", "icon_mask_base_uri": "https://maps.gstatic.com/mapfiles/place_api/icons/v2/bar_pinlet", "name": "The Drunken Duck", "opening_hours": {"open_now": true}, "photos": [{"height": 2304, "html_attributions": ["<a href=\"https://maps.google.com/maps/contrib/113988454008215167670\">Michel van Kooten</a>"], "photo_reference": "AUc7tXWSex_KUtIvi6HNr8hy0EWGyNTf37J62KQcCwJFFr0-sWIHcOKi5U60MR5vG6_22TbEqjFVxZWdshWCZbUFuXflojg3H4ffqK7cu6rDmwF8a-L1DQOzvDF5ZM3f0awhP7pGSVRpe1-01Xmvfq_jxtLmGMdLmkMRIPkQIplummJbmYnw", "width": 4096}], "place_id": "ChIJmQl0LXsGcUgRCP3ZoM6S9jo", "plus_code": {"compound_code": "VQ82+8X Gloucester, United Kingdom", "global_code": "9C3VVQ82+8X"}, "price_level": 1, "rating": 4.8, "reference": "ChIJmQl0LXsGcUgRCP3ZoM6S9jo", "scope": "GOOGLE", "types": ["bar", "point_of_interest", "establishment"], "user_ratings_total": 148, "vicinity": "1 Bull Ln, Gloucester"}, {"business_status": "OPERATIONAL", "geometry": {"location": {"lat": 51.86110189999999, "lng": -2.2536929}, "viewport": {"northeast": {"lat": 51.86264332989272, "lng": -2.252190220107277}, "southwest": {"lat": 51.85994367010728, "lng": -2.254889879892722}}}, "icon": "https://maps.gstatic.com/mapfiles/place_api/icons/v1/png_71/bar-71.png", "icon_background_color": "#FF9E67", "icon_mask_base_uri": "https://maps.gstatic.com/mapfiles/place_api/icons/v2/bar_pinlet", "name": "Brewhouse & Kitchen - Gloucester Quays", "opening_hours": {"open_now": true}, "photos": [{"height": 4032, "html_attributions": ["<a href=\"https://maps.google.com/maps/contrib/101359635271158215906\">Nigel Stewart</a>"], "photo_reference": "AUc7tXVla0OtbnEq5-pTqLc0MDU4X0m2vP0tIx30u2qcs0GO9fJVBpNBFFuRV3jp33yeY37fItsAz2FSQdROuV7TXy5pt9Hxs63OR849w4mQAAvWHSEvORDomP3HYIMMfOlq6IK_1U7uxJ18-Hf0TtHUmWXAHn5Q-1GjzNXHUzR2KhNir9d_", "width": 3024}], "place_id": "ChIJ6f_RwW4GcUgREvQKTXwp02Y", "plus_code": {"compound_code": "VP6W+CG Gloucester, United Kingdom", "global_code": "9C3VVP6W+CG"}, "price_level": 2, "rating": 4.3, "reference": "ChIJ6f_RwW4GcUgREvQKTXwp02Y", "scope": "GOOGLE", "types": ["bar", "restaurant", "food", "point_of_interest", "establishment"], "user_ratings_total": 1124, "vicinity": "Unit R1, Gloucester Quays Designer Outlet, St Ann Way, Gloucester"}, {"business_status": "OPERATIONAL", "geometry": {"location": {"lat": 51.8642473, "lng": -2.2468941}, "viewport": {"northeast": {"lat": 51.86571757989272, "lng": -2.245355570107278}, "southwest": {"lat": 51.86301792010727, "lng": -2.248055229892723}}}, "icon": "https://maps.gstatic.com/mapfiles/place_api/icons/v1/png_71/bar-71.png", "icon_background_color": "#FF9E67", "icon_mask_base_uri": "https://maps.gstatic.com/mapfiles/place_api/icons/v2/bar_pinlet", "name": "Caf\u00e9 Ren\u00e9", "opening_hours": {"open_now": true}, "photos": [{"height": 3000, "html_attributions": ["<a href=\"https://maps.google.com/maps/contrib/105940864234498025526\">A Google User</a>"], "photo_reference": "AUc7tXWrW4HIwdZPmvDNy4MtP71nfinVqCAEKyZ79dFMeqG2lZBdKScG53EpEg33uGgQHxLMxXAB9oUNg5Oppe92ZBZnRh9-Bv2upV0oHRaiSl5nbTcV-WHwmbgxw9hI8LXJ4va3Qb8EJfawUl9M4-ScF6B5tk6Bjl_CzJfmuGdhaLlmcSJ5", "width": 4000}], "place_id": "ChIJ16YzxnoGcUgRRLgCvPvumJ0", "plus_code": {"compound_code": "VQ73+M6 Gloucester, United Kingdom", "global_code": "9C3VVQ73+M6"}, "price_level": 2, "rating": 4.5, "reference": "ChIJ16YzxnoGcUgRRLgCvPvumJ0", "scope": "GOOGLE", "types": ["bar", "restaurant", "food", "point_of_interest", "establishment"], "user_ratings_total": 1407, "vicinity": "31 Southgate St, Gloucester"}, {"business_status": "OPERATIONAL", "geometry": {"location": {"lat": 51.866274, "lng": -2.247718}, "viewport": {"northeast": {"lat": 51.86764312989272, "lng": -2.246347070107278}, "southwest": {"lat": 51.86494347010728, "lng": -2.249046729892722}}}, "icon": "https://maps.gstatic.com/mapfiles/place_api/icons/v1/png_71/bar-71.png", "icon_background_color": "#FF9E67", "icon_mask_base_uri": "https://maps.gstatic.com/mapfiles/place_api/icons/v2/bar_pinlet", "name": "The Fountain Inn", "opening_hours": {"open_now": true}, "photos": [{"height": 6936, "html_attributions": ["<a href=\"https://maps.google.com/maps/contrib/112629933894918030988\">David Hill</a>"], "photo_reference": "AUc7tXUnn8FUVgYVbyp7aAbjjpiXwXvfGGZ3nzWBwYT20-UgEl4FwOsQEEh-MHSXyxfeVt6Tewya_S1K2iY1MYVq6miG6D_v9uZ1Fa9VRXcmhaungzxNqL1OMfbQYtWvP-CmplRUdyvfSg0pGqNY0eTu_tCk7Y2q-i0hVUIVHH4Kk4hfhb02", "width": 9248}], "place_id": "ChIJW_rHNHsGcUgR_uylJbGUReM", "plus_code": {"compound_code": "VQ82+GW Gloucester, United Kingdom", "global_code": "9C3VVQ82+GW"}, "price_level": 2, "rating": 4.6, "reference": "ChIJW_rHNHsGcUgR_uylJbGUReM", "scope": "GOOGLE", "types": ["park", "bar", "food", "point_of_interest", "establishment"], "user_ratings_total": 1351, "vicinity": "53 Westgate St, Gloucester"}, {"business_status": "OPERATIONAL", "geometry": {"location": {"lat": 51.8590122, "lng": -2.2507966}, "viewport": {"northeast": {"lat": 51.86035457989272, "lng": -2.249423170107278}, "southwest": {"lat": 51.85765492010728, "lng": -2.252122829892722}}}, "icon": "https://maps.gstatic.com/mapfiles/place_api/icons/v1/png_71/bar-71.png", "icon_background_color": "#FF9E67", "icon_mask_base_uri": "https://maps.gstatic.com/mapfiles/place_api/icons/v2/bar_pinlet", "name": "Baker Street", "opening_hours": {"open_now": true}, "photos": [{"height": 3024, "html_attributions": ["<a href=\"https://maps.google.com/maps/contrib/114835831678817881450\">A Google User</a>"], "photo_reference": "AUc7tXXxC0_B0grBgldSNDnqcuTvz14TG502trrtLc7wCdso-uk4K5y5MRk9wuCNqJRrwc0bgH2utO28ZlGZVH4rnWRLRW01CEpPhMwFrDK0DgmxDZuFAod_wzZwWO3UUw3QEIM2cQYU61U_XbXjKIvS71kviSL5zUtoyCutQPDZUtvNkqD4", "width": 4032}], "place_id": "ChIJ1zvg8G4GcUgRX2EhP5DKH58", "plus_code": {"compound_code": "VP5X+JM Gloucester, United Kingdom", "global_code": "9C3VVP5X+JM"}, "price_level": 2, "rating": 4.2, "reference": "ChIJ1zvg8G4GcUgRX2EhP5DKH58", "scope": "GOOGLE", "types": ["bar", "point_of_interest", "establishment"], "user_ratings_total": 402, "vicinity": "230 Southgate St, Gloucester"}, {"business_status": "OPERATIONAL", "geometry": {"location": {"lat": 51.8690377, "lng": -2.2470153}, "viewport": {"northeast": {"lat": 51.87039957989272, "lng": -2.245720570107277}, "southwest": {"lat": 51.86769992010728, "lng": -2.248420229892722}}}, "icon": "https://maps.gstatic.com/mapfiles/place_api/icons/v1/png_71/bar-71.png", "icon_background_color": "#FF9E67", "icon_mask_base_uri": "https://maps.gstatic.com/mapfiles/place_api/icons/v2/bar_pinlet", "name": "The Pelican Inn (Wye Valley)", "opening_hours": {"open_now": true}, "photos": [{"height": 3456, "html_attributions": ["<a href=\"https://maps.google.com/maps/contrib/116793925970402511756\">Trusted Photography</a>"], "photo_reference": "AUc7tXU4CB48o65KAs4uIP9CUieA8iv0zdsXh9wUUfKcLBsUcwVF11m0frs9AsRThc_frcv6WsJtH-sOg3Dj31gsvXVauMXVvTvjWrmDOSRL12YckcCCUVHlF-Q9j34Kg4aXPqC5pRRAuux0nPMIaEqNZffyegx2uI8opcIwFcZNatFeIn0W", "width": 5184}], "place_id": "ChIJ5UvYuHwGcUgRYRi4kTCowWk", "plus_code": {"compound_code": "VQ93+J5 Gloucester, United Kingdom", "global_code": "9C3VVQ93+J5"}, "price_level": 1, "rating": 4.7, "reference": "ChIJ5UvYuHwGcUgRYRi4kTCowWk", "scope": "GOOGLE", "types": ["bar", "point_of_interest", "establishment"], "user_ratings_total": 622, "vicinity": "4 St Mary's St, Gloucester"}, {"business_status": "OPERATIONAL", "geometry": {"location": {"lat": 51.8662106, "lng": -2.2432811}, "viewport": {"northeast": {"lat": 51.86757052989272, "lng": -2.241917220107278}, "southwest": {"lat": 51.86487087010727, "lng": -2.244616879892722}}}, "icon": "https://maps.gstatic.com/mapfiles/place_api/icons/v1/png_71/bar-71.png", "icon_background_color": "#FF9E67", "icon_mask_base_uri": "https://maps.gstatic.com/mapfiles/place_api/icons/v2/bar_pinlet", "name": "The Turks Head Inn", "opening_hours": {"open_now": true}, "photos": [{"height": 3456, "html_attributions": ["<a href=\"https://maps.google.com/maps/contrib/114964697664058972250\">Mike Dickins</a>"], "photo_reference": "AUc7tXUIDjuNw0P3j4pP_4gAR52OpUerMPlvCDXH6fjMVnTfNxDbqkQOFpoljMnjJqgCi4CTpLSL8ZPnOiZCXw3ZnjdnmvWBedNgH2rE9k-jp5TNKq5sQue2GjC9KtE3UeSXPaEB8P_RlbKdeB8CR8ZJAHHfD8XnpniYvX56n8JhV5S9KwuG", "width": 4608}], "place_id": "ChIJj9fRSGUGcUgR2Six-HorSPw", "plus_code": {"compound_code": "VQ84+FM Gloucester, United Kingdom", "global_code": "9C3VVQ84+FM"}, "price_level": 1, "rating": 4.6, "reference": "ChIJj9fRSGUGcUgR2Six-HorSPw", "scope": "GOOGLE", "types": ["bar", "point_of_interest", "establishment"], "user_ratings_total": 325, "vicinity": "7 -9 St Aldate St, Gloucester"}, {"business_status": "OPERATIONAL", "geometry": {"location": {"lat": 51.8607065, "lng": -2.2371485}, "viewport": {"northeast": {"lat": 51.86208052989272, "lng": -2.235751520107278}, "southwest": {"lat": 51.85938087010728, "lng": -2.238451179892722}}}, "icon": "https://maps.gstatic.com/mapfiles/place_api/icons/v1/png_71/bar-71.png", "icon_background_color": "#FF9E67", "icon_mask_base_uri": "https://maps.gstatic.com/mapfiles/place_api/icons/v2/bar_pinlet", "name": "One Eyed Jacks", "opening_hours": {"open_now": true}, "photos": [{"height": 4000, "html_attributions": ["<a href=\"https://maps.google.com/maps/contrib/102071002385980502367\">Taggart Neumanas</a>"], "photo_reference": "AUc7tXU-BsrBdFfl0AW8kRCD_ZUadRvz4cuZRLggADiS9SF4SyD3U_n5W2CnqDZihG6kWQRoMozdOMGqhkCKogZGe-pSnXd5X76Kb733xAU7MpdjSqgzHLDX6Hg6uMHWw1eKubBbSmJv5ukaaQsHa6Avg6VkLwlsK28GpoGSuhXv-c9rag-W", "width": 2252}], "place_id": "ChIJY8-gtncGcUgR5oJDUTvgoNE", "plus_code": {"compound_code": "VQ67+74 Gloucester, United Kingdom", "global_code": "9C3VVQ67+74"}, "price_level": 1, "rating": 4.3, "reference": "ChIJY8-gtncGcUgR5oJDUTvgoNE", "scope": "GOOGLE", "types": ["bar", "point_of_interest", "establishment"], "user_ratings_total": 261, "vicinity": "136 Barton St, Gloucester"}, {"business_status": "OPERATIONAL", "geometry": {"location": {"lat": 51.8682464, "lng": -2.2340495}, "viewport": {"northeast": {"lat": 51.86964727989272, "lng": -2.232779770107277}, "southwest": {"lat": 51.86694762010728, "lng": -2.235479429892722}}}, "icon": "https://maps.gstatic.com/mapfiles/place_api/icons/v1/png_71/bar-71.png", "icon_background_color": "#FF9E67", "icon_mask_base_uri": "https://maps.gstatic.com/mapfiles/place_api/icons/v2/bar_pinlet", "name": "England's Glory", "opening_hours": {"open_now": true}, "photos": [{"height": 2847, "html_attributions": ["<a href=\"https://maps.google.com/maps/contrib/115580490465856449729\">Stuart Edmonstone</a>"], "photo_reference": "AUc7tXXkDKI-UugEMr4o4cbWIUn2QIe-WyNNYn_YVOZnWlGWnwM2W-nS4I8MNpo8BaR3CCtoi_n2Dp8Dw0j3DDEmsgASxNmLM8wHGeJ4zp7e0EKCwt2xLuY05JDT2-0dQzuPL2gY3026DbBs-GICFVDR3kkZle3gr7P3c1NfZ2eQixHAKUgg", "width": 4271}], "place_id": "ChIJQZjo4NUFcUgRclls0ZB2hyw", "plus_code": {"compound_code": "VQ98+79 Gloucester, United Kingdom", "global_code": "9C3VVQ98+79"}, "price_level": 1, "rating": 4.2, "reference": "ChIJQZjo4NUFcUgRclls0ZB2hyw", "scope": "GOOGLE", "types": ["bar", "point_of_interest", "establishment"], "user_ratings_total": 240, "vicinity": "66-68 London Rd, Gloucester"}, {"business_status": "OPERATIONAL", "geometry": {"location": {"lat": 51.8649677, "lng": -2.2469498}, "viewport": {"northeast": {"lat": 51.86639412989273, "lng": -2.245667720107277}, "southwest": {"lat": 51.86369447010728, "lng": -2.248367379892722}}}, "icon": "https://maps.gstatic.com/mapfiles/place_api/icons/v1/png_71/bar-71.png", "icon_background_color": "#FF9E67", "icon_mask_base_uri": "https://maps.gstatic.com/mapfiles/place_api/icons/v2/bar_pinlet", "name": "Cross Keys Inn", "opening_hours": {"open_now": true}, "photos": [{"height": 2189, "html_attributions": ["<a href=\"https://maps.google.com/maps/contrib/101530789853756232359\">Roger Smith</a>"], "photo_reference": "AUc7tXWM4Xm5ZA1gXbYTJoozrEplBTX3Mm14MLFnB3KeRcffPjBAnnQgE-EuSYzze5Ak4-wQekIusQW0tZebqk_oAvrYup5JWhOidKcck11T-1JTaqsnHMPkr92n4jXjmmEOySANm2sx0ODrvFzTzwQ-qATySY_8v2CZtmbhnBqSH9a9vEXs", "width": 2936}], "place_id": "ChIJK1td13oGcUgRKAy7cUhssKQ", "plus_code": {"compound_code": "VQ73+X6 Gloucester, United Kingdom", "global_code": "9C3VVQ73+X6"}, "price_level": 1, "rating": 4.3, "reference": "ChIJK1td13oGcUgRKAy7cUhssKQ", "scope": "GOOGLE", "types": ["bar", "point_of_interest", "establishment"], "user_ratings_total": 264, "vicinity": "Cross Keys Ln, Gloucester"}, {"business_status": "OPERATIONAL", "geometry": {"location": {"lat": 51.8666875, "lng": -2.2427376}, "viewport": {"northeast": {"lat": 51.86807297989272, "lng": -2.241404720107278}, "southwest": {"lat": 51.86537332010727, "lng": -2.244104379892722}}}, "icon": "https://maps.gstatic.com/mapfiles/place_api/icons/v1/png_71/bar-71.png", "icon_background_color": "#FF9E67", "icon_mask_base_uri": "https://maps.gstatic.com/mapfiles/place_api/icons/v2/bar_pinlet", "name": "The Northend Vaults", "opening_hours": {"open_now": true}, "photos": [{"height": 3024, "html_attributions": ["<a href=\"https://maps.google.com/maps/contrib/105439503431877490241\">Liam Russell</a>"], "photo_reference": "AUc7tXWrkPA5ZuELZz7rJFvWiLjFKe0uKJK-mmCyCR699upHz0nLxiNIbA_qD_MOTNWlu_oJHwPvRUE_vJf6_1xPye1DtDf0w6nlp55NmlmjuVLVbCNpUrh7r1TGLPGHos1sf2_gvp62KCoR1mKLkNgbWsGXtbsyh08CV_nrAd7Je1oQ5ZCw", "width": 4032}], "place_id": "ChIJHflO6HsGcUgRyTm9HRXt56s", "plus_code": {"compound_code": "VQ84+MW Gloucester, United Kingdom", "global_code": "9C3VVQ84+MW"}, "price_level": 1, "rating": 4.4, "reference": "ChIJHflO6HsGcUgRyTm9HRXt56s", "scope": "GOOGLE", "types": ["bar", "point_of_interest", "establishment"], "user_ratings_total": 205, "vicinity": "86 Northgate St, Gloucester"}, {"business_status": "OPERATIONAL", "geometry": {"location": {"lat": 51.8701248, "lng": -2.245978}, "viewport": {"northeast": {"lat": 51.87144662989272, "lng": -2.244638470107278}, "southwest": {"lat": 51.86874697010728, "lng": -2.247338129892722}}}, "icon": "https://maps.gstatic.com/mapfiles/place_api/icons/v1/png_71/bar-71.png", "icon_background_color": "#FF9E67", "icon_mask_base_uri": "https://maps.gstatic.com/mapfiles/place_api/icons/v2/bar_pinlet", "name": "Deans Walk Inn", "opening_hours": {"open_now": true}, "photos": [{"height": 4000, "html_attributions": ["<a href=\"https://maps.google.com/maps/contrib/115760664342568565424\">Stefano Maria Piras</a>"], "photo_reference": "AUc7tXXz2EJqGngdJGw6MzHjQQXkJ4qM9y6b8nTBC0w1umNH-zeZF93ZsAT6vH7B_aONTE9r5ske5Q2XHJ6g_3kOLGJr1E2Ap10ERKv_vTmowxGnnp6bAm6OehieH96JQiouNjJf_4R9nxaEZ6hENXQt96AkVb4ZObjWHu2QqlziGKGmoKAB", "width": 1800}], "place_id": "ChIJtXP5A30GcUgR4ZgMHOIWZ-E", "plus_code": {"compound_code": "VQC3+2J Gloucester, United Kingdom", "global_code": "9C3VVQC3+2J"}, "price_level": 2, "rating": 4.5, "reference": "ChIJtXP5A30GcUgR4ZgMHOIWZ-E", "scope": "GOOGLE", "types": ["bar", "point_of_interest", "establishment"], "user_ratings_total": 202, "vicinity": "86 St Catherine St, Gloucester"}, {"business_status": "OPERATIONAL", "geometry": {"location": {"lat": 51.8661266, "lng": -2.2473959}, "viewport": {"northeast": {"lat": 51.86749397989272, "lng": -2.246062920107278}, "southwest": {"lat": 51.86479432010728, "lng": -2.248762579892722}}}, "icon": "https://maps.gstatic.com/mapfiles/place_api/icons/v1/png_71/bar-71.png", "icon_background_color": "#FF9E67", "icon_mask_base_uri": "https://maps.gstatic.com/mapfiles/place_api/icons/v2/bar_pinlet", "name": "The Sword Inn Gloucester", "opening_hours": {"open_now": true}, "photos": [{"height": 3265, "html_attributions": ["<a href=\"https://maps.google.com/maps/contrib/111587837835121432464\">David Striker</a>"], "photo_reference": "AUc7tXWLkDQ3F-BaQuydzP8cJfBA8QKa22-mdXIgNs1_uZQ477YFY-ybluSxbfRL8n-BQTF7a1syq0L9O4Fps0UvBNxwFObDvGaoafk1AzF3y01QbU1AvvksPu0Tn8QwlulXt5sPAxeCOeXZ00zKEmly7KArYXKWQfScRppn3Lg0zhoKcjsv", "width": 4898}], "place_id": "ChIJM9fIgE8HcUgRfdIIi-zWshs", "plus_code": {"compound_code": "VQ83+C2 Gloucester, United Kingdom", "global_code": "9C3VVQ83+C2"}, "rating": 4.2, "reference": "ChIJM9fIgE8HcUgRfdIIi-zWshs", "scope": "GOOGLE", "types": ["bar", "point_of_interest", "establishment"], "user_ratings_total": 261, "vicinity": "43-45 Westgate St, Gloucester"}, {"business_status": "OPERATIONAL", "geometry": {"location": {"lat": 51.8636225, "lng": -2.251455}, "viewport": {"northeast": {"lat": 51.86493042989272, "lng": -2.249974220107278}, "southwest": {"lat": 51.86223077010728, "lng": -2.252673879892722}}}, "icon": "https://maps.gstatic.com/mapfiles/place_api/icons/v1/png_71/bar-71.png", "icon_background_color": "#FF9E67", "icon_mask_base_uri": "https://maps.gstatic.com/mapfiles/place_api/icons/v2/bar_pinlet", "name": "Dr Foster - Pub & Restaurant", "opening_hours": {"open_now": true}, "photos": [{"height": 1080, "html_attributions": ["<a href=\"https://maps.google.com/maps/contrib/109786449496934746756\">Caroline Farren</a>"], "photo_reference": "AUc7tXV26TGcsH1-ZOtk2xSeTDTFp8J0iXSOifiwHzIrJHRUMFFV4q3LHZm16cPZiSiqg4LT_fxlPi51pCr_2X5M2qsuErGc_CR8Wp1fFd74IQ1nzychqkb0ymKaQj33ErI9quca2QyxpaJ0mTCRtMHfLDWQwGkTcEegD_ntPQIq-elxu71z", "width": 1920}], "place_id": "ChIJkbqfQQAHcUgRJEMFQrx61EY", "plus_code": {"compound_code": "VP7X+CC Gloucester, United Kingdom", "global_code": "9C3VVP7X+CC"}, "rating": 4, "reference": "ChIJkbqfQQAHcUgRJEMFQrx61EY", "scope": "GOOGLE", "types": ["bar", "restaurant", "food", "point_of_interest", "establishment"], "user_ratings_total": 470, "vicinity": "Kimberley Warehouse, The Docks, Gloucester"}, {"business_status": "OPERATIONAL", "geometry": {"location": {"lat": 51.8596111, "lng": -2.2585677}, "viewport": {"northeast": {"lat": 51.86092437989272, "lng": -2.256850270107277}, "southwest": {"lat": 51.85822472010727, "lng": -2.259549929892722}}}, "icon": "https://maps.gstatic.com/mapfiles/place_api/icons/v1/png_71/bar-71.png", "icon_background_color": "#FF9E67", "icon_mask_base_uri": "https://maps.gstatic.com/mapfiles/place_api/icons/v2/bar_pinlet", "name": "High Orchard", "opening_hours": {"open_now": true}, "photos": [{"height": 3000, "html_attributions": ["<a href=\"https://maps.google.com/maps/contrib/113206846333083003841\">Vinh Banh</a>"], "photo_reference": "AUc7tXWG_Yh9OibC5i6idqkUze75JaWtecMBDcOuObJWG5HpUhsA7KHf8PmSZxg1Q0d3KpHRWhGBTiwifUFtPp0_Bl7eH7ggfXFCPenggn-yZtpl36URU_8P4--GcKPg0PRF_goIMZCV0ZETHZLyEsaUi59q86EapvhHMq8QM6IW6yNv8HL7", "width": 4000}], "place_id": "ChIJ80mQzGkGcUgRiKyNi43pAPU", "plus_code": {"compound_code": "VP5R+RH Gloucester, United Kingdom", "global_code": "9C3VVP5R+RH"}, "price_level": 1, "rating": 3.8, "reference": "ChIJ80mQzGkGcUgRiKyNi43pAPU", "scope": "GOOGLE", "types": ["bar", "point_of_interest", "establishment"], "user_ratings_total": 1602, "vicinity": "2 St Ann Way, Gloucester"}, {"business_status": "OPERATIONAL", "geometry": {"location": {"lat": 51.8666947, "lng": -2.243841}, "viewport": {"northeast": {"lat": 51.86803557989271, "lng": -2.242492520107278}, "southwest": {"lat": 51.86533592010727, "lng": -2.245192179892722}}}, "icon": "https://maps.gstatic.com/mapfiles/place_api/icons/v1/png_71/bar-71.png", "icon_background_color": "#FF9E67", "icon_mask_base_uri": "https://maps.gstatic.com/mapfiles/place_api/icons/v2/bar_pinlet", "name": "Imperial Inn", "opening_hours": {"open_now": true}, "photos": [{"height": 3000, "html_attributions": ["<a href=\"https://maps.google.com/maps/contrib/113097895400341142099\">Justin Keenan</a>"], "photo_reference": "AUc7tXXPZZ-H7gv3VAqFQDLT26WoM_AN6T3UGoMlDoNTrIGNkP2F5FuXHNpoQVFOJqllBHslSrs4-zhFgjuE4UXfldckhhkjvbym4Mr_MS_G8TSALAMpG-6-fWZNxjCPuwpiUCw5gJLeQzsD_StLrMg8sakRnXU1Q5uozi9YOArAoZ2PbGke", "width": 5333}], "place_id": "ChIJu7y8l3sGcUgRVQxIWQN4Wm0", "plus_code": {"compound_code": "VQ84+MF Gloucester, United Kingdom", "global_code": "9C3VVQ84+MF"}, "price_level": 1, "rating": 4.4, "reference": "ChIJu7y8l3sGcUgRVQxIWQN4Wm0", "scope": "GOOGLE", "types": ["bar", "point_of_interest", "establishment"], "user_ratings_total": 200, "vicinity": "59 Northgate St, Gloucester"}, {"business_status": "OPERATIONAL", "geometry": {"location": {"lat": 51.8616733, "lng": -2.2502229}, "viewport": {"northeast": {"lat": 51.86305442989271, "lng": -2.248845370107277}, "southwest": {"lat": 51.86035477010727, "lng": -2.251545029892722}}}, "icon": "https://maps.gstatic.com/mapfiles/place_api/icons/v1/png_71/bar-71.png", "icon_background_color": "#FF9E67", "icon_mask_base_uri": "https://maps.gstatic.com/mapfiles/place_api/icons/v2/bar_pinlet", "name": "The Tall Ship", "opening_hours": {"open_now": true}, "photos": [{"height": 1956, "html_attributions": ["<a href=\"https://maps.google.com/maps/contrib/101530789853756232359\">Roger Smith</a>"], "photo_reference": "AUc7tXXx79B-evs-67xcU5YB0URQw8zfZ0AljOdL9uYdt8Z8XggTV79XSFzS2_I8fTQxmG_hevulVZ7qPVLLyGli5IaHDu1uzV8ZHQsEsCWnFJtNEs0EzlchphBfIrApzUAy-WTWUiUtY8srAwquC0D9so6fWnQYkCHK_JliEF_MC4iAkYgQ", "width": 3187}], "place_id": "ChIJRQmbnG8GcUgR99VZwqAd8vM", "plus_code": {"compound_code": "VP6X+MV Gloucester, United Kingdom", "global_code": "9C3VVP6X+MV"}, "price_level": 2, "rating": 4.4, "reference": "ChIJRQmbnG8GcUgR99VZwqAd8vM", "scope": "GOOGLE", "types": ["night_club", "bar", "restaurant", "food", "store", "point_of_interest", "establishment"], "user_ratings_total": 387, "vicinity": "134 Southgate St, The Docks, Gloucester"}, {"business_status": "OPERATIONAL", "geometry": {"location": {"lat": 51.8548337, "lng": -2.2528967}, "viewport": {"northeast": {"lat": 51.85621397989271, "lng": -2.251531120107277}, "southwest": {"lat": 51.85351432010727, "lng": -2.254230779892722}}}, "icon": "https://maps.gstatic.com/mapfiles/place_api/icons/v1/png_71/bar-71.png", "icon_background_color": "#FF9E67", "icon_mask_base_uri": "https://maps.gstatic.com/mapfiles/place_api/icons/v2/bar_pinlet", "name": "The Linden Tree", "opening_hours": {"open_now": true}, "photos": [{"height": 2709, "html_attributions": ["<a href=\"https://maps.google.com/maps/contrib/109893859897758719875\">A Google User</a>"], "photo_reference": "AUc7tXUA8C-IXkJCN6ROK_cnUjVEhj1OPwxFaPZZJXNBHAWFrQDgnKgyZwrytKOJOX4b34KA4FBfCwP611UaEsaAvxf9eYaOjF3TIezRJWqFxXD2odB2RywVM6oTs-aaYPvC5b4lvQcoQSQL_hl86EdGHsByCj8PH3J7VAMr2-vXuuo_OrUQ", "width": 3934}], "place_id": "ChIJCwz6f2sGcUgROp-o5RZ3OQA", "plus_code": {"compound_code": "VP3W+WR Gloucester, United Kingdom", "global_code": "9C3VVP3W+WR"}, "price_level": 2, "rating": 4.4, "reference": "ChIJCwz6f2sGcUgROp-o5RZ3OQA", "scope": "GOOGLE", "types": ["bar", "restaurant", "food", "point_of_interest", "establishment"], "user_ratings_total": 275, "vicinity": "73-75, 73 Bristol Rd, Gloucester"}, {"business_status": "OPERATIONAL", "geometry": {"location": {"lat": 51.8615106, "lng": -2.2529405}, "viewport": {"northeast": {"lat": 51.86276862989273, "lng": -2.251460020107277}, "southwest": {"lat": 51.86006897010729, "lng": -2.254159679892722}}}, "icon": "https://maps.gstatic.com/mapfiles/place_api/icons/v1/png_71/bar-71.png", "icon_background_color": "#FF9E67", "icon_mask_base_uri": "https://maps.gstatic.com/mapfiles/place_api/icons/v2/bar_pinlet", "name": "TANK", "opening_hours": {"open_now": true}, "photos": [{"height": 1080, "html_attributions": ["<a href=\"https://maps.google.com/maps/contrib/106086132931220860053\">Stephen Webster</a>"], "photo_reference": "AUc7tXVoPCu_uXJ6TeeKsmSap15k5FZd274Pq01a0KpClnSSWcn6cZmtFAXEOMb219JmxtwW3AfRvA_P8sNCPmLae7hm0l0Q4oUGBb_ZLtIOiSHv-fCa6Eb2YNZ-lWPlBLq4HnTEzp5Nsfpbadf6SI7IJgT2eV5zPZG0zYwo0DcqFRld_qc4", "width": 1440}], "place_id": "ChIJq1IYSW8GcUgRpt1EpsQXjb4", "plus_code": {"compound_code": "VP6W+HR Gloucester, United Kingdom", "global_code": "9C3VVP6W+HR"}, "price_level": 2, "rating": 4.4, "reference": "ChIJq1IYSW8GcUgRpt1EpsQXjb4", "scope": "GOOGLE", "types": ["bar", "restaurant", "food", "point_of_interest", "establishment"], "user_ratings_total": 1096, "vicinity": "12 - 14 Llanthony Road, Gloucester"}, {"business_status": "OPERATIONAL", "geometry": {"location": {"lat": 51.8607442, "lng": -2.2536257}, "viewport": {"northeast": {"lat": 51.86201267989271, "lng": -2.252110520107277}, "southwest": {"lat": 51.85931302010727, "lng": -2.254810179892722}}}, "icon": "https://maps.gstatic.com/mapfiles/place_api/icons/v1/png_71/restaurant-71.png", "icon_background_color": "#FF9E67", "icon_mask_base_uri": "https://maps.gstatic.com/mapfiles/place_api/icons/v2/restaurant_pinlet", "name": "Coal Kitchen Restaurant & Cocktail Bar Gloucester Quays", "opening_hours": {"open_now": true}, "photos": [{"height": 3036, "html_attributions": ["<a href=\"https://maps.google.com/maps/contrib/107880722081750948986\">Andrew Morgan</a>"], "photo_reference": "AUc7tXUAEcG8cSzls1mrY1OpFu6ucKcPW4HbJ4ffmXuq-uvb4qogFljUET6Z_sQ7Z-Dt4A9peL9G3p4SRDkukeuoZvCMnR5FNE-eFceZsUTXdNdNnEg5BL4vKKfvRzDzLisK-lq8xCMlCy2b-32VFS1iINen9UixhL1c4fRZQoNoANYLLG0", "width": 4048}], "place_id": "ChIJM5Lz0WgGcUgReWUk-h4UG4M", "plus_code": {"compound_code": "VP6W+7G Gloucester, United Kingdom", "global_code": "9C3VVP6W+7G"}, "price_level": 2, "rating": 4, "reference": "ChIJM5Lz0WgGcUgReWUk-h4UG4M", "scope": "GOOGLE", "types": ["restaurant", "bar", "food", "point_of_interest", "establishment"], "user_ratings_total": 760, "vicinity": "Merchants Rd, Gloucester"}, {"business_status": "OPERATIONAL", "geometry": {"location": {"lat": 51.8658562, "lng": -2.2426824}, "viewport": {"northeast": {"lat": 51.86717552989273, "lng": -2.241380520107278}, "southwest": {"lat": 51.86447587010728, "lng": -2.244080179892723}}}, "icon": "https://maps.gstatic.com/mapfiles/place_api/icons/v1/png_71/bar-71.png", "icon_background_color": "#FF9E67", "icon_mask_base_uri": "https://maps.gstatic.com/mapfiles/place_api/icons/v2/bar_pinlet", "name": "The Regal - JD Wetherspoon", "opening_hours": {"open_now": true}, "photos": [{"height": 2322, "html_attributions": ["<a href=\"https://maps.google.com/maps/contrib/104841692333378692421\">Jelle Van Sluis</a>"], "photo_reference": "AUc7tXUNxqlXNZjK9gvQa6t7_3q5ejpYxEDbJamo-T-xJmOVZcFeQf0dHcetAvnSJ2ujf-urW29ML3KwhznxmVkz3UbXnOYTeV-ManFmgeqjI34Wean-HIcXuzZqdnGISoDT-si6FkHpxrNo5H_s6HFSSeftKFTjnGthNInmdfTT7MHTfBtz", "width": 4128}], "place_id": "ChIJR7MDvHsGcUgRXvr5ylxJwAg", "plus_code": {"compound_code": "VQ84+8W Gloucester, United Kingdom", "global_code": "9C3VVQ84+8W"}, "price_level": 1, "rating": 3.9, "reference": "ChIJR7MDvHsGcUgRXvr5ylxJwAg", "scope": "GOOGLE", "types": ["bar", "restaurant", "food", "point_of_interest", "establishment"], "user_ratings_total": 3086, "vicinity": "33 St Aldate St, Gloucester"}, {"business_status": "OPERATIONAL", "geometry": {"location": {"lat": 51.8612511, "lng": -2.2528921}, "viewport": {"northeast": {"lat": 51.86258297989272, "lng": -2.251482820107277}, "southwest": {"lat": 51.85988332010728, "lng": -2.254182479892722}}}, "icon": "https://maps.gstatic.com/mapfiles/place_api/icons/v1/png_71/restaurant-71.png", "icon_background_color": "#FF9E67", "icon_mask_base_uri": "https://maps.gstatic.com/mapfiles/place_api/icons/v2/restaurant_pinlet", "name": "Portivo Lounge", "opening_hours": {"open_now": true}, "photos": [{"height": 1800, "html_attributions": ["<a href=\"https://maps.google.com/maps/contrib/100755275051330542565\">Mauricio.Malf</a>"], "photo_reference": "AUc7tXVMBpoBUvXuPKsMDBvnL32L8vWSpk1RUXQdrYL-QA6AvUQJKs4RG9_XN1I0zXF73F9PhR8eFWDkh1cygMJf7eqgji9L0T0fmygVGgW2eduAlwyw-TvJoRgEEZm-bimmWmajfdaEWM3J6xR9NUw7UG6nd4RI9hWX1PDu6bwn4jT8Y8C9", "width": 4000}], "place_id": "ChIJ10cIDxEHcUgRKPjP_zg_Gpg", "plus_code": {"compound_code": "VP6W+GR Gloucester, United Kingdom", "global_code": "9C3VVP6W+GR"}, "price_level": 2, "rating": 4.4, "reference": "ChIJ10cIDxEHcUgRKPjP_zg_Gpg", "scope": "GOOGLE", "types": ["restaurant", "bar", "cafe", "food", "point_of_interest", "establishment"], "user_ratings_total": 667, "vicinity": "Gloucester Quays Designer Outlet, St Ann Way, Gloucester"}, {"business_status": "OPERATIONAL", "geometry": {"location": {"lat": 51.8649867, "lng": -2.2461395}, "viewport": {"northeast": {"lat": 51.86651727989273, "lng": -2.244688170107277}, "southwest": {"lat": 51.86381762010728, "lng": -2.247387829892722}}}, "icon": "https://maps.gstatic.com/mapfiles/place_api/icons/v1/png_71/bar-71.png", "icon_background_color": "#FF9E67", "icon_mask_base_uri": "https://maps.gstatic.com/mapfiles/place_api/icons/v2/bar_pinlet", "name": "Tiger's Eye Restaurant", "opening_hours": {"open_now": true}, "photos": [{"height": 1200, "html_attributions": ["<a href=\"https://maps.google.com/maps/contrib/114377185943020907362\">Peter Downes</a>"], "photo_reference": "AUc7tXXp7mBtN4Ydm2A6D3FV8G8PX2o1S-6KfyrYm2c6gebudCjKUDvNs2SrKypQSkbmlQVYLffPUGc_Y8erD4aNgWpo8fowl96gSlKprUsgVsWdOF3QmezVT1o9jpGt4pj3kE5o64Hk0ByoMlTH-L3g2Q5JIP_Ja3NOSK5e3C67Yr4Y4xu9", "width": 1281}], "place_id": "ChIJ5eW1AW8GcUgR2u6zDMY4SHc", "plus_code": {"compound_code": "VQ73+XG Gloucester, United Kingdom", "global_code": "9C3VVQ73+XG"}, "price_level": 2, "rating": 4.4, "reference": "ChIJ5eW1AW8GcUgR2u6zDMY4SHc", "scope": "GOOGLE", "types": ["bar", "restaurant", "food", "point_of_interest", "establishment"], "user_ratings_total": 414, "vicinity": "9A Southgate St, Gloucester"}, {"business_status": "OPERATIONAL", "geometry": {"location": {"lat": 51.8622338, "lng": -2.2520581}, "viewport": {"northeast": {"lat": 51.86341022989272, "lng": -2.250117020107278}, "southwest": {"lat": 51.86071057010728, "lng": -2.252816679892722}}}, "icon": "https://maps.gstatic.com/mapfiles/place_api/icons/v1/png_71/restaurant-71.png", "icon_background_color": "#FF9E67", "icon_mask_base_uri": "https://maps.gstatic.com/mapfiles/place_api/icons/v2/restaurant_pinlet", "name": "The Barge", "opening_hours": {"open_now": true}, "photos": [{"height": 3024, "html_attributions": ["<a href=\"https://maps.google.com/maps/contrib/100760823718252487095\">Regnoult Fran\u00e7ois</a>"], "photo_reference": "AUc7tXUz8TDo_Y25jFpnPC1vGc-KmwULt6yMWZuabmySoHzT-i8fv_7YykJewQq-lMfKqUs2k_Yp-VyveNbJptmfYdzNZhCgsv8x5aWjUK3VtJ6pUTxYULWY9y8yGSsL86PP6sIzOZggQEmV2CaR7kZwIHlQA9tey998o_Q3S1ww-RR2DzcG", "width": 4032}], "place_id": "ChIJmyO-YG8GcUgRLaxJRAvQMLA", "plus_code": {"compound_code": "VP6X+V5 Gloucester, United Kingdom", "global_code": "9C3VVP6X+V5"}, "price_level": 1, "rating": 4.8, "reference": "ChIJmyO-YG8GcUgRLaxJRAvQMLA", "scope": "GOOGLE", "types": ["restaurant", "food", "point_of_interest", "establishment"], "user_ratings_total": 217, "vicinity": "The Docks, Gloucester"}, {"business_status": "OPERATIONAL", "geometry": {"location": {"lat": 51.8623822, "lng": -2.2404103}, "viewport": {"northeast": {"lat": 51.86373922989272, "lng": -2.238992820107278}, "southwest": {"lat": 51.86103957010728, "lng": -2.241692479892722}}}, "icon": "https://maps.gstatic.com/mapfiles/place_api/icons/v1/png_71/bar-71.png", "icon_background_color": "#FF9E67", "icon_mask_base_uri": "https://maps.gstatic.com/mapfiles/place_api/icons/v2/bar_pinlet", "name": "The Gate", "opening_hours": {"open_now": false}, "photos": [{"height": 3024, "html_attributions": ["<a href=\"https://maps.google.com/maps/contrib/115771321698518095675\">A Google User</a>"], "photo_reference": "AUc7tXXQy3QXF-Y7LMjsEshCJTtmQHNYR_Nv2sYPUGXcKex79HwQdVH7p8t6KeOy7Cbh9BdmfJqol3cSuFSAoHvvsUCxUE8gaWmc_vtayVv07HWDvj18_3U-eT6TUEVQ7ArQzhV39_DjBemkOfGdmA4knHqltPj4NXSye3ySPM0qLeTAt8Ex", "width": 4032}], "place_id": "ChIJPZp8W3cGcUgR9vWKavELFL0", "plus_code": {"compound_code": "VQ65+XR Gloucester, United Kingdom", "global_code": "9C3VVQ65+XR"}, "rating": 4.6, "reference": "ChIJPZp8W3cGcUgR9vWKavELFL0", "scope": "GOOGLE", "types": ["bar", "restaurant", "food", "point_of_interest", "establishment"], "user_ratings_total": 143, "vicinity": "112 Eastgate St, Gloucester"}, {"business_status": "OPERATIONAL", "geometry": {"location": {"lat": 51.86114999999999, "lng": -2.252606}, "viewport": {"northeast": {"lat": 51.86246482989272, "lng": -2.251109570107278}, "southwest": {"lat": 51.85976517010728, "lng": -2.253809229892723}}}, "icon": "https://maps.gstatic.com/mapfiles/place_api/icons/v1/png_71/restaurant-71.png", "icon_background_color": "#FF9E67", "icon_mask_base_uri": "https://maps.gstatic.com/mapfiles/place_api/icons/v2/restaurant_pinlet", "name": "TGI Fridays - Gloucester Quays", "opening_hours": {"open_now": true}, "photos": [{"height": 1080, "html_attributions": ["<a href=\"https://maps.google.com/maps/contrib/105709096114278752345\">Elliot Hyde</a>"], "photo_reference": "AUc7tXX7OmvptkYLociQ_6EUzaDy8FmjMNTaNwGdshQlXMhy2zS1C1zn_xccoqe14l7XpGfNCY5KscnlOtHS78UwlvJdaaK_V6ZjuAGzaLr92s4qxPoQSWlOwOjwR0UsKkJZbQjYE9xikDhRcnx3Kz7dKG3FmvdPOVJudsi9Z_HBS85iN3Wn", "width": 1920}], "place_id": "ChIJjwR8OW8GcUgRVYuFPO1SbOc", "plus_code": {"compound_code": "VP6W+FX Gloucester, United Kingdom", "global_code": "9C3VVP6W+FX"}, "price_level": 2, "rating": 3.7, "reference": "ChIJjwR8OW8GcUgRVYuFPO1SbOc", "scope": "GOOGLE", "types": ["bar", "restaurant", "food", "point_of_interest", "establishment"], "user_ratings_total": 1352, "vicinity": "101, Gloucester Quays Designer Outlet, Gloucester"}, {"business_status": "OPERATIONAL", "geometry": {"location": {"lat": 51.8742666, "lng": -2.2736224}, "viewport": {"northeast": {"lat": 51.87559897989271, "lng": -2.272137520107277}, "southwest": {"lat": 51.87289932010727, "lng": -2.274837179892722}}}, "icon": "https://maps.gstatic.com/mapfiles/place_api/icons/v1/png_71/restaurant-71.png", "icon_background_color": "#FF9E67", "icon_mask_base_uri": "https://maps.gstatic.com/mapfiles/place_api/icons/v2/restaurant_pinlet", "name": "Toby Carvery Highnam", "opening_hours": {"open_now": true}, "photos": [{"height": 2268, "html_attributions": ["<a href=\"https://maps.google.com/maps/contrib/109955230609456366967\">andrew smith</a>"], "photo_reference": "AUc7tXXtT_ytgCvpS83VHVKzv1qcOstAPCE_q3B_XZhJbzN87q3lOFmOJ5MAsXy6ItuW75m5xPNaT4wfEvkxIyR6lMYrMFKRbhZH_LrwEuDA3qoCl_eTt-wIap323-oyWrzEnkHNsoeI8Q-eL3f8Mmi6KRq3cl1sApozkEK96_taN_xNc9O9", "width": 4032}], "place_id": "ChIJTxsI7fcGcUgRyn6luso4is8", "plus_code": {"compound_code": "VPFG+PH Gloucester, United Kingdom", "global_code": "9C3VVPFG+PH"}, "price_level": 1, "rating": 4.1, "reference": "ChIJTxsI7fcGcUgRyn6luso4is8", "scope": "GOOGLE", "types": ["restaurant", "food", "point_of_interest", "establishment"], "user_ratings_total": 3565, "vicinity": "Over Farm Market, Over, Highnam, Gloucester"}, {"business_status": "OPERATIONAL", "geometry": {"location": {"lat": 51.8610078, "lng": -2.2519568}, "viewport": {"northeast": {"lat": 51.86234527989273, "lng": -2.250598320107278}, "southwest": {"lat": 51.85964562010729, "lng": -2.253297979892722}}}, "icon": "https://maps.gstatic.com/mapfiles/place_api/icons/v1/png_71/restaurant-71.png", "icon_background_color": "#FF9E67", "icon_mask_base_uri": "https://maps.gstatic.com/mapfiles/place_api/icons/v2/restaurant_pinlet", "name": "Bill's Gloucester Quays Restaurant", "opening_hours": {"open_now": true}, "photos": [{"height": 2252, "html_attributions": ["<a href=\"https://maps.google.com/maps/contrib/100078455170441210549\">Neculai Balanica</a>"], "photo_reference": "AUc7tXVGGHlcHgGl5N3XeLhZ0sd9K5BxjPhl3tEUOGQHL8mszhqB8E6J2LCbtzTPY2CD6NO7Xerr4-usOBP_WwD_nChs2lYVbmqYRKvhJXAJGgyvQz1h85KcW2F6hf0LxIfiAnH8UarBQNPhi0OH2zmMYZRDUiD4Zmq0MsTbr2pau4rFrYxg", "width": 4000}], "place_id": "ChIJ-d0DR28GcUgRf97Am23ak0o", "plus_code": {"compound_code": "VP6X+C6 Gloucester, United Kingdom", "global_code": "9C3VVP6X+C6"}, "price_level": 2, "rating": 4.3, "reference": "ChIJ-d0DR28GcUgRf97Am23ak0o", "scope": "GOOGLE", "types": ["cafe", "restaurant", "food", "point_of_interest", "establishment"], "user_ratings_total": 1883, "vicinity": "71-72 Llanthony Rd, The Docks, Gloucester"}, {"business_status": "OPERATIONAL", "geometry": {"location": {"lat": 51.88097, "lng": -2.240635}, "viewport": {"northeast": {"lat": 51.88236492989272, "lng": -2.239070220107277}, "southwest": {"lat": 51.87966527010728, "lng": -2.241769879892722}}}, "icon": "https://maps.gstatic.com/mapfiles/place_api/icons/v1/png_71/lodging-71.png", "icon_background_color": "#909CE1", "icon_mask_base_uri": "https://maps.gstatic.com/mapfiles/place_api/icons/v2/hotel_pinlet", "name": "Premier Inn Gloucester (Longford) hotel", "photos": [{"height": 531, "html_attributions": ["<a href=\"https://maps.google.com/maps/contrib/114519830154752004965\">Premier Inn Gloucester (Longford) Hotel</a>"], "photo_reference": "AUc7tXWnj-N3uIzdczMvTGl-2SjK_FrFtSmt8sJMy7KxodVIv-hOnQ2k8Mm2Tf4dERs2xguRhASwuHUI8jajBhEii_xhI1Shke2LDchzidAK8-dW9Bh_CpU9Mrg0SfHwoK-wkw00HTXdhz2f8wKA2rjXBeT7Z2uUzlympzfHzCln5j2s6Nx5", "width": 800}], "place_id": "ChIJ8_7n-CcEcUgRkSg4sCnah3w", "plus_code": {"compound_code": "VQJ5+9P Gloucester, United Kingdom", "global_code": "9C3VVQJ5+9P"}, "rating": 4.2, "reference": "ChIJ8_7n-CcEcUgRkSg4sCnah3w", "scope": "GOOGLE", "types": ["lodging", "restaurant", "food", "point_of_interest", "establishment"], "user_ratings_total": 554, "vicinity": "Tewkesbury Rd, Longford, Gloucester"}]