[{"business_status": "OPERATIONAL", "geometry": {"location": {"lat": 51.914392, "lng": -8.172112}, "viewport": {"northeast": {"lat": 51.91579457989273, "lng": -8.170818620107278}, "southwest": {"lat": 51.91309492010728, "lng": -8.173518279892722}}}, "icon": "https://maps.gstatic.com/mapfiles/place_api/icons/v1/png_71/bar-71.png", "icon_background_color": "#FF9E67", "icon_mask_base_uri": "https://maps.gstatic.com/mapfiles/place_api/icons/v2/bar_pinlet", "name": "Canty\u2019s Bar", "opening_hours": {"open_now": true}, "photos": [{"height": 933, "html_attributions": ["<a href=\"https://maps.google.com/maps/contrib/112136890710260207302\">Gary Teeling</a>"], "photo_reference": "AUc7tXX_hATOdenU3J3yEEcKAb1lvEBqag3l5he-kLZyFlJZRL86vhFPO3f7YB81H6XBdNN-0QkQqWKXZsro9BjwnaB3Fm1ioU-i6epGrLN9t_mQSpx6W1F56vv2Opq_cx_AqoW6pykj9tBMkQI58QbroTGMQrwCqpuJjz6iZ5U0QYWtB8kn", "width": 1400}], "place_id": "ChIJ50U2XS5jQ0gRkHS197b3H5o", "plus_code": {"compound_code": "WR7H+Q5 Midleton, County Cork, Ireland", "global_code": "9C3HWR7H+Q5"}, "price_level": 1, "rating": 4.5, "reference": "ChIJ50U2XS5jQ0gRkHS197b3H5o", "scope": "GOOGLE", "types": ["bar", "restaurant", "food", "point_of_interest", "establishment"], "user_ratings_total": 151, "vicinity": "Connolly St, Townparks, Midleton"}, {"business_status": "OPERATIONAL", "geometry": {"location": {"lat": 51.914351, "lng": -8.173445899999999}, "viewport": {"northeast": {"lat": 51.91575017989272, "lng": -8.172091670107275}, "southwest": {"lat": 51.91305052010728, "lng": -8.174791329892718}}}, "icon": "https://maps.gstatic.com/mapfiles/place_api/icons/v1/png_71/bar-71.png", "icon_background_color": "#FF9E67", "icon_mask_base_uri": "https://maps.gstatic.com/mapfiles/place_api/icons/v2/bar_pinlet", "name": "Church Lane", "opening_hours": {"open_now": true}, "photos": [{"height": 3024, "html_attributions": ["<a href=\"https://maps.google.com/maps/contrib/109010391710433049884\">A Google User</a>"], "photo_reference": "AUc7tXWY0Cz_qdPAJzqZqtm9o3Ku03ZlAV917iVRRt7QdQOlqT8H8q42SIg9f8SQBDlvtmqJYsPAeKh2TfC_KqM7wDB52lQKM2poG0fPkhobNa0pCG5LZP4UXrO3qTfAfB6-JrP_Z1QU-X-pCXycLciROoozvGBTF_BLbzLYp8BNxw6M5520", "width": 4032}], "place_id": "ChIJi0BHCABjQ0gROK7yjfe12Mk", "plus_code": {"compound_code": "WR7G+PJ Midleton, County Cork, Ireland", "global_code": "9C3HWR7G+PJ"}, "rating": 4.9, "reference": "ChIJi0BHCABjQ0gROK7yjfe12Mk", "scope": "GOOGLE", "types": ["bar", "restaurant", "food", "point_of_interest", "establishment"], "user_ratings_total": 29, "vicinity": "Church Ln, Townparks, Midleton"}, {"business_status": "OPERATIONAL", "geometry": {"location": {"lat": 51.9146376, "lng": -8.173704}, "viewport": {"northeast": {"lat": 51.91578162989272, "lng": -8.172983370107278}, "southwest": {"lat": 51.91308197010728, "lng": -8.175683029892722}}}, "icon": "https://maps.gstatic.com/mapfiles/place_api/icons/v1/png_71/restaurant-71.png", "icon_background_color": "#FF9E67", "icon_mask_base_uri": "https://maps.gstatic.com/mapfiles/place_api/icons/v2/restaurant_pinlet", "name": "Roastie", "opening_hours": {"open_now": true}, "photos": [{"height": 4032, "html_attributions": ["<a href=\"https://maps.google.com/maps/contrib/108440121449125308542\">A Google User</a>"], "photo_reference": "AUc7tXVsLdPSIXMoLOS7Q5v0yymAjxMRPg5g76nXuqKqFk-9BpEgTJrmBpLo5YcV6JCc7cIuzolOioPOIhJYk6FfidiKWjgaWUrPYDfMBW5t3o16_pcjAg_PPuczUjPw_XmXJk8_F_8gDaPQwY8sDs8o6ZkfqGDsOXBF3gaO3ygSpu1iZvIE", "width": 3024}], "place_id": "ChIJCzh6BLljQ0gRawcJN5a-wpE", "plus_code": {"compound_code": "WR7G+VG Midleton, County Cork, Ireland", "global_code": "9C3HWR7G+VG"}, "rating": 4.9, "reference": "ChIJCzh6BLljQ0gRawcJN5a-wpE", "scope": "GOOGLE", "types": ["cafe", "restaurant", "food", "point_of_interest", "store", "establishment"], "user_ratings_total": 456, "vicinity": "The Mall, Riverside Way, Townparks, Midleton"}, {"business_status": "OPERATIONAL", "geometry": {"location": {"lat": 51.9127904, "lng": -8.170446499999999}, "viewport": {"northeast": {"lat": 51.91410202989272, "lng": -8.169115720107278}, "southwest": {"lat": 51.91140237010728, "lng": -8.171815379892722}}}, "icon": "https://maps.gstatic.com/mapfiles/place_api/icons/v1/png_71/restaurant-71.png", "icon_background_color": "#FF9E67", "icon_mask_base_uri": "https://maps.gstatic.com/mapfiles/place_api/icons/v2/restaurant_pinlet", "name": "Ferrit & Lee", "opening_hours": {"open_now": false}, "photos": [{"height": 4003, "html_attributions": ["<a href=\"https://maps.google.com/maps/contrib/115798764345553897769\">John</a>"], "photo_reference": "AUc7tXXVLwKFtff2cdQpLU2Z1p2PKWq1qt_fZ9cF2w65pzhubODGlBc1QOZ4AWsPLUbORYXBMj4bNvSoH7VG__6lZckT-cxAEJ1OmKfDhIMT91P5zVjkwNIIKQVtH8DcIDwxzlflWyLafXgygfnk0nG5S46XGBTfs4RmI2DnZoht-uljmFoH", "width": 5973}], "place_id": "ChIJXzBL5y1jQ0gRzP5HpbrzKwE", "plus_code": {"compound_code": "WR7H+4R Midleton, County Cork, Ireland", "global_code": "9C3HWR7H+4R"}, "price_level": 2, "rating": 4.7, "reference": "ChIJXzBL5y1jQ0gRzP5HpbrzKwE", "scope": "GOOGLE", "types": ["restaurant", "food", "point_of_interest", "establishment"], "user_ratings_total": 825, "vicinity": "Distillery Walk, Townparks, Midleton"}, {"business_status": "OPERATIONAL", "geometry": {"location": {"lat": 51.91525300000001, "lng": -8.1733903}, "viewport": {"northeast": {"lat": 51.91657167989272, "lng": -8.172127970107278}, "southwest": {"lat": 51.91387202010728, "lng": -8.174827629892722}}}, "icon": "https://maps.gstatic.com/mapfiles/place_api/icons/v1/png_71/restaurant-71.png", "icon_background_color": "#FF9E67", "icon_mask_base_uri": "https://maps.gstatic.com/mapfiles/place_api/icons/v2/restaurant_pinlet", "name": "Salinas Bistro", "opening_hours": {"open_now": true}, "photos": [{"height": 3096, "html_attributions": ["<a href=\"https://maps.google.com/maps/contrib/109642854466433910073\">109642854466433910073</a>"], "photo_reference": "AUc7tXV72k0zhaeO6Ot9Ri1qlbnGkha6sD_lcMw_VCWW6tkcqx5SGfEJm_Xx8uAYE0V4uaFAa0F3Yj7TizDWXBn2FXcJsNz8HrDDoMP8-WaB5T9-dacmN8i0fGNzs1yiDnjq43Ji-kkaF4fpYVaW7IqWwONmixGaF4HwossrX5yuJQIBeOd0", "width": 5504}], "place_id": "ChIJfx2EIIZjQ0gRDQSkoxtxXfI", "plus_code": {"compound_code": "WR8G+4J Midleton, County Cork, Ireland", "global_code": "9C3HWR8G+4J"}, "price_level": 2, "rating": 4.8, "reference": "ChIJfx2EIIZjQ0gRDQSkoxtxXfI", "scope": "GOOGLE", "types": ["restaurant", "food", "point_of_interest", "establishment"], "user_ratings_total": 524, "vicinity": "17 Main St, Townparks, Midleton"}, {"business_status": "OPERATIONAL", "geometry": {"location": {"lat": 51.9146657, "lng": -8.173418999999999}, "viewport": {"northeast": {"lat": 51.91606152989272, "lng": -8.171939870107277}, "southwest": {"lat": 51.91336187010727, "lng": -8.17463952989272}}}, "icon": "https://maps.gstatic.com/mapfiles/place_api/icons/v1/png_71/restaurant-71.png", "icon_background_color": "#FF9E67", "icon_mask_base_uri": "https://maps.gstatic.com/mapfiles/place_api/icons/v2/restaurant_pinlet", "name": "Leonardos Italian Bistro", "opening_hours": {"open_now": true}, "photos": [{"height": 4032, "html_attributions": ["<a href=\"https://maps.google.com/maps/contrib/113905705875405946291\">Alvin Valdez</a>"], "photo_reference": "AUc7tXXvRqR7OrESSPaWEqyi6ERqeMoFJSDmVS_TgMJ3L-mrjqljDV5qhU-UEMNIN1dGvQXTs1jeXtRI0V66f-pkM42A5lnto_VMDN8NXiYEhKKoJ6foM7hyj5DWPuXaW1oYTz0p1otKlkFBi_wiQdfw6mDSVdX7xAsnPDqLkqLTgrQ4P02y", "width": 3024}], "place_id": "ChIJKyh4YC5jQ0gRNWL4RlyEwOU", "plus_code": {"compound_code": "WR7G+VJ Midleton, County Cork, Ireland", "global_code": "9C3HWR7G+VJ"}, "price_level": 2, "rating": 4.4, "reference": "ChIJKyh4YC5jQ0gRNWL4RlyEwOU", "scope": "GOOGLE", "types": ["restaurant", "food", "point_of_interest", "establishment"], "user_ratings_total": 181, "vicinity": "83 Main St, Townparks, Midleton"}, {"business_status": "OPERATIONAL", "geometry": {"location": {"lat": 51.91355009999999, "lng": -8.172326}, "viewport": {"northeast": {"lat": 51.91492167989272, "lng": -8.170905470107279}, "southwest": {"lat": 51.91222202010728, "lng": -8.173605129892723}}}, "icon": "https://maps.gstatic.com/mapfiles/place_api/icons/v1/png_71/restaurant-71.png", "icon_background_color": "#FF9E67", "icon_mask_base_uri": "https://maps.gstatic.com/mapfiles/place_api/icons/v2/restaurant_pinlet", "name": "PAN", "opening_hours": {"open_now": true}, "photos": [{"height": 1932, "html_attributions": ["<a href=\"https://maps.google.com/maps/contrib/109215283223774610966\">A Google User</a>"], "photo_reference": "AUc7tXUAtGNd-gRCAsZ7pwPYrEv4SvyeADa_tLPeEFpgni9a77K6M2eszxtcrnxSYy7KLTdvIkRP0tCZF9RKwYKHDQw4qiuosAv75n3kAI7XoMpb-hfp9e7dNJ63uF1YE46G5BvlO-b3T3DQMYRLWcM5KTdJRzgqZamekBU2RKte7UyhkPBe", "width": 2576}], "place_id": "ChIJ9e2jfC5jQ0gR-ulkI9CyKgI", "plus_code": {"compound_code": "WR7H+C3 Midleton, County Cork, Ireland", "global_code": "9C3HWR7H+C3"}, "price_level": 2, "rating": 4.5, "reference": "ChIJ9e2jfC5jQ0gR-ulkI9CyKgI", "scope": "GOOGLE", "types": ["restaurant", "food", "point_of_interest", "establishment"], "user_ratings_total": 729, "vicinity": "Main St Main St, Townparks, Midleton"}, {"business_status": "OPERATIONAL", "geometry": {"location": {"lat": 51.91358229999999, "lng": -8.173245099999999}, "viewport": {"northeast": {"lat": 51.91491957989272, "lng": -8.171765570107276}, "southwest": {"lat": 51.91221992010728, "lng": -8.17446522989272}}}, "icon": "https://maps.gstatic.com/mapfiles/place_api/icons/v1/png_71/restaurant-71.png", "icon_background_color": "#FF9E67", "icon_mask_base_uri": "https://maps.gstatic.com/mapfiles/place_api/icons/v2/restaurant_pinlet", "name": "The Granary Foodstore", "opening_hours": {"open_now": false}, "photos": [{"height": 2988, "html_attributions": ["<a href=\"https://maps.google.com/maps/contrib/104576264320094004738\">Emma Brennan</a>"], "photo_reference": "AUc7tXU_AifftPJBYYIB2quIJbyRRHYITTTqb8rMr9C_ZVfQQsgyw4pOs_1qibAMhEgwQpvf9T9KY8Aueycpbrn9bwZqeZKbR1zg1PrPpnZGZX3Jy7uTnMVFbsFUh4FypNSE5ANQ_S8-cuQxQtGfF3sYDDcBo2d6nHwGmPToUGCOHGTKv8Ii", "width": 5312}], "place_id": "ChIJ5ZOrhS5jQ0gRDGe-yjDHfyw", "plus_code": {"compound_code": "WR7G+CP Midleton, County Cork, Ireland", "global_code": "9C3HWR7G+CP"}, "price_level": 2, "rating": 4.5, "reference": "ChIJ5ZOrhS5jQ0gRDGe-yjDHfyw", "scope": "GOOGLE", "types": ["restaurant", "food", "point_of_interest", "establishment"], "user_ratings_total": 265, "vicinity": "Coach Horse Ln, The Square, Townparks, Midleton"}, {"business_status": "OPERATIONAL", "geometry": {"location": {"lat": 51.9158603, "lng": -8.173328699999999}, "viewport": {"northeast": {"lat": 51.91710637989272, "lng": -8.172290320107278}, "southwest": {"lat": 51.91440672010727, "lng": -8.174989979892722}}}, "icon": "https://maps.gstatic.com/mapfiles/place_api/icons/v1/png_71/restaurant-71.png", "icon_background_color": "#FF9E67", "icon_mask_base_uri": "https://maps.gstatic.com/mapfiles/place_api/icons/v2/restaurant_pinlet", "name": "Sage", "opening_hours": {"open_now": false}, "photos": [{"height": 4000, "html_attributions": ["<a href=\"https://maps.google.com/maps/contrib/115895183724778092309\">Amanda O&#39;Driscoll</a>"], "photo_reference": "AUc7tXUFkWr6yC-f6TFUr3lOoVwcsPXpNRkomlrk3Luk45sj6Fa6N32xi0Oo5Bj3VDxWJoPe9Ys4fVvtp1ZEe9QM0idNNcMT7VA25vBwlH_FAAgSfR2Ub8QFNOFubGfX5KD46XIGe_nZzfk70zqZRmf6TreGAd3n8C_Ir6HkOLSDbXEQgqci", "width": 3008}], "place_id": "ChIJXdDkDtB8Q0gRav35Y36i-6M", "plus_code": {"compound_code": "WR8G+8M Midleton, County Cork, Ireland", "global_code": "9C3HWR8G+8M"}, "price_level": 2, "rating": 4.4, "reference": "ChIJXdDkDtB8Q0gRav35Y36i-6M", "scope": "GOOGLE", "types": ["restaurant", "food", "point_of_interest", "establishment"], "user_ratings_total": 723, "vicinity": "The Courtyard, Main St, Townparks, Midleton"}, {"business_status": "OPERATIONAL", "geometry": {"location": {"lat": 51.9144349, "lng": -8.1730619}, "viewport": {"northeast": {"lat": 51.91578682989272, "lng": -8.171624220107276}, "southwest": {"lat": 51.91308717010727, "lng": -8.17432387989272}}}, "icon": "https://maps.gstatic.com/mapfiles/place_api/icons/v1/png_71/restaurant-71.png", "icon_background_color": "#FF9E67", "icon_mask_base_uri": "https://maps.gstatic.com/mapfiles/place_api/icons/v2/restaurant_pinlet", "name": "C.F. Lennox", "opening_hours": {"open_now": false}, "photos": [{"height": 1960, "html_attributions": ["<a href=\"https://maps.google.com/maps/contrib/110996035851021291752\">CF LENNOX</a>"], "photo_reference": "AUc7tXViWGmZCJQPiAU15W_CsCOihYqF0KJOb5s_bYHkJJMu9_MObI7XtCfsYLSzuLrtKHyxW21I4JFFQsGPK77qcIJdI8hSRZN6uRR6n5rk2jeksVbuXXiveLzCfigj9TirTp0zUxnrm6AjFfdOvPK5N2BlBvwdFRVOeDEnFxEFioSTx6DK", "width": 4032}], "place_id": "ChIJA3SO9S5jQ0gRVq2cUvHrk3I", "plus_code": {"compound_code": "WR7G+QQ Midleton, County Cork, Ireland", "global_code": "9C3HWR7G+QQ"}, "price_level": 1, "rating": 4.3, "reference": "ChIJA3SO9S5jQ0gRVq2cUvHrk3I", "scope": "GOOGLE", "types": ["meal_delivery", "meal_takeaway", "restaurant", "food", "point_of_interest", "store", "establishment"], "user_ratings_total": 1080, "vicinity": "81 Main St, Townparks, Midleton"}, {"business_status": "CLOSED_TEMPORARILY", "geometry": {"location": {"lat": 51.9136779, "lng": -8.1724968}, "viewport": {"northeast": {"lat": 51.91505692989272, "lng": -8.171045570107278}, "southwest": {"lat": 51.91235727010728, "lng": -8.173745229892722}}}, "icon": "https://maps.gstatic.com/mapfiles/place_api/icons/v1/png_71/restaurant-71.png", "icon_background_color": "#FF9E67", "icon_mask_base_uri": "https://maps.gstatic.com/mapfiles/place_api/icons/v2/restaurant_pinlet", "name": "The Black Barrel Gastro Bar", "permanently_closed": true, "photos": [{"height": 3480, "html_attributions": ["<a href=\"https://maps.google.com/maps/contrib/101513820536290732155\">David J G</a>"], "photo_reference": "AUc7tXX9YZteTpLm7k49-dZIPITOan3QnmZ4CShKdKy9PaMYUK2bjHx--6d9dVt_EBACsNPWTBxbahTN3Lsrj3oh653AkLPeStGaIucBMTGbgINP1662yH8NPBHee46_2STZrC9pYvQ1AqUBygzEbQolDYUfdLfpyqkZ3BIEbJehpHOhQxke", "width": 4640}], "place_id": "ChIJK1dAYy5jQ0gRrWudbnNsSvM", "plus_code": {"compound_code": "WR7H+F2 Midleton, County Cork, Ireland", "global_code": "9C3HWR7H+F2"}, "price_level": 2, "rating": 4.3, "reference": "ChIJK1dAYy5jQ0gRrWudbnNsSvM", "scope": "GOOGLE", "types": ["restaurant", "food", "point_of_interest", "establishment"], "user_ratings_total": 408, "vicinity": "75 Main St, Townparks, Midleton"}, {"business_status": "OPERATIONAL", "geometry": {"location": {"lat": 51.9088787, "lng": -8.1689366}, "viewport": {"northeast": {"lat": 51.91023847989272, "lng": -8.167522070107276}, "southwest": {"lat": 51.90753882010728, "lng": -8.17022172989272}}}, "icon": "https://maps.gstatic.com/mapfiles/place_api/icons/v1/png_71/restaurant-71.png", "icon_background_color": "#FF9E67", "icon_mask_base_uri": "https://maps.gstatic.com/mapfiles/place_api/icons/v2/restaurant_pinlet", "name": "Cornerstone Pizza", "opening_hours": {"open_now": false}, "photos": [{"height": 4032, "html_attributions": ["<a href=\"https://maps.google.com/maps/contrib/116502231767402787197\">Kevin McCabe</a>"], "photo_reference": "AUc7tXWine6Ka4qhh2Fh76UImZbGs1Sn6a4LbxXfqMUZrDTYP0d1laxA4e8uhQGE8FZukT2XoNc6LQLbLSYRDg0Qb-9v6BSxmFqofutTt9ipu5uNS8OYkEDu9wHiMstnHRQ8RDRAfw8eHMj2_tjGV55N6mroft5P0DbkCxhcQce8eckpHd9M", "width": 3024}], "place_id": "ChIJty3wCUljQ0gRHqfXEMs8tvY", "plus_code": {"compound_code": "WR5J+HC Midleton, County Cork, Ireland", "global_code": "9C3HWR5J+HC"}, "rating": 4.8, "reference": "ChIJty3wCUljQ0gRHqfXEMs8tvY", "scope": "GOOGLE", "types": ["meal_takeaway", "cafe", "restaurant", "food", "point_of_interest", "establishment"], "user_ratings_total": 144, "vicinity": "38 St Mary's Rd, Townparks, Midleton"}, {"business_status": "OPERATIONAL", "geometry": {"location": {"lat": 51.9156992, "lng": -8.173805399999999}, "viewport": {"northeast": {"lat": 51.91702582989272, "lng": -8.172528670107276}, "southwest": {"lat": 51.91432617010727, "lng": -8.17522832989272}}}, "icon": "https://maps.gstatic.com/mapfiles/place_api/icons/v1/png_71/restaurant-71.png", "icon_background_color": "#FF9E67", "icon_mask_base_uri": "https://maps.gstatic.com/mapfiles/place_api/icons/v2/restaurant_pinlet", "name": "Pizzeria San Marco", "opening_hours": {"open_now": false}, "photos": [{"height": 366, "html_attributions": ["<a href=\"https://maps.google.com/maps/contrib/105572155679272403356\">Pizzeria San Marco</a>"], "photo_reference": "AUc7tXWHsrbxdzDUoJ3NlugmmN-IzLH7rJCMBy7b2lpftF-M1kmEd7fwklRrMHeStnUC-H5ijhVWyvIfsqX-IAQArAKeglPFMC6fq1ybPqaYmGQaHDgi8rMGZY_GFg_79f5jihV2Zts2gicLZKM4pMKDikiB0Uvh4k2oezYpNWvMuSjxgGlC", "width": 550}], "place_id": "ChIJV7o9-S5jQ0gRVfQUYbiRayk", "plus_code": {"compound_code": "WR8G+7F Midleton, County Cork, Ireland", "global_code": "9C3HWR8G+7F"}, "price_level": 2, "rating": 4.3, "reference": "ChIJV7o9-S5jQ0gRVfQUYbiRayk", "scope": "GOOGLE", "types": ["restaurant", "food", "point_of_interest", "establishment"], "user_ratings_total": 482, "vicinity": "9 Main St, Townparks, Midleton"}, {"business_status": "OPERATIONAL", "geometry": {"location": {"lat": 51.8978632, "lng": -8.165956099999999}, "viewport": {"northeast": {"lat": 51.89922392989272, "lng": -8.164543670107276}, "southwest": {"lat": 51.89652427010728, "lng": -8.16724332989272}}}, "icon": "https://maps.gstatic.com/mapfiles/place_api/icons/v1/png_71/restaurant-71.png", "icon_background_color": "#FF9E67", "icon_mask_base_uri": "https://maps.gstatic.com/mapfiles/place_api/icons/v2/restaurant_pinlet", "name": "Corner House Chinese", "opening_hours": {"open_now": false}, "photos": [{"height": 3456, "html_attributions": ["<a href=\"https://maps.google.com/maps/contrib/105849093834499684637\">A Google User</a>"], "photo_reference": "AUc7tXWlQat4WWBeS0Felp_yi3GJIRGCTDBUGFwKTcg0YnrpEv6PPvByRr7SPXOy1Nolih76WXf_P6gk2aB-28F2k8-ZIs6eLfSkxxeRHicdaT5cWoz7EOnuk5TBmpANIJbPEOH8-lWZ6xIDZCm9Ug7lbZQoxuiO06_CptD4uGnzcRCn4TNN", "width": 4608}], "place_id": "ChIJQS4jDNB8Q0gRrYYd689kdQw", "plus_code": {"compound_code": "VRXM+4J Midleton, County Cork, Ireland", "global_code": "9C3HVRXM+4J"}, "price_level": 2, "rating": 4.3, "reference": "ChIJQS4jDNB8Q0gRrYYd689kdQw", "scope": "GOOGLE", "types": ["meal_takeaway", "restaurant", "food", "point_of_interest", "establishment"], "user_ratings_total": 206, "vicinity": "Main St, Ballynacorra West, Midleton"}]