[{"business_status": "OPERATIONAL", "geometry": {"location": {"lat": 52.2223175, "lng": 21.0124176}, "viewport": {"northeast": {"lat": 52.22365962989272, "lng": 21.01386637989272}, "southwest": {"lat": 52.22095997010727, "lng": 21.01116672010728}}}, "icon": "https://maps.gstatic.com/mapfiles/place_api/icons/v1/png_71/bar-71.png", "icon_background_color": "#FF9E67", "icon_mask_base_uri": "https://maps.gstatic.com/mapfiles/place_api/icons/v2/bar_pinlet", "name": "Beer Station PUB Centrum", "opening_hours": {"open_now": true}, "photos": [{"height": 3024, "html_attributions": ["<a href=\"https://maps.google.com/maps/contrib/114044486754914832734\">Wlod Luka</a>"], "photo_reference": "AUGGfZnDfDQLpArxYEpsYL7sS_KUW6Ll0O_bIuSurlZ7cnIL1P5BAdUNZ9OvjXI2VlO_P6iq8NQIMwPc32TLjhS63VkqrcUQG3oiNPQp7CKBqND7edABa7w5w9jikGHgA831r-aof2cEJZwHcdWVcPm03lzSAqYFVVPJ6H8tJV_HRdiJMGMb", "width": 4032}], "place_id": "ChIJBW0DHQPNHkcRyhl9suGAxjk", "plus_code": {"compound_code": "62C6+WX Warsaw, Poland", "global_code": "9G4362C6+WX"}, "price_level": 2, "rating": 4.7, "reference": "ChIJBW0DHQPNHkcRyhl9suGAxjk", "scope": "GOOGLE", "types": ["bar", "point_of_interest", "establishment"], "user_ratings_total": 589, "vicinity": "Lwowska 17, Warszawa"}, {"business_status": "OPERATIONAL", "geometry": {"location": {"lat": 52.2328395, "lng": 21.024126}, "viewport": {"northeast": {"lat": 52.23406157989272, "lng": 21.02557072989272}, "southwest": {"lat": 52.23136192010728, "lng": 21.02287107010728}}}, "icon": "https://maps.gstatic.com/mapfiles/place_api/icons/v1/png_71/bar-71.png", "icon_background_color": "#FF9E67", "icon_mask_base_uri": "https://maps.gstatic.com/mapfiles/place_api/icons/v2/bar_pinlet", "name": "Emerald Irish Pub", "opening_hours": {"open_now": true}, "photos": [{"height": 3456, "html_attributions": ["<a href=\"https://maps.google.com/maps/contrib/109311337806180354181\">Anna regalado</a>"], "photo_reference": "AUGGfZld4oRbkMCosL7JRch00Cp-QPVfzmZRjxDGyYbotTNL6v4MWQAhG9namEsgaamy0SFAJcmhATUM0tTT0ZiFJ48FHf6X0rGS0fuhHZxTzCSBB_WPXkxgadqtgJ5LfyIGwWPzkcWBqsXwGsFibsUntqCD3jhUPiwhczvczcZr7JhXV_jU", "width": 4608}], "place_id": "ChIJ288_r_fMHkcRVoR7a9ifOKA", "plus_code": {"compound_code": "62MF+4M Warsaw, Poland", "global_code": "9G4362MF+4M"}, "price_level": 2, "rating": 4.5, "reference": "ChIJ288_r_fMHkcRVoR7a9ifOKA", "scope": "GOOGLE", "types": ["bar", "restaurant", "food", "point_of_interest", "establishment"], "user_ratings_total": 1049, "vicinity": "al. Jerozolimskie 4, Warszawa"}, {"business_status": "OPERATIONAL", "geometry": {"location": {"lat": 52.2459999, "lng": 21.012929}, "viewport": {"northeast": {"lat": 52.24729622989271, "lng": 21.01402857989272}, "southwest": {"lat": 52.24459657010727, "lng": 21.01132892010728}}}, "icon": "https://maps.gstatic.com/mapfiles/place_api/icons/v1/png_71/bar-71.png", "icon_background_color": "#FF9E67", "icon_mask_base_uri": "https://maps.gstatic.com/mapfiles/place_api/icons/v2/bar_pinlet", "name": "Irish Pub Miodowa", "opening_hours": {"open_now": true}, "photos": [{"height": 2268, "html_attributions": ["<a href=\"https://maps.google.com/maps/contrib/115472675593038014644\">Erhan \u0130\u015eCAN</a>"], "photo_reference": "AUGGfZlSowtka-eSHTSMkKe624tKjtZytJxZ52TFjYM5U2oDQJsjfQAgP7433itAtSuwh2OOzODZHbQgpR14JPooopolSlqWlTyoNRAFMbDKqfaL-W2SvUipWqC8R1H_Xw7jOJSFQ58qo7zNDc7Dd40iynh6jcEEeGI4mqu8XXsScBEh8ByJ", "width": 4032}], "place_id": "ChIJZ6EmZWbMHkcRVL0jAb8T4OY", "plus_code": {"compound_code": "62W7+95 Warsaw, Poland", "global_code": "9G4362W7+95"}, "price_level": 2, "rating": 4.3, "reference": "ChIJZ6EmZWbMHkcRVL0jAb8T4OY", "scope": "GOOGLE", "types": ["night_club", "bar", "restaurant", "food", "point_of_interest", "establishment"], "user_ratings_total": 2135, "vicinity": "Miodowa 3, Warszawa"}, {"business_status": "OPERATIONAL", "geometry": {"location": {"lat": 52.23121740000001, "lng": 21.0159102}, "viewport": {"northeast": {"lat": 52.23242602989272, "lng": 21.01745727989272}, "southwest": {"lat": 52.22972637010728, "lng": 21.01475762010728}}}, "icon": "https://maps.gstatic.com/mapfiles/place_api/icons/v1/png_71/bar-71.png", "icon_background_color": "#FF9E67", "icon_mask_base_uri": "https://maps.gstatic.com/mapfiles/place_api/icons/v2/bar_pinlet", "name": "Shamrock Irish Sports Bar", "opening_hours": {"open_now": true}, "photos": [{"height": 4096, "html_attributions": ["<a href=\"https://maps.google.com/maps/contrib/108981226328945129898\">\u0410\u0440\u0442\u0443\u0440 \u0414\u043e\u0431\u0440\u0438\u0432\u0435\u0447\u0435\u0440</a>"], "photo_reference": "AUGGfZkjGxe8O1TxeM9ojoLRFl3ATh_B4zyaeWXzUgro9BDior9tGOWLY3IX3DlpUtAEUuwxe-8iy4qnam5rTWdygFvSm4G7e1H0ULCm2FecmtuYDZQ7iMw6-8mkCkmQXAYw_S2T1o-KFSVB5Hah8D6BjDMw-nrMbXS-XkJLl6nJjzUVnS-K", "width": 2304}], "place_id": "ChIJ3T-5KKzNHkcR4B8x6ZLvg6c", "plus_code": {"compound_code": "62J8+F9 Warsaw, Poland", "global_code": "9G4362J8+F9"}, "rating": 4.7, "reference": "ChIJ3T-5KKzNHkcR4B8x6ZLvg6c", "scope": "GOOGLE", "types": ["bar", "point_of_interest", "establishment"], "user_ratings_total": 96, "vicinity": "Krucza 51, Warszawa"}, {"business_status": "OPERATIONAL", "geometry": {"location": {"lat": 52.2327659, "lng": 21.0135408}, "viewport": {"northeast": {"lat": 52.23414747989273, "lng": 21.01480607989272}, "southwest": {"lat": 52.23144782010728, "lng": 21.01210642010728}}}, "icon": "https://maps.gstatic.com/mapfiles/place_api/icons/v1/png_71/bar-71.png", "icon_background_color": "#FF9E67", "icon_mask_base_uri": "https://maps.gstatic.com/mapfiles/place_api/icons/v2/bar_pinlet", "name": "The Shamrock Irish Bar", "opening_hours": {"open_now": true}, "photos": [{"height": 2736, "html_attributions": ["<a href=\"https://maps.google.com/maps/contrib/108142388994546353727\">Lukasz Koziol</a>"], "photo_reference": "AUGGfZkG0f0ZRe3PJEuNpFId8DGO_M0F6LJnIX1nG7ANH5wHMVuDggDO1iVXf1w2LIViZKMu-OohOwwAFJQCht359N2NIx5TI8ZDE0PxD9URk_TRatjqX0oHbJMfdWvO20Sgv6_giAY61g5B0kf-Ut6RM2SAMdP5Yds3L6E9wq51rXdpjyPr", "width": 3648}], "place_id": "ChIJ62iHHwvNHkcRz1R55UuyauE", "plus_code": {"compound_code": "62M7+4C Warsaw, Poland", "global_code": "9G4362M7+4C"}, "price_level": 2, "rating": 4.5, "reference": "ChIJ62iHHwvNHkcRz1R55UuyauE", "scope": "GOOGLE", "types": ["bar", "restaurant", "food", "point_of_interest", "establishment"], "user_ratings_total": 601, "vicinity": "Zgoda 5, Warszawa"}, {"business_status": "OPERATIONAL", "geometry": {"location": {"lat": 52.24445069999999, "lng": 21.0138647}, "viewport": {"northeast": {"lat": 52.24536642989273, "lng": 21.01533892989272}, "southwest": {"lat": 52.24266677010728, "lng": 21.01263927010728}}}, "icon": "https://maps.gstatic.com/mapfiles/place_api/icons/v1/png_71/bar-71.png", "icon_background_color": "#FF9E67", "icon_mask_base_uri": "https://maps.gstatic.com/mapfiles/place_api/icons/v2/bar_pinlet", "name": "Irish Pub Molly Malone's", "opening_hours": {"open_now": true}, "photos": [{"height": 2268, "html_attributions": ["<a href=\"https://maps.google.com/maps/contrib/108227344410890483296\">Kali</a>"], "photo_reference": "AUGGfZkD633Fu7uP8WGf2DZqNIvRZqmVoo2l1FkkzzCq_S7pcLLYyj1y7C5NQ7HUOCSqBD_ILbWUp6XtXc0fOvSKsbFZixwqLkYsjyrcdZpGphURz00s5C1gZw-fa1t70aUwKJ8akzwFkQrXszk8FRGEEJMC4bPgWp8PBzuU19kt91B0B51_", "width": 4032}], "place_id": "ChIJf9n_bW_MHkcRJ85Psj8ohwY", "plus_code": {"compound_code": "62V7+QG Warsaw, Poland", "global_code": "9G4362V7+QG"}, "price_level": 2, "rating": 4, "reference": "ChIJf9n_bW_MHkcRJ85Psj8ohwY", "scope": "GOOGLE", "types": ["bar", "restaurant", "food", "point_of_interest", "establishment"], "user_ratings_total": 2114, "vicinity": "Krakowskie Przedmie\u015bcie 41, Warszawa"}, {"business_status": "OPERATIONAL", "geometry": {"location": {"lat": 52.2309569, "lng": 21.0158664}, "viewport": {"northeast": {"lat": 52.23224417989272, "lng": 21.01729992989272}, "southwest": {"lat": 52.22954452010728, "lng": 21.01460027010728}}}, "icon": "https://maps.gstatic.com/mapfiles/place_api/icons/v1/png_71/bar-71.png", "icon_background_color": "#FF9E67", "icon_mask_base_uri": "https://maps.gstatic.com/mapfiles/place_api/icons/v2/bar_pinlet", "name": "British Bulldog Pub", "opening_hours": {"open_now": true}, "photos": [{"height": 3000, "html_attributions": ["<a href=\"https://maps.google.com/maps/contrib/101681870980740095757\">A Google User</a>"], "photo_reference": "AUGGfZnd17RUTtAu6Pt8qilb1XPIbcDfidqfd6mo2caPgNXLfG4NOA3hM6gejBFWLFPAwkUs_h6KR9XCx28s8IJavDmDjnNc_wDugFwKhC14ul_gTOGYtEi6hNS-WJg9q_sjBwiGZTgKeZl6OHJwKD4b60sID4RIESraqvE13X0w-4DkkkMm", "width": 4000}], "place_id": "ChIJOWdCl_PMHkcRsNYFlClZlko", "plus_code": {"compound_code": "62J8+98 Warsaw, Poland", "global_code": "9G4362J8+98"}, "price_level": 2, "rating": 4.1, "reference": "ChIJOWdCl_PMHkcRsNYFlClZlko", "scope": "GOOGLE", "types": ["bar", "restaurant", "food", "point_of_interest", "establishment"], "user_ratings_total": 3553, "vicinity": "Aleje Jerozolimskie, Krucza 42, r\u00f3g"}, {"business_status": "OPERATIONAL", "geometry": {"location": {"lat": 52.2497015, "lng": 21.010576}, "viewport": {"northeast": {"lat": 52.25098827989272, "lng": 21.01200877989272}, "southwest": {"lat": 52.24828862010727, "lng": 21.00930912010728}}}, "icon": "https://maps.gstatic.com/mapfiles/place_api/icons/v1/png_71/bar-71.png", "icon_background_color": "#FF9E67", "icon_mask_base_uri": "https://maps.gstatic.com/mapfiles/place_api/icons/v2/bar_pinlet", "name": "WarSaw Pub", "opening_hours": {"open_now": true}, "photos": [{"height": 4096, "html_attributions": ["<a href=\"https://maps.google.com/maps/contrib/102726578622958217572\">Bea Bika</a>"], "photo_reference": "AUGGfZm2F1qkGNwWvumZIjIJ7p2TKTw9xXelYG2doWwHk0CzwUyWuUA6JXMZz03xOvoNGZYpOcjfDu1UK5r9QSe97SuuL_wqBn6qKAdtQCCUYh2uMKyGnMdf8j3PMW1r9d5MgPhyTNMqPeF36shaBgpCzlNye7VlnvpXm8qPIVdo2xvjwY3V", "width": 3072}], "place_id": "ChIJVwL-mmXNHkcRyIni32udGO0", "plus_code": {"compound_code": "62X6+V6 Warsaw, Poland", "global_code": "9G4362X6+V6"}, "price_level": 2, "rating": 4.5, "reference": "ChIJVwL-mmXNHkcRyIni32udGO0", "scope": "GOOGLE", "types": ["night_club", "bar", "store", "restaurant", "food", "point_of_interest", "establishment"], "user_ratings_total": 1072, "vicinity": "W\u0105ski Dunaj 10, Warszawa"}, {"business_status": "OPERATIONAL", "geometry": {"location": {"lat": 52.2231129, "lng": 20.9889913}, "viewport": {"northeast": {"lat": 52.22447802989272, "lng": 20.99030307989272}, "southwest": {"lat": 52.22177837010728, "lng": 20.98760342010728}}}, "icon": "https://maps.gstatic.com/mapfiles/place_api/icons/v1/png_71/restaurant-71.png", "icon_background_color": "#FF9E67", "icon_mask_base_uri": "https://maps.gstatic.com/mapfiles/place_api/icons/v2/restaurant_pinlet", "name": "Drugie Dno Ochota - Pizza Pub", "opening_hours": {"open_now": true}, "photos": [{"height": 1229, "html_attributions": ["<a href=\"https://maps.google.com/maps/contrib/111474078245525742735\">A Google User</a>"], "photo_reference": "AUGGfZlGM7FZEOZN4HxG1Iqwf-bIOPSjAsP47JCesGlUiSL-Bth6aHL0QxIRwwOkjxfz8-F2vCbNQuyeO1iMa8Xj8Bot4AUSenaaC_Wt0JRUatujToVTi10sey-4b98pvyX7zzRqicjqNpinuuYaiKrzDRjIxr3jwF1ULG3hwuZ9UILRGZ5k", "width": 2048}], "place_id": "ChIJYWPXhBrNHkcR7rxn2uB-LmQ", "plus_code": {"compound_code": "6XFQ+6H Warsaw, Poland", "global_code": "9G426XFQ+6H"}, "price_level": 2, "rating": 4.6, "reference": "ChIJYWPXhBrNHkcR7rxn2uB-LmQ", "scope": "GOOGLE", "types": ["liquor_store", "bar", "store", "restaurant", "food", "point_of_interest", "establishment"], "user_ratings_total": 915, "vicinity": "Tarczy\u0144ska 5/9, Warszawa"}, {"business_status": "OPERATIONAL", "geometry": {"location": {"lat": 52.2350895, "lng": 21.018839}, "viewport": {"northeast": {"lat": 52.23642002989272, "lng": 21.02006042989272}, "southwest": {"lat": 52.23372037010728, "lng": 21.01736077010728}}}, "icon": "https://maps.gstatic.com/mapfiles/place_api/icons/v1/png_71/bar-71.png", "icon_background_color": "#FF9E67", "icon_mask_base_uri": "https://maps.gstatic.com/mapfiles/place_api/icons/v2/bar_pinlet", "name": "Cybermachina Warszawa", "opening_hours": {"open_now": true}, "photos": [{"height": 2240, "html_attributions": ["<a href=\"https://maps.google.com/maps/contrib/114692905060750547096\">A Google User</a>"], "photo_reference": "AUGGfZnlex3QM4Ma7qVIni7XZ5o1u7-NYbDZhrEQH0xO9ykE9LJ1t1k9HWNl6oOJHtcJHNfH0aSBdeM-wSCK0ES-232_ptz8lnxF3V1ZuoeV4GMc4Wxe0qVOOBFpji8HB16ekXuSdu3AEE4DtDcyD6lY7-oHHn63d8VIre8r4agaLVQYXO1J", "width": 3216}], "place_id": "ChIJ7UVAibjNHkcRN-QmJm3cZiU", "plus_code": {"compound_code": "62P9+2G Warsaw, Poland", "global_code": "9G4362P9+2G"}, "price_level": 2, "rating": 4.7, "reference": "ChIJ7UVAibjNHkcRN-QmJm3cZiU", "scope": "GOOGLE", "types": ["bar", "restaurant", "food", "point_of_interest", "establishment"], "user_ratings_total": 2068, "vicinity": "Wej\u015bcie od strony ul Ga\u0142czy\u0144skiego!, Nowy \u015awiat 54/lok. 39, Warszawa"}, {"business_status": "OPERATIONAL", "geometry": {"location": {"lat": 52.2294795, "lng": 20.9997791}, "viewport": {"northeast": {"lat": 52.23090582989273, "lng": 21.00116202989272}, "southwest": {"lat": 52.22820617010728, "lng": 20.99846237010728}}}, "icon": "https://maps.gstatic.com/mapfiles/place_api/icons/v1/png_71/bar-71.png", "icon_background_color": "#FF9E67", "icon_mask_base_uri": "https://maps.gstatic.com/mapfiles/place_api/icons/v2/bar_pinlet", "name": "Frodo", "opening_hours": {"open_now": true}, "photos": [{"height": 4000, "html_attributions": ["<a href=\"https://maps.google.com/maps/contrib/115088922870006020810\">Frodo</a>"], "photo_reference": "AUGGfZmFatZqGtfZeIQ3sDknvorArGkCrU6bBc3AscuhbZbE86a2hqK3MYy2HK_ay7sv8ywY8j5qZH-40zHrTxkhw74gEhK5rkhTmF6v_z1gNlqzCd-LkdccypWXgv6zckBNb9I1FRRNeJk_8rjGX5ap8AL3Nr6CxZlqaPwsn0CCdx5Lnpoz", "width": 6000}], "place_id": "ChIJ_1dLR_TMHkcR47JkebKyHfY", "plus_code": {"compound_code": "6XHX+QW Warsaw, Poland", "global_code": "9G426XHX+QW"}, "price_level": 2, "rating": 4.4, "reference": "ChIJ_1dLR_TMHkcR47JkebKyHfY", "scope": "GOOGLE", "types": ["bar", "point_of_interest", "establishment"], "user_ratings_total": 475, "vicinity": "Chmielna 98/16, Warszawa"}, {"business_status": "OPERATIONAL", "geometry": {"location": {"lat": 52.22970489999999, "lng": 21.0159944}, "viewport": {"northeast": {"lat": 52.23099242989272, "lng": 21.01736447989272}, "southwest": {"lat": 52.22829277010727, "lng": 21.01466482010727}}}, "icon": "https://maps.gstatic.com/mapfiles/place_api/icons/v1/png_71/bar-71.png", "icon_background_color": "#FF9E67", "icon_mask_base_uri": "https://maps.gstatic.com/mapfiles/place_api/icons/v2/bar_pinlet", "name": "Jabeerwocky Craft Beer Pub", "opening_hours": {"open_now": true}, "photos": [{"height": 3024, "html_attributions": ["<a href=\"https://maps.google.com/maps/contrib/116285396245487101491\">Qinglin Wu</a>"], "photo_reference": "AUGGfZn_mD2tgHubNeMnK0n76f-KeX9tfKRJLe_kDAiP14Qjo7SibAh-nDtIRuGkbY0xlSctmi0CIUIm1xjXir6dCxks68G5Acw6-Y9G6LIC10MZZNQPk4QtZ9jELeZiVztkH1S3PZzAYPJaQ-y3bZBqZc9UP1zz1H1QYeToYJqhuPj5-E0e", "width": 4032}], "place_id": "ChIJuym73_PMHkcRPI95bADsuQg", "plus_code": {"compound_code": "62H8+V9 Warsaw, Poland", "global_code": "9G4362H8+V9"}, "price_level": 2, "rating": 4.6, "reference": "ChIJuym73_PMHkcRPI95bADsuQg", "scope": "GOOGLE", "types": ["bar", "restaurant", "food", "point_of_interest", "establishment"], "user_ratings_total": 4075, "vicinity": "Nowogrodzka 12, Warszawa"}, {"business_status": "OPERATIONAL", "geometry": {"location": {"lat": 52.24988099999999, "lng": 21.0442921}, "viewport": {"northeast": {"lat": 52.25128512989272, "lng": 21.04556062989272}, "southwest": {"lat": 52.24858547010727, "lng": 21.04286097010728}}}, "icon": "https://maps.gstatic.com/mapfiles/place_api/icons/v1/png_71/bar-71.png", "icon_background_color": "#FF9E67", "icon_mask_base_uri": "https://maps.gstatic.com/mapfiles/place_api/icons/v2/bar_pinlet", "name": "KIER Pub Kijanka", "opening_hours": {"open_now": true}, "photos": [{"height": 3024, "html_attributions": ["<a href=\"https://maps.google.com/maps/contrib/112374472464980991947\">A Google User</a>"], "photo_reference": "AUGGfZmds99bSHRATIbqolwS5FLCxeAnyC8tETQ2uBnwvVjvwhnOWsF0dk4Ax71ibNf-b9vhpPTS26XHIWg1XsLuOjofolcttEt9A59dz7_tpzHWh9Z2h4KCaJU8ER0LmQaF1T0fOa9pe5QNyx5_57bVp81e8YhRFK9Aqx0cwAsx8UbNq_GZ", "width": 4032}], "place_id": "ChIJm1k15kjMHkcR6fIv47Mp94k", "plus_code": {"compound_code": "62XV+XP Warsaw, Poland", "global_code": "9G4362XV+XP"}, "price_level": 1, "rating": 4.5, "reference": "ChIJm1k15kjMHkcR6fIv47Mp94k", "scope": "GOOGLE", "types": ["bar", "point_of_interest", "establishment"], "user_ratings_total": 259, "vicinity": "Kijowska 2, Warszawa"}, {"business_status": "OPERATIONAL", "geometry": {"location": {"lat": 52.2329525, "lng": 21.019424}, "viewport": {"northeast": {"lat": 52.23433042989272, "lng": 21.02088722989272}, "southwest": {"lat": 52.23163077010727, "lng": 21.01818757010728}}}, "icon": "https://maps.gstatic.com/mapfiles/place_api/icons/v1/png_71/bar-71.png", "icon_background_color": "#FF9E67", "icon_mask_base_uri": "https://maps.gstatic.com/mapfiles/place_api/icons/v2/bar_pinlet", "name": "Kufle i Kapsle Nowy \u015awiat", "opening_hours": {"open_now": true}, "photos": [{"height": 3472, "html_attributions": ["<a href=\"https://maps.google.com/maps/contrib/112656694481021780832\">sebastian gurski</a>"], "photo_reference": "AUGGfZkZ87VUE7nWbL7DTwklNMAMM2V0X4ZQPQaMfmBrclv-OxuekJrT__DiPoudmR3Y4mUSBjD8GbrlXG00BqunjFLMg_X9dvLLbfuvHPp2FOeAFj253wIeDzCOZ2wvv-BmKoJBW_P0NIfuDJ9vlZkmi6GY_WVZB7a8cMZUHKhCyTYAKQgG", "width": 4640}], "place_id": "ChIJxaqwUkHNHkcRF6d_b7J2Wi8", "plus_code": {"compound_code": "62M9+5Q Warsaw, Poland", "global_code": "9G4362M9+5Q"}, "price_level": 2, "rating": 4.5, "reference": "ChIJxaqwUkHNHkcRF6d_b7J2Wi8", "scope": "GOOGLE", "types": ["bar", "restaurant", "food", "point_of_interest", "establishment"], "user_ratings_total": 281, "vicinity": "Nowy \u015awiat 27, Warszawa"}, {"business_status": "OPERATIONAL", "geometry": {"location": {"lat": 52.2291959, "lng": 21.0146314}, "viewport": {"northeast": {"lat": 52.23058737989273, "lng": 21.01597602989272}, "southwest": {"lat": 52.22788772010728, "lng": 21.01327637010728}}}, "icon": "https://maps.gstatic.com/mapfiles/place_api/icons/v1/png_71/bar-71.png", "icon_background_color": "#FF9E67", "icon_mask_base_uri": "https://maps.gstatic.com/mapfiles/place_api/icons/v2/bar_pinlet", "name": "Kufle i Kapsle", "opening_hours": {"open_now": true}, "photos": [{"height": 2304, "html_attributions": ["<a href=\"https://maps.google.com/maps/contrib/100029838520365034220\">Miros\u0142aw O\u015bciak</a>"], "photo_reference": "AUGGfZkpA7CkUpgLpPkEw-Fk3T15ib8Rc6Ns2Ksx7S5GG41O007YvH2oKU0mBdRAyIIKQ9YhjF3iQiZ7tFJGSWwfYIFl_n8NCHH_TmBFRc8d5rleE59sk3oXqTjuhqM3fd27L7b6vJmB_zvaEwG7DzWOv0dUXynqrz4gUKd0SDgThK0TPLkC", "width": 4096}], "place_id": "ChIJnejoz_PMHkcRaCxRp8HyO10", "plus_code": {"compound_code": "62H7+MV Warsaw, Poland", "global_code": "9G4362H7+MV"}, "price_level": 2, "rating": 4.6, "reference": "ChIJnejoz_PMHkcRaCxRp8HyO10", "scope": "GOOGLE", "types": ["bar", "restaurant", "food", "point_of_interest", "establishment"], "user_ratings_total": 3657, "vicinity": "Nowogrodzka 25, Warszawa"}, {"business_status": "OPERATIONAL", "geometry": {"location": {"lat": 52.2327591, "lng": 21.01902}, "viewport": {"northeast": {"lat": 52.23411337989272, "lng": 21.02038847989272}, "southwest": {"lat": 52.23141372010728, "lng": 21.01768882010727}}}, "icon": "https://maps.gstatic.com/mapfiles/place_api/icons/v1/png_71/bar-71.png", "icon_background_color": "#FF9E67", "icon_mask_base_uri": "https://maps.gstatic.com/mapfiles/place_api/icons/v2/bar_pinlet", "name": "In Side. Pub", "opening_hours": {"open_now": true}, "photos": [{"height": 2736, "html_attributions": ["<a href=\"https://maps.google.com/maps/contrib/108801340826304871461\">Arek</a>"], "photo_reference": "AUGGfZk5-42TYzG8Ijqkl4L4vn40JKyueXiOAuNZnApqWCXsZVKEXyf0JEqjFd1EQk9cPB8GuRk_oGm95Q1BsawRlG2FqCl9vvI3Dx9SgQrvpW-FvnwfqGkr5tXrIJG-yJVauqNjJWdHk-pXv99Ho6gv2ONL9tgZhUOQ0KeZGx240CtS6M6z", "width": 3648}], "place_id": "ChIJB7gMhfbMHkcRvDVORamNJmM", "plus_code": {"compound_code": "62M9+4J Warsaw, Poland", "global_code": "9G4362M9+4J"}, "price_level": 1, "rating": 4.5, "reference": "ChIJB7gMhfbMHkcRvDVORamNJmM", "scope": "GOOGLE", "types": ["bar", "restaurant", "food", "point_of_interest", "establishment"], "user_ratings_total": 1081, "vicinity": "Nowy \u015awiat 23/25 Warszawa"}, {"business_status": "OPERATIONAL", "geometry": {"location": {"lat": 52.2326212, "lng": 21.0157091}, "viewport": {"northeast": {"lat": 52.23394467989272, "lng": 21.01691357989272}, "southwest": {"lat": 52.23124502010727, "lng": 21.01421392010728}}}, "icon": "https://maps.gstatic.com/mapfiles/place_api/icons/v1/png_71/bar-71.png", "icon_background_color": "#FF9E67", "icon_mask_base_uri": "https://maps.gstatic.com/mapfiles/place_api/icons/v2/bar_pinlet", "name": "Przystanek W\u00f3deczka by Chmielnik", "opening_hours": {"open_now": true}, "photos": [{"height": 3366, "html_attributions": ["<a href=\"https://maps.google.com/maps/contrib/117650847237715474722\">Oleg Samoilov</a>"], "photo_reference": "AUGGfZlQi7yHRDAf0DmFOvIyOgwF0QCMBgxp2YP9uiindKctlLIZUD9IqsLJqF3cpHDRLlOOWmt2BcMnaF9p4eS6U5w96hRo5FoCd0lcYLSo0OAFeXAVadW2nwwOIHR1fGF6kGX_xEDdjcdddoe9upvYdWlxaNeyErJFjSDhOqCmNC5dx58D", "width": 5984}], "place_id": "ChIJjyzsQfTMHkcR_NcrYZcKIzE", "plus_code": {"compound_code": "62M8+27 Warsaw, Poland", "global_code": "9G4362M8+27"}, "price_level": 2, "rating": 4.4, "reference": "ChIJjyzsQfTMHkcR_NcrYZcKIzE", "scope": "GOOGLE", "types": ["cafe", "bar", "restaurant", "food", "point_of_interest", "establishment"], "user_ratings_total": 1183, "vicinity": "Chmielna 20, Warszawa"}, {"business_status": "OPERATIONAL", "geometry": {"location": {"lat": 52.2363034, "lng": 21.0063881}, "viewport": {"northeast": {"lat": 52.23768252989272, "lng": 21.00782797989272}, "southwest": {"lat": 52.23498287010727, "lng": 21.00512832010728}}}, "icon": "https://maps.gstatic.com/mapfiles/place_api/icons/v1/png_71/bar-71.png", "icon_background_color": "#FF9E67", "icon_mask_base_uri": "https://maps.gstatic.com/mapfiles/place_api/icons/v2/bar_pinlet", "name": "PI\u0118TRO NI\u017bEJ | CRAFT BEER PUB", "opening_hours": {"open_now": true}, "photos": [{"height": 3456, "html_attributions": ["<a href=\"https://maps.google.com/maps/contrib/108211791724806353362\">Marcin M\u0105dry</a>"], "photo_reference": "AUGGfZm2R7ITvQRaBvfbwSMvFrwkvVLpuowWVsqgossA5mieA5fhT5ut0idxlRLY3mxhYFJFc0o-NvceKZQsTTv2n3OwhfJGAG6ykBQ3KOUWmaqFnIQa0v0fLvAsB0QAzy_Qa9Awg-EWOCRPXksr0JC6M8AV_rMM99ukw_jZRi-BE2lv1K1n", "width": 5184}], "place_id": "ChIJScddSIrMHkcRqQWAiRbclAs", "plus_code": {"compound_code": "62P4+GH Warsaw, Poland", "global_code": "9G4362P4+GH"}, "price_level": 2, "rating": 4.4, "reference": "ChIJScddSIrMHkcRqQWAiRbclAs", "scope": "GOOGLE", "types": ["liquor_store", "night_club", "bar", "store", "restaurant", "food", "point_of_interest", "establishment"], "user_ratings_total": 541, "vicinity": "Zielna 39, Warszawa"}, {"business_status": "OPERATIONAL", "geometry": {"location": {"lat": 52.2328464, "lng": 21.0202753}, "viewport": {"northeast": {"lat": 52.23414507989272, "lng": 21.02142637989272}, "southwest": {"lat": 52.23144542010728, "lng": 21.01872672010728}}}, "icon": "https://maps.gstatic.com/mapfiles/place_api/icons/v1/png_71/bar-71.png", "icon_background_color": "#FF9E67", "icon_mask_base_uri": "https://maps.gstatic.com/mapfiles/place_api/icons/v2/bar_pinlet", "name": "Precedens", "opening_hours": {"open_now": true}, "photos": [{"height": 3000, "html_attributions": ["<a href=\"https://maps.google.com/maps/contrib/102629674474864947874\">Anna Luczynska</a>"], "photo_reference": "AUGGfZm7R--5qLEmmgvffyblfiuBDJdpkJfwlU9MomRSp3QLp8S-hrVDmvgTRHnZmianKWfWL52yZMlhgQ7Al_ntS_ZXiG-acKZc8-Cp4K-Vk7CqzzJa8Djxf-vHI0-lueBXxAvAKkEaUX-3MOFMnrWGv3OjdMgr-AL3srgVo3q7zp2Japf3", "width": 4000}], "place_id": "ChIJL3pYifbMHkcRdfNORQ8gLZM", "plus_code": {"compound_code": "62MC+44 Warsaw, Poland", "global_code": "9G4362MC+44"}, "price_level": 1, "rating": 4.4, "reference": "ChIJL3pYifbMHkcRdfNORQ8gLZM", "scope": "GOOGLE", "types": ["bar", "point_of_interest", "establishment"], "user_ratings_total": 336, "vicinity": "Nowy \u015awiat 22/28, Warszawa"}, {"business_status": "OPERATIONAL", "geometry": {"location": {"lat": 52.2338733, "lng": 21.021153}, "viewport": {"northeast": {"lat": 52.23513172989272, "lng": 21.02227117989272}, "southwest": {"lat": 52.23243207010727, "lng": 21.01957152010728}}}, "icon": "https://maps.gstatic.com/mapfiles/place_api/icons/v1/png_71/bar-71.png", "icon_background_color": "#FF9E67", "icon_mask_base_uri": "https://maps.gstatic.com/mapfiles/place_api/icons/v2/bar_pinlet", "name": "PiwPaw Beer Heaven", "opening_hours": {"open_now": true}, "photos": [{"height": 3024, "html_attributions": ["<a href=\"https://maps.google.com/maps/contrib/102833714325246903037\">Rafa\u0142 Kunstman</a>"], "photo_reference": "AUGGfZlebgP8nDa_KXJhriK6HAZ8-yv11aVc47iWKMd9VPKUO6QPJOSlq1h9QdzvI140LV1h5IM1SGXV9l0xH6IH3jIudzobOG79eAYjhic2N7qZBM_5gf8YClY-eIXXZ7uhWv7bjyEB0KXxbR6UdqnO4Y0ae_WnWgX1zFOz-HM9sJeL6tAF", "width": 4032}], "place_id": "ChIJ1frIb_bMHkcR6fbOwwb3vy4", "plus_code": {"compound_code": "62MC+GF Warsaw, Poland", "global_code": "9G4362MC+GF"}, "price_level": 2, "rating": 4.5, "reference": "ChIJ1frIb_bMHkcR6fbOwwb3vy4", "scope": "GOOGLE", "types": ["bar", "restaurant", "food", "point_of_interest", "establishment"], "user_ratings_total": 4953, "vicinity": "Foksal 16, Warszawa"}]