[{"business_status": "OPERATIONAL", "geometry": {"location": {"lat": 52.0925484, "lng": 5.122641799999999}, "viewport": {"northeast": {"lat": 52.09391327989272, "lng": 5.123960579892722}, "southwest": {"lat": 52.09121362010728, "lng": 5.121260920107278}}}, "icon": "https://maps.gstatic.com/mapfiles/place_api/icons/v1/png_71/bar-71.png", "icon_background_color": "#FF9E67", "icon_mask_base_uri": "https://maps.gstatic.com/mapfiles/place_api/icons/v2/bar_pinlet", "name": "Mick O'Connells", "opening_hours": {"open_now": false}, "photos": [{"height": 2592, "html_attributions": ["<a href=\"https://maps.google.com/maps/contrib/102665150943571255577\">D. Mai</a>"], "photo_reference": "AUGGfZlYXpq_pLd6s5KoN1N3aaX4oyrx-cOxDku-aGT_TtIubkmT5DMSBYTg6iJpX6OxKjm3Z6o49vXJlA_vvkmGhEZorCXt-fQcijmHdpN0Cjm8tTR3VIeb0Twxulrq2vqjsJYCWGjPfaCHV9ZLL4HleLKwv_-9gOZ5CqIojAn1hmglCr5k", "width": 4608}], "place_id": "ChIJ1fOaZUVvxkcRvx-WJgUtiNg", "plus_code": {"compound_code": "34VF+23 Utrecht", "global_code": "9F4734VF+23"}, "price_level": 2, "rating": 4.2, "reference": "ChIJ1fOaZUVvxkcRvx-WJgUtiNg", "scope": "GOOGLE", "types": ["bar", "restaurant", "food", "point_of_interest", "establishment"], "user_ratings_total": 1779, "vicinity": "Jansdam 3, Utrecht"}, {"business_status": "OPERATIONAL", "geometry": {"location": {"lat": 52.089962, "lng": 5.1177057}, "viewport": {"northeast": {"lat": 52.09128967989272, "lng": 5.118955729892722}, "southwest": {"lat": 52.08859002010728, "lng": 5.116256070107278}}}, "icon": "https://maps.gstatic.com/mapfiles/place_api/icons/v1/png_71/bar-71.png", "icon_background_color": "#FF9E67", "icon_mask_base_uri": "https://maps.gstatic.com/mapfiles/place_api/icons/v2/bar_pinlet", "name": "Little Dublin", "opening_hours": {"open_now": false}, "photos": [{"height": 1080, "html_attributions": ["<a href=\"https://maps.google.com/maps/contrib/108150358281175385139\">A Google User</a>"], "photo_reference": "AUGGfZkEfwTomCv2BqIbkJXMMQ-MJm7CQv8lwmFJL3eTmtYcHagfcSz404FYlIcc8RuLmS6H8-UBHSJ8E919geWDajYpdWStw4M8qaceh6sXuJBZehr8R4DjPuvaismBAwc5AjySFA8e_rQ5NJwr_9tp-VG-7OUTST7GII2N4etGB2RDtFHw", "width": 1920}], "place_id": "ChIJjWakrWJvxkcRQ1WQONtY5ZI", "plus_code": {"compound_code": "34Q9+X3 Utrecht", "global_code": "9F4734Q9+X3"}, "rating": 4.3, "reference": "ChIJjWakrWJvxkcRQ1WQONtY5ZI", "scope": "GOOGLE", "types": ["bar", "restaurant", "food", "point_of_interest", "establishment"], "user_ratings_total": 225, "vicinity": "Mariaplaats 8, Utrecht"}, {"business_status": "OPERATIONAL", "geometry": {"location": {"lat": 52.086133, "lng": 5.1072177}, "viewport": {"northeast": {"lat": 52.08753552989272, "lng": 5.108759129892721}, "southwest": {"lat": 52.08483587010728, "lng": 5.106059470107277}}}, "icon": "https://maps.gstatic.com/mapfiles/place_api/icons/v1/png_71/bar-71.png", "icon_background_color": "#FF9E67", "icon_mask_base_uri": "https://maps.gstatic.com/mapfiles/place_api/icons/v2/bar_pinlet", "name": "Uncle Jim", "opening_hours": {"open_now": true}, "photos": [{"height": 3024, "html_attributions": ["<a href=\"https://maps.google.com/maps/contrib/106140384671129590660\">A Google User</a>"], "photo_reference": "AUGGfZnjqhpkexZS_eo1Y8oZA9EqYDbRZ9VQi-B_2sOp1TwyyNLphX3yo6GMdY8zKWSKQRgnrKm4wKssEfoPiP6o0rlplwJKK80_jCmc6DOz4wjWr-qG-Y_G7qq4mhxHTIwCWyzpcr5gCV3BbL_Nt-ZqTPOsu-lrZbX2ddIzaZ5g8aLETmsB", "width": 4032}], "place_id": "ChIJW47b4vdvxkcR9ykfLTFUiJs", "plus_code": {"compound_code": "34P4+FV Utrecht", "global_code": "9F4734P4+FV"}, "price_level": 2, "rating": 4.2, "reference": "ChIJW47b4vdvxkcR9ykfLTFUiJs", "scope": "GOOGLE", "types": ["bar", "restaurant", "food", "point_of_interest", "establishment"], "user_ratings_total": 708, "vicinity": "Croeselaan 91, Utrecht"}, {"business_status": "OPERATIONAL", "geometry": {"location": {"lat": 52.0906327, "lng": 5.1156758}, "viewport": {"northeast": {"lat": 52.09169027989272, "lng": 5.11833695}, "southwest": {"lat": 52.08899062010727, "lng": 5.11478875}}}, "icon": "https://maps.gstatic.com/mapfiles/place_api/icons/v1/png_71/bar-71.png", "icon_background_color": "#FF9E67", "icon_mask_base_uri": "https://maps.gstatic.com/mapfiles/place_api/icons/v2/bar_pinlet", "name": "Belgisch Biercaf\u00e9 Olivier Utrecht", "opening_hours": {"open_now": true}, "photos": [{"height": 3456, "html_attributions": ["<a href=\"https://maps.google.com/maps/contrib/110912298028976905777\">Niels Tukker</a>"], "photo_reference": "AUGGfZnQvnycC27rI6CVb2VPyDUgEShbYv7Ts6J7GZD2w86dWe6IAE9RZtiRBlo-MMjTPtlYJfA0Lz1VmY_J46O-quYYXntBI4LzPs3abJPk3ht3jufjIoSGHiRjg0yJSIaX1UpUztyGqOXZwBmzy9-dpopSvzruTfK_4Zn6t_-_2XdVK-Le", "width": 4608}], "place_id": "ChIJ_dlisFxvxkcRA3Fd4GPCQ9Y", "plus_code": {"compound_code": "34R8+77 Utrecht", "global_code": "9F4734R8+77"}, "price_level": 2, "rating": 4.5, "reference": "ChIJ_dlisFxvxkcRA3Fd4GPCQ9Y", "scope": "GOOGLE", "types": ["bar", "cafe", "restaurant", "food", "point_of_interest", "establishment"], "user_ratings_total": 7876, "vicinity": "Achter Clarenburg 6A, Utrecht"}, {"business_status": "OPERATIONAL", "geometry": {"location": {"lat": 52.0917848, "lng": 5.1099109}, "viewport": {"northeast": {"lat": 52.09351247989272, "lng": 5.112438099999999}, "southwest": {"lat": 52.09081282010727, "lng": 5.1090685}}}, "icon": "https://maps.gstatic.com/mapfiles/place_api/icons/v1/png_71/restaurant-71.png", "icon_background_color": "#FF9E67", "icon_mask_base_uri": "https://maps.gstatic.com/mapfiles/place_api/icons/v2/restaurant_pinlet", "name": "the U food & drinks", "opening_hours": {"open_now": true}, "photos": [{"height": 1920, "html_attributions": ["<a href=\"https://maps.google.com/maps/contrib/107190170237126369480\">A Google User</a>"], "photo_reference": "AUGGfZkISsf3_O_7zoGhsfFtl9dcWIItmAKNxlKIufu-129FR_w7dd55m5GTP4Gdvgrpm8yjPID9ZqDO5Bh5Vec5WTm179ckMaw-45BD65BJKa9VsrNrNGSa2Hw2gQWFsEp7k7dQaiCB6rfmT2DGubwXLm18yatosRXGgz-e0AtAlYMV9dSx", "width": 2880}], "place_id": "ChIJtW9Ig_VvxkcRZq5oCGFEAeA", "plus_code": {"compound_code": "34R5+PX Utrecht", "global_code": "9F4734R5+PX"}, "rating": 3.2, "reference": "ChIJtW9Ig_VvxkcRZq5oCGFEAeA", "scope": "GOOGLE", "types": ["restaurant", "bar", "food", "point_of_interest", "establishment"], "user_ratings_total": 17, "vicinity": "Smakkelaarshoek 24, Utrecht"}, {"business_status": "OPERATIONAL", "geometry": {"location": {"lat": 52.0894962, "lng": 5.1182596}, "viewport": {"northeast": {"lat": 52.09091952989272, "lng": 5.119325529892722}, "southwest": {"lat": 52.08821987010727, "lng": 5.116625870107278}}}, "icon": "https://maps.gstatic.com/mapfiles/place_api/icons/v1/png_71/restaurant-71.png", "icon_background_color": "#FF9E67", "icon_mask_base_uri": "https://maps.gstatic.com/mapfiles/place_api/icons/v2/restaurant_pinlet", "name": "Jozef eten & drinken", "opening_hours": {"open_now": true}, "photos": [{"height": 3456, "html_attributions": ["<a href=\"https://maps.google.com/maps/contrib/115894532982725369148\">Markus Wolf</a>"], "photo_reference": "AUGGfZkHU47mhxfzuYK04gXv0DuFG6CUlqCRq3oI5rt9MqWdI-pcRCbp0Yk6efaow25A9GThGX_0SMjc8KD4vfolOekaGfB3j_rjzVayjYioI2gImFoovC35HW3-H7ApHHNHtr2F0wa5AHqedC-_h-say4XLs9Rb546buwWwZ3-7nDziSlna", "width": 4608}], "place_id": "ChIJg0VMFltvxkcRUSMjZOf2xcI", "plus_code": {"compound_code": "34Q9+Q8 Utrecht", "global_code": "9F4734Q9+Q8"}, "price_level": 2, "rating": 4.2, "reference": "ChIJg0VMFltvxkcRUSMjZOf2xcI", "scope": "GOOGLE", "types": ["restaurant", "bar", "food", "point_of_interest", "establishment"], "user_ratings_total": 2106, "vicinity": "Mariaplaats 50, Utrecht"}, {"business_status": "OPERATIONAL", "geometry": {"location": {"lat": 52.0890097, "lng": 5.1215227}, "viewport": {"northeast": {"lat": 52.09035357989272, "lng": 5.122825629892722}, "southwest": {"lat": 52.08765392010727, "lng": 5.120125970107278}}}, "icon": "https://maps.gstatic.com/mapfiles/place_api/icons/v1/png_71/bar-71.png", "icon_background_color": "#FF9E67", "icon_mask_base_uri": "https://maps.gstatic.com/mapfiles/place_api/icons/v2/bar_pinlet", "name": "Kaf\u00e9 Belgi\u00eb", "opening_hours": {"open_now": true}, "photos": [{"height": 1054, "html_attributions": ["<a href=\"https://maps.google.com/maps/contrib/100777579699038269680\">Douglas Koster</a>"], "photo_reference": "AUGGfZmx_d34VEeejf09l5n2dehG0AcIXQZr5o3sXK2BU_vWd-WTsVE_UOfehaLa-iU2t7jc3M2Mx2t01qNiU0QSQ90_5apaSfdDVq_GGWKfakbtrJKPJcGUDWBCQpD2yzd1cisfIM3IBnIEhCv6sRNK6Buz9xfOUQZQeRAxjTyWVd9HmwfM", "width": 1299}], "place_id": "ChIJW5MOkVpvxkcRDYqgo2pLGBY", "plus_code": {"compound_code": "34QC+JJ Utrecht", "global_code": "9F4734QC+JJ"}, "price_level": 2, "rating": 4.5, "reference": "ChIJW5MOkVpvxkcRDYqgo2pLGBY", "scope": "GOOGLE", "types": ["bar", "cafe", "restaurant", "food", "point_of_interest", "establishment"], "user_ratings_total": 2477, "vicinity": "Oudegracht 196, Utrecht"}, {"business_status": "OPERATIONAL", "geometry": {"location": {"lat": 52.0906698, "lng": 5.1208959}, "viewport": {"northeast": {"lat": 52.09228777989272, "lng": 5.123224350000001}, "southwest": {"lat": 52.08958812010728, "lng": 5.120119749999998}}}, "icon": "https://maps.gstatic.com/mapfiles/place_api/icons/v1/png_71/bar-71.png", "icon_background_color": "#FF9E67", "icon_mask_base_uri": "https://maps.gstatic.com/mapfiles/place_api/icons/v2/bar_pinlet", "name": "Lebowski", "opening_hours": {"open_now": true}, "photos": [{"height": 2988, "html_attributions": ["<a href=\"https://maps.google.com/maps/contrib/104726768074291327580\">Paul Henri</a>"], "photo_reference": "AUGGfZn8Q-2cP_FV6uIENGH8RbtGpdrKotKCp8OGBuob_wGbo3eNX8lOOPTuz9mAeC3154-y4X3Gf7Kg4rrZjchj6eGLL4awxBl1QmNKjfMmlxN00RIKesfrYk69jKWo52M67xZmODr41hUXxOSOl_C1-Vg-swAbgGl4Kp9Y5dOsjouhQ7fQ", "width": 5312}], "place_id": "ChIJi0Jay1pvxkcRDcw0S5AAuYs", "plus_code": {"compound_code": "34RC+79 Utrecht", "global_code": "9F4734RC+79"}, "price_level": 2, "rating": 4.2, "reference": "ChIJi0Jay1pvxkcRDcw0S5AAuYs", "scope": "GOOGLE", "types": ["bar", "cafe", "restaurant", "food", "point_of_interest", "establishment"], "user_ratings_total": 2324, "vicinity": "Domplein 17, Utrecht"}, {"business_status": "OPERATIONAL", "geometry": {"location": {"lat": 52.0928754, "lng": 5.119053999999999}, "viewport": {"northeast": {"lat": 52.09433752989272, "lng": 5.120626029892721}, "southwest": {"lat": 52.09163787010728, "lng": 5.117926370107277}}}, "icon": "https://maps.gstatic.com/mapfiles/place_api/icons/v1/png_71/restaurant-71.png", "icon_background_color": "#FF9E67", "icon_mask_base_uri": "https://maps.gstatic.com/mapfiles/place_api/icons/v2/restaurant_pinlet", "name": "De Beurs", "opening_hours": {"open_now": true}, "photos": [{"height": 3228, "html_attributions": ["<a href=\"https://maps.google.com/maps/contrib/111078264694581233407\">Go 360</a>"], "photo_reference": "AUGGfZmQBaiMEUcjUZE7vAqwvFIBVwFz1UPYF-vWtPnWTwlEPNdTZyHoog13hZ8ka9OCzg1obMrjn-jKwVQ6UFGF4qgclE08AV46ZRZoeTZLm9KFYqTlPzhr2ss_EMZ1-FT4Z9PAxXWp3bR6W5t4nnKgMUTLz_85MVx-zXNF-OeihA8U8pNf", "width": 5008}], "place_id": "ChIJgTjP70RvxkcRYyK1YtHqngA", "plus_code": {"compound_code": "34V9+5J Utrecht", "global_code": "9F4734V9+5J"}, "price_level": 2, "rating": 3.8, "reference": "ChIJgTjP70RvxkcRYyK1YtHqngA", "scope": "GOOGLE", "types": ["restaurant", "bar", "food", "point_of_interest", "establishment"], "user_ratings_total": 1749, "vicinity": "Neude 37-39, Utrecht"}, {"business_status": "OPERATIONAL", "geometry": {"location": {"lat": 52.099145, "lng": 5.115677300000001}, "viewport": {"northeast": {"lat": 52.10051962989272, "lng": 5.117009329892722}, "southwest": {"lat": 52.09781997010728, "lng": 5.114309670107279}}}, "icon": "https://maps.gstatic.com/mapfiles/place_api/icons/v1/png_71/restaurant-71.png", "icon_background_color": "#FF9E67", "icon_mask_base_uri": "https://maps.gstatic.com/mapfiles/place_api/icons/v2/restaurant_pinlet", "name": "O'leary's", "opening_hours": {"open_now": false}, "photos": [{"height": 2736, "html_attributions": ["<a href=\"https://maps.google.com/maps/contrib/111542201295607880476\">Cees de Jager</a>"], "photo_reference": "AUGGfZkWENCotFMDRH1LI4wfKo3mKQ3TVcKydrIUBdrWrp9dy2_yT18Q4A6fjix8gUlf9ZpsPUERJlbpdezCMBXcPifTomAjxK9AzOJRd2_34Cu3ICRefIiKcUHzmImRese7Kl4Tnlo6mFwevmQ84wsQLu24hUQZMymL0RueeEyDO2fr2h2p", "width": 3648}], "place_id": "ChIJ-9Mw4kBvxkcREIMw-pucKbE", "plus_code": {"compound_code": "34X8+J7 Utrecht", "global_code": "9F4734X8+J7"}, "price_level": 1, "rating": 4.5, "reference": "ChIJ-9Mw4kBvxkcREIMw-pucKbE", "scope": "GOOGLE", "types": ["restaurant", "food", "point_of_interest", "establishment"], "user_ratings_total": 408, "vicinity": "Adelaarstraat 23, Utrecht"}, {"business_status": "OPERATIONAL", "geometry": {"location": {"lat": 52.0765373, "lng": 5.121426}, "viewport": {"northeast": {"lat": 52.07799072989273, "lng": 5.123010229892722}, "southwest": {"lat": 52.07529107010728, "lng": 5.120310570107279}}}, "icon": "https://maps.gstatic.com/mapfiles/place_api/icons/v1/png_71/bar-71.png", "icon_background_color": "#FF9E67", "icon_mask_base_uri": "https://maps.gstatic.com/mapfiles/place_api/icons/v2/bar_pinlet", "name": "Taplokaal Gist", "opening_hours": {"open_now": false}, "photos": [{"height": 3000, "html_attributions": ["<a href=\"https://maps.google.com/maps/contrib/113076940558652459873\">Orlando M. Rodr\u00edguez Neef</a>"], "photo_reference": "AUGGfZkow0RX0cspmfzBgDYK5W5u5QwI4sYBk0mVa1utrfnmSwzviwSlx7Ac3W0jOy7_pLojWKIpdNUdupxwEPXTytlGhPyYlcDD8p1LoUYv93ZFPxa7wnNNgRH4i6XilY0jBz_FsbmXbFT6YDCktV-WhQNsHuV8uLImfJGJsc6C9xMJrXwX", "width": 4000}], "place_id": "ChIJne4yo_llxkcRpUMEA-34gWs", "plus_code": {"compound_code": "34GC+JH Utrecht", "global_code": "9F4734GC+JH"}, "price_level": 2, "rating": 4.5, "reference": "ChIJne4yo_llxkcRpUMEA-34gWs", "scope": "GOOGLE", "types": ["bar", "restaurant", "food", "point_of_interest", "establishment"], "user_ratings_total": 758, "vicinity": "Helling 9, Utrecht"}, {"business_status": "OPERATIONAL", "geometry": {"location": {"lat": 52.092098, "lng": 5.1162155}, "viewport": {"northeast": {"lat": 52.09375592989272, "lng": 5.118044829892722}, "southwest": {"lat": 52.09105627010727, "lng": 5.115345170107278}}}, "icon": "https://maps.gstatic.com/mapfiles/place_api/icons/v1/png_71/restaurant-71.png", "icon_background_color": "#FF9E67", "icon_mask_base_uri": "https://maps.gstatic.com/mapfiles/place_api/icons/v2/restaurant_pinlet", "name": "Firma Pickles Burgers & Wines", "opening_hours": {"open_now": true}, "photos": [{"height": 3024, "html_attributions": ["<a href=\"https://maps.google.com/maps/contrib/100954193406653781292\">Toon Stappers</a>"], "photo_reference": "AUGGfZm4iT5Wf2NL2ZPwYMM42O3ao7ywc5rN3D2iHWfxR03RnSKEg4qC4WHBrck6JgeiMFNZDBp3a9QQ2af3xEOxFQrO-z-85zNJ0JJ4olN3Gd2h6YdhklBxN_hyPXKLW9KM_3OK4umyai2PY4Pbgk_nbXw7b-_iVk-lEkeTlHD73KfcZASm", "width": 3024}], "place_id": "ChIJ8fbCXkNvxkcR1v2ciYKnhdc", "plus_code": {"compound_code": "34R8+RF Utrecht", "global_code": "9F4734R8+RF"}, "price_level": 2, "rating": 4.3, "reference": "ChIJ8fbCXkNvxkcR1v2ciYKnhdc", "scope": "GOOGLE", "types": ["bar", "restaurant", "food", "point_of_interest", "establishment"], "user_ratings_total": 1665, "vicinity": "Drieharingstraat 1, Utrecht"}, {"business_status": "OPERATIONAL", "geometry": {"location": {"lat": 52.0819312, "lng": 5.1235275}, "viewport": {"northeast": {"lat": 52.08321112989272, "lng": 5.124909779892722}, "southwest": {"lat": 52.08051147010728, "lng": 5.122210120107278}}}, "icon": "https://maps.gstatic.com/mapfiles/place_api/icons/v1/png_71/restaurant-71.png", "icon_background_color": "#FF9E67", "icon_mask_base_uri": "https://maps.gstatic.com/mapfiles/place_api/icons/v2/restaurant_pinlet", "name": "Eetcaf\u00e9 de Poort Utrecht", "opening_hours": {"open_now": true}, "photos": [{"height": 2877, "html_attributions": ["<a href=\"https://maps.google.com/maps/contrib/102325602810457123193\">Ben van de Ree</a>"], "photo_reference": "AUGGfZmZUEBj84fncN7ATG93XnT77HxWXydUUm0Nojt7Ac2YuSYr1qOpGZwpKYxvW5htGGPwI3hLlkogctkYZ7RgrzubBNnGMrQSho-uUr6Z0nWUNIuWZDifR_HyHdu-3fcouD09Gmy7VhryjmgwhIHdXZlGLRRPhfb7wCQREO2rtJ6CZwpB", "width": 5560}], "place_id": "ChIJl1hWuldvxkcRaFEI-_PBBYs", "plus_code": {"compound_code": "34JF+QC Utrecht", "global_code": "9F4734JF+QC"}, "price_level": 2, "rating": 4.2, "reference": "ChIJl1hWuldvxkcRaFEI-_PBBYs", "scope": "GOOGLE", "types": ["bar", "restaurant", "food", "point_of_interest", "establishment"], "user_ratings_total": 1386, "vicinity": "Tolsteegbarri\u00e8re 2, Utrecht"}, {"business_status": "OPERATIONAL", "geometry": {"location": {"lat": 52.0901431, "lng": 5.110804}, "viewport": {"northeast": {"lat": 52.09149292989273, "lng": 5.112153829892722}, "southwest": {"lat": 52.08879327010729, "lng": 5.109454170107278}}}, "icon": "https://maps.gstatic.com/mapfiles/place_api/icons/v1/png_71/generic_business-71.png", "icon_background_color": "#7B9EB0", "icon_mask_base_uri": "https://maps.gstatic.com/mapfiles/place_api/icons/v2/generic_pinlet", "name": "Beton Bar Central Station", "opening_hours": {"open_now": true}, "photos": [{"height": 3024, "html_attributions": ["<a href=\"https://maps.google.com/maps/contrib/106943186144715761536\">A Google User</a>"], "photo_reference": "AUGGfZlOeT3Rkg19XwiI3BsbBUbzdwttZMgh7CvloSlmZhc94ONzf9owyTZU0r-4D4gw6ub8Exp1whu9bRqzJfsR5ELVuYj9mnTV38hynz6XG_DchoCklSNgWk58u-_F8mDL3ATA3uMHlF8AG2CuQEQ2SOlhyEQMd8JoUyqlckZwjFtt7J6w", "width": 4032}], "place_id": "ChIJl9UJhmdvxkcR5S1q3CNha98", "plus_code": {"compound_code": "34R6+38 Utrecht", "global_code": "9F4734R6+38"}, "price_level": 2, "rating": 3.9, "reference": "ChIJl9UJhmdvxkcR5S1q3CNha98", "scope": "GOOGLE", "types": ["cafe", "restaurant", "food", "point_of_interest", "store", "establishment"], "user_ratings_total": 508, "vicinity": "Stationshal 2 - 9 1e verdieping Centrumzijde, Utrecht"}, {"business_status": "OPERATIONAL", "geometry": {"location": {"lat": 52.0925313, "lng": 5.1221681}, "viewport": {"northeast": {"lat": 52.09385932989272, "lng": 5.123540829892721}, "southwest": {"lat": 52.09115967010727, "lng": 5.120841170107277}}}, "icon": "https://maps.gstatic.com/mapfiles/place_api/icons/v1/png_71/restaurant-71.png", "icon_background_color": "#FF9E67", "icon_mask_base_uri": "https://maps.gstatic.com/mapfiles/place_api/icons/v2/restaurant_pinlet", "name": "KARAF food & drinks", "opening_hours": {"open_now": true}, "photos": [{"height": 800, "html_attributions": ["<a href=\"https://maps.google.com/maps/contrib/114886167384197805331\">A Google User</a>"], "photo_reference": "AUGGfZk_dgx7lRB9VkZ7PZ1OX7XTyq503Y4DM45ORJH5sH8oaGahKMHXYuG3ZnIY0ekq6fnlKn6BgRFRq2V2uAHQ89smWRXvJwVaxquG5zuoPhVRYwj0fZR_f56mN3nGYXQizMWpeEsWPvNFoAw_PjgymZ8JYeMR1-Yrw1xkffVnJmeCRe60", "width": 1200}], "place_id": "ChIJD2fpOJ5vxkcRpmCu9B9CB0U", "plus_code": {"compound_code": "34RC+XV Utrecht", "global_code": "9F4734RC+XV"}, "price_level": 2, "rating": 4.5, "reference": "ChIJD2fpOJ5vxkcRpmCu9B9CB0U", "scope": "GOOGLE", "types": ["restaurant", "food", "point_of_interest", "establishment"], "user_ratings_total": 676, "vicinity": "Korte Jansstraat 13-15, Utrecht"}, {"business_status": "OPERATIONAL", "geometry": {"location": {"lat": 52.0911994, "lng": 5.0901893}, "viewport": {"northeast": {"lat": 52.09257782989272, "lng": 5.09164207989272}, "southwest": {"lat": 52.08987817010728, "lng": 5.088942420107276}}}, "icon": "https://maps.gstatic.com/mapfiles/place_api/icons/v1/png_71/restaurant-71.png", "icon_background_color": "#FF9E67", "icon_mask_base_uri": "https://maps.gstatic.com/mapfiles/place_api/icons/v2/restaurant_pinlet", "name": "Caf\u00e9 De Windhoek", "opening_hours": {"open_now": true}, "photos": [{"height": 576, "html_attributions": ["<a href=\"https://maps.google.com/maps/contrib/101028623732408592340\">A Google User</a>"], "photo_reference": "AUGGfZlyJmgAtW-mTF0K9IHg2lfNmjHT6mNCybMGxrO9IylXzMXSVQOzVDt_1GcTAOcgMrnv8N4kuU6OIHm_XtY88C6Z-KuTSGUsIotrcBro5sa41-MLVJIM17qpINRF_hkRqLQTq2qL3SQABstF18fiGFGvr3oaMg2VBuuK6QjQl4RI2Qox", "width": 1024}], "place_id": "ChIJy9UeHHpvxkcRPgrLnXSfnhE", "plus_code": {"compound_code": "33RR+F3 Utrecht", "global_code": "9F4733RR+F3"}, "price_level": 2, "rating": 4.3, "reference": "ChIJy9UeHHpvxkcRPgrLnXSfnhE", "scope": "GOOGLE", "types": ["liquor_store", "bar", "restaurant", "food", "point_of_interest", "store", "establishment"], "user_ratings_total": 144, "vicinity": "Laan van Nieuw Guinea 39, Utrecht"}, {"business_status": "OPERATIONAL", "geometry": {"location": {"lat": 52.0921643, "lng": 5.1131115}, "viewport": {"northeast": {"lat": 52.09337447989272, "lng": 5.113983029892721}, "southwest": {"lat": 52.09067482010727, "lng": 5.111283370107278}}}, "icon": "https://maps.gstatic.com/mapfiles/place_api/icons/v1/png_71/restaurant-71.png", "icon_background_color": "#FF9E67", "icon_mask_base_uri": "https://maps.gstatic.com/mapfiles/place_api/icons/v2/restaurant_pinlet", "name": "Kitchen Bar Danel", "opening_hours": {"open_now": true}, "photos": [{"height": 1667, "html_attributions": ["<a href=\"https://maps.google.com/maps/contrib/117148772988248316687\">A Google User</a>"], "photo_reference": "AUGGfZlrdYFBHqNSBZ4PmasbSwc3uqN8ZhYB922SEHgbkVRfC8U7GfhqPeygLcBYnGP6hu70VyFXyxQ8QiSrxWERhpKtYSHuURGZQIYwesvoOrA5CrSl1sHaR9scRGXoTXDwr4NiBrfWLDDhzDRrTtrKvgTYisrympQWMCIFM0hBzDEm8_UQ", "width": 2500}], "place_id": "ChIJFwAAQFtvxkcR6nkyWuFYW8s", "plus_code": {"compound_code": "34R7+V6 Utrecht", "global_code": "9F4734R7+V6"}, "price_level": 2, "rating": 3.8, "reference": "ChIJFwAAQFtvxkcR6nkyWuFYW8s", "scope": "GOOGLE", "types": ["restaurant", "bar", "food", "point_of_interest", "establishment"], "user_ratings_total": 674, "vicinity": "Vredenburgkade 11, Utrecht"}, {"business_status": "OPERATIONAL", "geometry": {"location": {"lat": 52.08270220000001, "lng": 5.1401713}, "viewport": {"northeast": {"lat": 52.08411557989272, "lng": 5.141576179892722}, "southwest": {"lat": 52.08141592010728, "lng": 5.138876520107278}}}, "icon": "https://maps.gstatic.com/mapfiles/place_api/icons/v1/png_71/restaurant-71.png", "icon_background_color": "#FF9E67", "icon_mask_base_uri": "https://maps.gstatic.com/mapfiles/place_api/icons/v2/restaurant_pinlet", "name": "Van Ostade", "opening_hours": {"open_now": true}, "photos": [{"height": 3498, "html_attributions": ["<a href=\"https://maps.google.com/maps/contrib/102325602810457123193\">Ben van de Ree</a>"], "photo_reference": "AUGGfZl7Pu5m8bmXn9qFiRVHQQPP3Swy9-Q-8iMv8DI304So_wF5zS29K3G2Bb6SLSuhJSB4AmoG-uJmoEfdWyWrHmMa7GU6yfP4XmXDjIBFIoGPrEJVTfGV3T0lxjg5K7QvsWUnTUkORMGEFlmMZL2zb8EWemMQG73IgwzeukZXVhjuQXAN", "width": 7337}], "place_id": "ChIJF9PHxatoxkcRr1D6M8xBZPs", "plus_code": {"compound_code": "34MR+33 Utrecht", "global_code": "9F4734MR+33"}, "price_level": 2, "rating": 4.3, "reference": "ChIJF9PHxatoxkcRr1D6M8xBZPs", "scope": "GOOGLE", "types": ["restaurant", "food", "point_of_interest", "establishment"], "user_ratings_total": 397, "vicinity": "Adriaen van Ostadelaan 65, Utrecht"}, {"business_status": "OPERATIONAL", "geometry": {"location": {"lat": 52.0941345, "lng": 5.119316200000001}, "viewport": {"northeast": {"lat": 52.09551187989273, "lng": 5.120614279892722}, "southwest": {"lat": 52.09281222010728, "lng": 5.117914620107278}}}, "icon": "https://maps.gstatic.com/mapfiles/place_api/icons/v1/png_71/restaurant-71.png", "icon_background_color": "#FF9E67", "icon_mask_base_uri": "https://maps.gstatic.com/mapfiles/place_api/icons/v2/restaurant_pinlet", "name": "Dogma Hotdogbar", "opening_hours": {"open_now": true}, "photos": [{"height": 4032, "html_attributions": ["<a href=\"https://maps.google.com/maps/contrib/103206192538685725026\">Bas</a>"], "photo_reference": "AUGGfZlvSRAKt__EXIkx9t2jEuzDUU17J6uRJZYwhbsUC0vC9cYbMC6kA5BTMkiDteqOrwRAjfjO4npnOlIVPmskvnddoMzZN43LF5oh8q5vA0FZ_kylNnGTSavMrtz_CSwWpo_jT6FCnV8ifsRdCZ1bRqvSwR-ELqOZe0T_VqxHPpqHyjop", "width": 3024}], "place_id": "ChIJ2-ifWkRvxkcRru7Sx2kCRRc", "plus_code": {"compound_code": "34V9+JP Utrecht", "global_code": "9F4734V9+JP"}, "price_level": 2, "rating": 4.5, "reference": "ChIJ2-ifWkRvxkcRru7Sx2kCRRc", "scope": "GOOGLE", "types": ["restaurant", "food", "point_of_interest", "establishment"], "user_ratings_total": 1269, "vicinity": "Voorstraat 17, Utrecht"}, {"business_status": "OPERATIONAL", "geometry": {"location": {"lat": 52.09190950000001, "lng": 5.1167415}, "viewport": {"northeast": {"lat": 52.09364857989272, "lng": 5.118245029892721}, "southwest": {"lat": 52.09094892010727, "lng": 5.115545370107277}}}, "icon": "https://maps.gstatic.com/mapfiles/place_api/icons/v1/png_71/restaurant-71.png", "icon_background_color": "#FF9E67", "icon_mask_base_uri": "https://maps.gstatic.com/mapfiles/place_api/icons/v2/restaurant_pinlet", "name": "Beers & Barrels Utrecht", "opening_hours": {"open_now": true}, "photos": [{"height": 1800, "html_attributions": ["<a href=\"https://maps.google.com/maps/contrib/113955296530343290589\">chris hughes</a>"], "photo_reference": "AUGGfZn73GXSJVlgedu9mEQTFA3keA-TMETKFJ2clLDBg37GuQGZOGrXpsqkBSTvpreCjv0xRb6LKIGSFYjD1xVHDFA1iEVLgtMyd8VhQ1e32aqeeMZksQBhozISdEE3CgYT5dxs79dt7qCRf-Ha7MV_xdHzImS99pCP0HGFW4OwGyDkM1U", "width": 4000}], "place_id": "ChIJM5dFoERvxkcR3qQLcGbrVkk", "plus_code": {"compound_code": "34R8+QM Utrecht", "global_code": "9F4734R8+QM"}, "price_level": 2, "rating": 4.3, "reference": "ChIJM5dFoERvxkcR3qQLcGbrVkk", "scope": "GOOGLE", "types": ["restaurant", "food", "point_of_interest", "establishment"], "user_ratings_total": 3398, "vicinity": "Oudegracht aan de Werf 125, Utrecht"}]