[{"business_status": "OPERATIONAL", "geometry": {"location": {"lat": 29.4667421, "lng": -98.50120869999999}, "viewport": {"northeast": {"lat": 29.46805722989273, "lng": -98.49986057010727}, "southwest": {"lat": 29.46535757010728, "lng": -98.50256022989272}}}, "icon": "https://maps.gstatic.com/mapfiles/place_api/icons/v1/png_71/bar-71.png", "icon_background_color": "#FF9E67", "icon_mask_base_uri": "https://maps.gstatic.com/mapfiles/place_api/icons/v2/bar_pinlet", "name": "LadyBird Beer Garden", "opening_hours": {"open_now": true}, "photos": [{"height": 3000, "html_attributions": ["<a href=\"https://maps.google.com/maps/contrib/110524471263087118997\">mark spencer</a>"], "photo_reference": "AUc7tXVKDPi3IKwMVLQFGHTp2RYX5d2f5wP7nAZzCCMB88DG2FH6mMZHllqYkAPXExccROTPVxGtjLWXf_pz98IkF_CIcxM6MGyusEjMkpNs8SgkVQQP3HDW8XVilikzQTMzeQOdk4rMwJmmJUVO_4ohHGhqkvX3sc4L2oOeD8zAeQ0qC8g7", "width": 4000}], "place_id": "ChIJLciFIMVfXIYREXXCxpUCiDc", "plus_code": {"compound_code": "FF8X+PG San Antonio, Texas, USA", "global_code": "76X3FF8X+PG"}, "price_level": 2, "rating": 4.3, "reference": "ChIJLciFIMVfXIYREXXCxpUCiDc", "scope": "GOOGLE", "types": ["bar", "restaurant", "food", "point_of_interest", "establishment"], "user_ratings_total": 144, "vicinity": "447 W Hildebrand Ave, San Antonio"}, {"business_status": "OPERATIONAL", "geometry": {"location": {"lat": 29.46412, "lng": -98.50760389999999}, "viewport": {"northeast": {"lat": 29.46539542989272, "lng": -98.50617697010728}, "southwest": {"lat": 29.46269577010727, "lng": -98.50887662989273}}}, "icon": "https://maps.gstatic.com/mapfiles/place_api/icons/v1/png_71/restaurant-71.png", "icon_background_color": "#FF9E67", "icon_mask_base_uri": "https://maps.gstatic.com/mapfiles/place_api/icons/v2/restaurant_pinlet", "name": "Chris Madrid's", "opening_hours": {"open_now": true}, "photos": [{"height": 1960, "html_attributions": ["<a href=\"https://maps.google.com/maps/contrib/110644867337197614397\">LOVE 1052</a>"], "photo_reference": "AUc7tXV_v7zuqU8n3aQ8deUxT2pAcuF21qtnBD6G5htfoauoWmEJq819Smr1sa8dObEa-u-t4MIrUxpjTGrbXezEQr9JnBbydtcnU3oXAv-ZyRf5lHA1xmfIUrIBHahrFiQkQ8xJq6jWKAZfeQfvF2Mm1evKSiao4V5HB_LbfICjewKZPTxp", "width": 4032}], "place_id": "ChIJ2QQjnwxfXIYRe1f2EB5sCzE", "plus_code": {"compound_code": "FF7R+PX San Antonio, Texas, USA", "global_code": "76X3FF7R+PX"}, "price_level": 2, "rating": 4.5, "reference": "ChIJ2QQjnwxfXIYRe1f2EB5sCzE", "scope": "GOOGLE", "types": ["bar", "restaurant", "food", "point_of_interest", "establishment"], "user_ratings_total": 5935, "vicinity": "1900 Blanco Rd, San Antonio"}, {"business_status": "OPERATIONAL", "geometry": {"location": {"lat": 29.4490357, "lng": -98.5077142}, "viewport": {"northeast": {"lat": 29.45041322989272, "lng": -98.50635732010728}, "southwest": {"lat": 29.44771357010727, "lng": -98.50905697989273}}}, "icon": "https://maps.gstatic.com/mapfiles/place_api/icons/v1/png_71/bar-71.png", "icon_background_color": "#FF9E67", "icon_mask_base_uri": "https://maps.gstatic.com/mapfiles/place_api/icons/v2/bar_pinlet", "name": "Web House Caf\u00e9 & Bar", "opening_hours": {"open_now": false}, "photos": [{"height": 3024, "html_attributions": ["<a href=\"https://maps.google.com/maps/contrib/112625081575139691410\">Steve Young</a>"], "photo_reference": "AUc7tXVM_si9O8rYchgR8DSaHLMGvwVZWEPZ4xUL7rA-8COeTDUpK-JNlfRQk2Mq6pGD21qKqG_e1SndoT8cMZMtdCtXODglyYwtmKR5oNPaArBJZGdNHmM_ocCq1IEoQvk69N2JHm6Uuf4HhvLGLm7kv2UyKXmzCX7ixcZVjT4vszX9jW9m", "width": 4032}], "place_id": "ChIJ3xnpFRVfXIYRsMlLrVSGAdI", "plus_code": {"compound_code": "CFXR+HW San Antonio, Texas, USA", "global_code": "76X3CFXR+HW"}, "price_level": 1, "rating": 4.5, "reference": "ChIJ3xnpFRVfXIYRsMlLrVSGAdI", "scope": "GOOGLE", "types": ["cafe", "bar", "finance", "restaurant", "food", "point_of_interest", "establishment"], "user_ratings_total": 590, "vicinity": "320 Blanco Rd, San Antonio"}, {"business_status": "OPERATIONAL", "geometry": {"location": {"lat": 29.4621219, "lng": -98.5080639}, "viewport": {"northeast": {"lat": 29.46343202989273, "lng": -98.50669062010728}, "southwest": {"lat": 29.46073237010728, "lng": -98.50939027989273}}}, "icon": "https://maps.gstatic.com/mapfiles/place_api/icons/v1/png_71/restaurant-71.png", "icon_background_color": "#FF9E67", "icon_mask_base_uri": "https://maps.gstatic.com/mapfiles/place_api/icons/v2/restaurant_pinlet", "name": "SoHill Cafe", "opening_hours": {"open_now": false}, "photos": [{"height": 2976, "html_attributions": ["<a href=\"https://maps.google.com/maps/contrib/112625081575139691410\">Steve Young</a>"], "photo_reference": "AUc7tXW6EhQHjLFGb2lTkxumB_U9GT769LHFLuqiiAy5EZpck5W8SaqMY36mLkdm8xPSVLVbuRZ2wsNNlo33RfVq2XiCsiiheshZbOvj4iJGxQdIR8KP6C2p8ezBQfuNwbvTP8kaJuHrSc6eyHqFiYbjF-HGDvoN9-yhRCacoLEHIsvT-Zs5", "width": 3968}], "place_id": "ChIJgXy7UhxfXIYREJBMBebNdL4", "plus_code": {"compound_code": "FF6R+RQ San Antonio, Texas, USA", "global_code": "76X3FF6R+RQ"}, "price_level": 2, "rating": 4.7, "reference": "ChIJgXy7UhxfXIYREJBMBebNdL4", "scope": "GOOGLE", "types": ["bar", "restaurant", "food", "point_of_interest", "establishment"], "user_ratings_total": 349, "vicinity": "1719 Blanco Rd, San Antonio"}, {"business_status": "OPERATIONAL", "geometry": {"location": {"lat": 29.4557113, "lng": -98.51711139999999}, "viewport": {"northeast": {"lat": 29.45709582989272, "lng": -98.51571872010727}, "southwest": {"lat": 29.45439617010728, "lng": -98.51841837989271}}}, "icon": "https://maps.gstatic.com/mapfiles/place_api/icons/v1/png_71/restaurant-71.png", "icon_background_color": "#FF9E67", "icon_mask_base_uri": "https://maps.gstatic.com/mapfiles/place_api/icons/v2/restaurant_pinlet", "name": "The Lighthouse Seafood", "opening_hours": {"open_now": true}, "photos": [{"height": 5312, "html_attributions": ["<a href=\"https://maps.google.com/maps/contrib/113413643775606310350\">Nick Windy</a>"], "photo_reference": "AUc7tXXutrFAU9GYkkzo06CScrDtkY9SMpAkMBgaDiE67fG4qtIvSGyA4epd7IFHGOe2hGq3TiQsK7l46UYqdJNa8l7Ikx9WsbczsFLy56X3qyHxbkZEQqykELt6OyC-3mZS7-bOaGnHd09EePeHRmO3xAB24UARkWH9lulOEiETzDGuX4Jx", "width": 2988}], "place_id": "ChIJ6-_UeBBfXIYRX-UtpvhlJ8U", "plus_code": {"compound_code": "FF4M+75 San Antonio, Texas, USA", "global_code": "76X3FF4M+75"}, "price_level": 1, "rating": 4.6, "reference": "ChIJ6-_UeBBfXIYRX-UtpvhlJ8U", "scope": "GOOGLE", "types": ["restaurant", "food", "point_of_interest", "establishment"], "user_ratings_total": 946, "vicinity": "1212 Fredericksburg Rd, San Antonio"}, {"business_status": "OPERATIONAL", "geometry": {"location": {"lat": 29.4623017, "lng": -98.50811279999999}, "viewport": {"northeast": {"lat": 29.46362807989272, "lng": -98.50665557010727}, "southwest": {"lat": 29.46092842010728, "lng": -98.50935522989272}}}, "icon": "https://maps.gstatic.com/mapfiles/place_api/icons/v1/png_71/restaurant-71.png", "icon_background_color": "#FF9E67", "icon_mask_base_uri": "https://maps.gstatic.com/mapfiles/place_api/icons/v2/restaurant_pinlet", "name": "Julias Bistro & Bar", "opening_hours": {"open_now": false}, "photos": [{"height": 3024, "html_attributions": ["<a href=\"https://maps.google.com/maps/contrib/108491364700653097161\">A Google User</a>"], "photo_reference": "AUc7tXUhH3cGRKQPjPogEfmpZ91HoolkuNATTGtDQ-ZEsrXhWTZVa4NxkrtFiMtn05KvbCVXaYOuydnf64bXLaLpesBDgDONCX5ACPLOVtIBFrdKEKaLHUAYfx_Mp88WfnheQ0MjIMf4-TizHac--Y2MEYnvVgE-nCjdv3AbBhfqSBppDIeG", "width": 4032}], "place_id": "ChIJ9-YULTtfXIYRS7FZqo7ryaE", "plus_code": {"compound_code": "FF6R+WQ San Antonio, Texas, USA", "global_code": "76X3FF6R+WQ"}, "rating": 4.7, "reference": "ChIJ9-YULTtfXIYRS7FZqo7ryaE", "scope": "GOOGLE", "types": ["bar", "restaurant", "food", "point_of_interest", "establishment"], "user_ratings_total": 291, "vicinity": "1725 Blanco Rd, San Antonio"}, {"business_status": "OPERATIONAL", "geometry": {"location": {"lat": 29.438034, "lng": -98.502545}, "viewport": {"northeast": {"lat": 29.43929902989272, "lng": -98.50113937010728}, "southwest": {"lat": 29.43659937010727, "lng": -98.50383902989273}}}, "icon": "https://maps.gstatic.com/mapfiles/place_api/icons/v1/png_71/restaurant-71.png", "icon_background_color": "#FF9E67", "icon_mask_base_uri": "https://maps.gstatic.com/mapfiles/place_api/icons/v2/restaurant_pinlet", "name": "M.K. Davis Restaurant", "opening_hours": {"open_now": true}, "photos": [{"height": 3024, "html_attributions": ["<a href=\"https://maps.google.com/maps/contrib/111162090963849337949\">Noah Villanueva</a>"], "photo_reference": "AUc7tXUgRKWvgdZXm7HadSvHOMuvzYOfK8vvCZbQzfb3HuFl62aPOsOYw7K6zxpPjp65CpQLww1zz0saOKNj99ND_UNslmnGgibi0IZffDf-366r4x3SNaPoie5iTZvkhIA_kx_TuTmDicYoUFJ0-ZYxLUzbdkVZJkyFuZtIuo4Ygt9NaUrt", "width": 4032}], "place_id": "ChIJNTNOREZfXIYRoEMTWFikkow", "plus_code": {"compound_code": "CFQW+6X San Antonio, Texas, USA", "global_code": "76X3CFQW+6X"}, "price_level": 2, "rating": 4.4, "reference": "ChIJNTNOREZfXIYRoEMTWFikkow", "scope": "GOOGLE", "types": ["bar", "restaurant", "food", "point_of_interest", "establishment"], "user_ratings_total": 3918, "vicinity": "1302 N Flores St, San Antonio"}, {"business_status": "OPERATIONAL", "geometry": {"location": {"lat": 29.450612, "lng": -98.52411049999999}, "viewport": {"northeast": {"lat": 29.45197452989273, "lng": -98.52284797010728}, "southwest": {"lat": 29.44927487010728, "lng": -98.52554762989273}}}, "icon": "https://maps.gstatic.com/mapfiles/place_api/icons/v1/png_71/restaurant-71.png", "icon_background_color": "#FF9E67", "icon_mask_base_uri": "https://maps.gstatic.com/mapfiles/place_api/icons/v2/restaurant_pinlet", "name": "Diana's Burgers", "opening_hours": {"open_now": true}, "photos": [{"height": 3024, "html_attributions": ["<a href=\"https://maps.google.com/maps/contrib/114655767508117908590\">Larry Reed</a>"], "photo_reference": "AUc7tXWRRNOI1a5dIutpCRbh9tOn5mi46-1tue80RojmsiBhylUMjvrFsoEZf1dxTnhQZCJQdml_crKEKSswX1M7ybLTDBdC3zi5ua3PtvsMd0YemjIU-jlwZOraghcuSgzxeP19egj9xCztfx3eSt5u3vxBTSdvNg_Sb5JrlxFLiJm3JQxF", "width": 4032}], "place_id": "ChIJdTt4lR5fXIYRLd4yeZKOcm0", "plus_code": {"compound_code": "FF2G+68 San Antonio, Texas, USA", "global_code": "76X3FF2G+68"}, "price_level": 1, "rating": 4.6, "reference": "ChIJdTt4lR5fXIYRLd4yeZKOcm0", "scope": "GOOGLE", "types": ["restaurant", "food", "point_of_interest", "establishment"], "user_ratings_total": 1251, "vicinity": "2202 N Zarzamora St, San Antonio"}, {"business_status": "OPERATIONAL", "geometry": {"location": {"lat": 29.4770336, "lng": -98.5392727}, "viewport": {"northeast": {"lat": 29.47844087989272, "lng": -98.53784582010728}, "southwest": {"lat": 29.47574122010728, "lng": -98.54054547989273}}}, "icon": "https://maps.gstatic.com/mapfiles/place_api/icons/v1/png_71/restaurant-71.png", "icon_background_color": "#FF9E67", "icon_mask_base_uri": "https://maps.gstatic.com/mapfiles/place_api/icons/v2/restaurant_pinlet", "name": "Taqueria La Tapatia # 8", "opening_hours": {"open_now": true}, "photos": [{"height": 3024, "html_attributions": ["<a href=\"https://maps.google.com/maps/contrib/113236955628882510146\">Sergio Flores</a>"], "photo_reference": "AUc7tXXyaAEVnoPgmS0ClWj0UKQk8ZYSIVR5MRIehVZ-lYyCQ1kDUQPAOJgUehuARZOHXELE-AhsvIRQwv7r_fK2oFGk9xGUWwcIP2ZR4JVxnVorz6OJ4DQNVXOCwPzbnVE39sY13NX16FdzeAYIVBwSStDi7paDT4vU-uMVY_a4jbrh36_c", "width": 4032}], "place_id": "ChIJQTSdOqpcXIYR0cq0mIk4LhI", "plus_code": {"compound_code": "FFG6+R7 San Antonio, Texas, USA", "global_code": "76X3FFG6+R7"}, "price_level": 2, "rating": 3.7, "reference": "ChIJQTSdOqpcXIYR0cq0mIk4LhI", "scope": "GOOGLE", "types": ["restaurant", "food", "point_of_interest", "establishment"], "user_ratings_total": 1776, "vicinity": "3555 Fredericksburg Rd, San Antonio"}, {"business_status": "CLOSED_TEMPORARILY", "geometry": {"location": {"lat": 29.4614614, "lng": -98.52344710000001}, "viewport": {"northeast": {"lat": 29.46288932989272, "lng": -98.52209842010728}, "southwest": {"lat": 29.46018967010728, "lng": -98.52479807989273}}}, "icon": "https://maps.gstatic.com/mapfiles/place_api/icons/v1/png_71/restaurant-71.png", "icon_background_color": "#FF9E67", "icon_mask_base_uri": "https://maps.gstatic.com/mapfiles/place_api/icons/v2/restaurant_pinlet", "name": "Deco Pizzeria", "permanently_closed": true, "photos": [{"height": 3024, "html_attributions": ["<a href=\"https://maps.google.com/maps/contrib/110423550040382618184\">Michelle McWilliams</a>"], "photo_reference": "AUc7tXVWamO7mKRYg_vih0QvQRC-7WpX6Kvh_L030nAfXLkfWNb9X_J90sBoZKsfiZRrdvV7IcPQyMs0EfFeuwGAUjTygyKUhSypSqq8NiMHSvI0HIxHqyw1TRGYwS7LjJCFmCVXPBe3lJTl6IHBjnoMmIRsRsXRH1ENEQ7jBeOuP05c6KLq", "width": 4032}], "place_id": "ChIJnQjUkQNfXIYR6v35Vm0sm84", "plus_code": {"compound_code": "FF6G+HM San Antonio, Texas, USA", "global_code": "76X3FF6G+HM"}, "price_level": 2, "rating": 4.2, "reference": "ChIJnQjUkQNfXIYR6v35Vm0sm84", "scope": "GOOGLE", "types": ["meal_takeaway", "bar", "restaurant", "food", "point_of_interest", "establishment"], "user_ratings_total": 974, "vicinity": "1815 Fredericksburg Rd, San Antonio"}, {"business_status": "CLOSED_TEMPORARILY", "geometry": {"location": {"lat": 29.4429891, "lng": -98.4943622}, "viewport": {"northeast": {"lat": 29.44433962989272, "lng": -98.49297487010728}, "southwest": {"lat": 29.44163997010727, "lng": -98.49567452989272}}}, "icon": "https://maps.gstatic.com/mapfiles/place_api/icons/v1/png_71/restaurant-71.png", "icon_background_color": "#FF9E67", "icon_mask_base_uri": "https://maps.gstatic.com/mapfiles/place_api/icons/v2/restaurant_pinlet", "name": "Luther's Cafe", "permanently_closed": true, "photos": [{"height": 2824, "html_attributions": ["<a href=\"https://maps.google.com/maps/contrib/113706584688524244338\">Fry Guy</a>"], "photo_reference": "AUc7tXU315h7rNhmIBt_s-tMKYaZ8d73pNdpGPGlbk-JaDSXNO5RNzN-sc-923yudbeMhJrWauSn4sd38nDDgCv4mUyiWhrOO2ep6Nx7nCsZPhsB_QKIvWwG01su7tppnPrESP2ufWMxKgx5fT-RLvCTtl2KUjRUGOyRVr2K0UO8cELME5Ck", "width": 3764}], "place_id": "ChIJ6Vo_plxfXIYR4386tvFIfpM", "plus_code": {"compound_code": "CGV4+56 San Antonio, Texas, USA", "global_code": "76X3CGV4+56"}, "price_level": 2, "rating": 3.9, "reference": "ChIJ6Vo_plxfXIYR4386tvFIfpM", "scope": "GOOGLE", "types": ["bar", "restaurant", "food", "point_of_interest", "establishment"], "user_ratings_total": 1527, "vicinity": "1503 N Main Ave, San Antonio"}]