[{"business_status": "OPERATIONAL", "geometry": {"location": {"lat": 52.523, "lng": 13.4073341}, "viewport": {"northeast": {"lat": 52.52435417989272, "lng": 13.40849427989272}, "southwest": {"lat": 52.52165452010728, "lng": 13.40579462010728}}}, "icon": "https://maps.gstatic.com/mapfiles/place_api/icons/v1/png_71/bar-71.png", "icon_background_color": "#FF9E67", "icon_mask_base_uri": "https://maps.gstatic.com/mapfiles/place_api/icons/v2/bar_pinlet", "name": "The Pub", "opening_hours": {"open_now": true}, "photos": [{"height": 3263, "html_attributions": ["<a href=\"https://maps.google.com/maps/contrib/110058889479386637399\">The Pub</a>"], "photo_reference": "AUGGfZkvUAeh_sn8HqLIC5dw3jBYoRjz2qZxSxEC1444-JzCPIuuqnYNnpdGpwRwB3tGcuNdGGk28ydgnlFbKAjgkizIRoWTBPiYyx_xEY5wRDPrPhHax14iLtiT62JI_9i4GwA8oJqwGILq_klmnU3FDELSXXajcIKubn8qvuce9cuDP_hB", "width": 4926}], "place_id": "ChIJlczQJOBRqEcRXVYk4DrcCSo", "plus_code": {"compound_code": "GCF4+5W Berlin, Germany", "global_code": "9F4MGCF4+5W"}, "price_level": 2, "rating": 4.4, "reference": "ChIJlczQJOBRqEcRXVYk4DrcCSo", "scope": "GOOGLE", "types": ["bar", "restaurant", "food", "point_of_interest", "establishment"], "user_ratings_total": 2581, "vicinity": "Rochstra\u00dfe 14, Berlin"}, {"business_status": "OPERATIONAL", "geometry": {"location": {"lat": 52.522491, "lng": 13.401438}, "viewport": {"northeast": {"lat": 52.52387382989272, "lng": 13.40224477989272}, "southwest": {"lat": 52.52117417010728, "lng": 13.39954512010728}}}, "icon": "https://maps.gstatic.com/mapfiles/place_api/icons/v1/png_71/bar-71.png", "icon_background_color": "#FF9E67", "icon_mask_base_uri": "https://maps.gstatic.com/mapfiles/place_api/icons/v2/bar_pinlet", "name": "Kilkenny Irish Pub", "opening_hours": {"open_now": true}, "photos": [{"height": 1800, "html_attributions": ["<a href=\"https://maps.google.com/maps/contrib/115458018905763143262\">A Google User</a>"], "photo_reference": "AUGGfZk8qDZq6mICo6Nk2B8InTY7AyuGZL0J8ELf-T3NOlpbaqeQaCbqnhNLKacqFAqYNNZv5dRc45mXQKvpiVMokM1V3YDNnVsYVw8hQyQ5tZxigQkmitL8kjQpAHCslAMsLl2rpPrEJaeDrBQXmBtqFYObN_vVpi7Ru_SAnfdLcpFtg47s", "width": 4000}], "place_id": "ChIJs8oZleBRqEcRsBeU5Vog2pM", "plus_code": {"compound_code": "GCC2+XH Berlin, Germany", "global_code": "9F4MGCC2+XH"}, "price_level": 2, "rating": 4.3, "reference": "ChIJs8oZleBRqEcRsBeU5Vog2pM", "scope": "GOOGLE", "types": ["bar", "restaurant", "food", "point_of_interest", "establishment"], "user_ratings_total": 5457, "vicinity": "Am Zwirngraben 17-20, Berlin"}, {"business_status": "OPERATIONAL", "geometry": {"location": {"lat": 52.5223503, "lng": 13.3873539}, "viewport": {"northeast": {"lat": 52.52368392989272, "lng": 13.38878632989272}, "southwest": {"lat": 52.52098427010728, "lng": 13.38608667010728}}}, "icon": "https://maps.gstatic.com/mapfiles/place_api/icons/v1/png_71/bar-71.png", "icon_background_color": "#FF9E67", "icon_mask_base_uri": "https://maps.gstatic.com/mapfiles/place_api/icons/v2/bar_pinlet", "name": "Murphy\u2019s Irish Pub", "opening_hours": {"open_now": true}, "photos": [{"height": 2160, "html_attributions": ["<a href=\"https://maps.google.com/maps/contrib/102174169118810055021\">Thomas Schneider</a>"], "photo_reference": "AUGGfZnfjepbi11U1PEYUifIY5c5VRE4q-ziWzcPCcHRwwfnnUIoe8hqzcRxEwraoquMEuwO7VeDIq5sPXXzar_A4b0rl627jPICvcbi69i5AF3Xu_fHf6d8PKkZ3BR_Bf0BvnpiDEKJZkbRm7yOHcH966s2_YCpJ7DZSrjl4yaG0eeGuFNe", "width": 3840}], "place_id": "ChIJaRuARsJRqEcR4t9C9p0FuwY", "plus_code": {"compound_code": "G9CP+WW Berlin, Germany", "global_code": "9F4MG9CP+WW"}, "price_level": 2, "rating": 4.2, "reference": "ChIJaRuARsJRqEcR4t9C9p0FuwY", "scope": "GOOGLE", "types": ["bar", "restaurant", "food", "point_of_interest", "establishment"], "user_ratings_total": 3980, "vicinity": "Schiffbauerdamm 1, Berlin"}, {"business_status": "OPERATIONAL", "geometry": {"location": {"lat": 52.53149999999999, "lng": 13.3884999}, "viewport": {"northeast": {"lat": 52.53290612989272, "lng": 13.38977507989272}, "southwest": {"lat": 52.53020647010727, "lng": 13.38707542010728}}}, "icon": "https://maps.gstatic.com/mapfiles/place_api/icons/v1/png_71/bar-71.png", "icon_background_color": "#FF9E67", "icon_mask_base_uri": "https://maps.gstatic.com/mapfiles/place_api/icons/v2/bar_pinlet", "name": "The Castle Berlin Mitte", "opening_hours": {"open_now": true}, "photos": [{"height": 3024, "html_attributions": ["<a href=\"https://maps.google.com/maps/contrib/101322404186234853521\">Kai Blitz</a>"], "photo_reference": "AUGGfZmWrBpZJR2iZchys5wls5HXy2-62qdKC1hfHJwUzGNx6E6t8wcUu1-eKJW_PgXtprSyWiClyobrEWlVv0Q8rOqv-GfEPlF-EmZTaZIYQFDSD8Djblt7RQ-8N4zb8Y5TFmcp-vtD6Q3Cm84NioPIGoiCx3ownaBtmuYjP1AaLcHN3DFZ", "width": 4032}], "place_id": "ChIJuROMaiFSqEcRU5RmfS7QB6Q", "plus_code": {"compound_code": "G9JQ+H9 Berlin, Germany", "global_code": "9F4MG9JQ+H9"}, "price_level": 2, "rating": 4.3, "reference": "ChIJuROMaiFSqEcRU5RmfS7QB6Q", "scope": "GOOGLE", "types": ["bar", "meal_takeaway", "restaurant", "food", "point_of_interest", "establishment"], "user_ratings_total": 2214, "vicinity": "Invalidenstra\u00dfe 129, Berlin"}, {"business_status": "OPERATIONAL", "geometry": {"location": {"lat": 52.5075, "lng": 13.3894445}, "viewport": {"northeast": {"lat": 52.50891637989272, "lng": 13.39078822989272}, "southwest": {"lat": 52.50621672010728, "lng": 13.38808857010728}}}, "icon": "https://maps.gstatic.com/mapfiles/place_api/icons/v1/png_71/bar-71.png", "icon_background_color": "#FF9E67", "icon_mask_base_uri": "https://maps.gstatic.com/mapfiles/place_api/icons/v2/bar_pinlet", "name": "Murphy's Irish Pub at Checkpoint Charlie", "opening_hours": {"open_now": true}, "photos": [{"height": 3024, "html_attributions": ["<a href=\"https://maps.google.com/maps/contrib/100003977206125061727\">tamecows</a>"], "photo_reference": "AUGGfZm2pQaTtaH9tbeACojVdiBc9kODa_sMaB4D1Scq08kLw9uh3o_hOVPq08lwAbM0rRkCjFV42oIhHkgKkVRd_h5K-XYecZ4VUaS56uC72_nTxOkpXPkFNxkjYxYgONLlpST91SyMLWqMvTqzh6RdSCeY6Wn_cqMZ_j9VrnaBHUlAKCc6", "width": 4032}], "place_id": "ChIJCzhsb9FRqEcR6sgAi0GmyN8", "plus_code": {"compound_code": "G94Q+XQ Berlin, Germany", "global_code": "9F4MG94Q+XQ"}, "price_level": 2, "rating": 4.3, "reference": "ChIJCzhsb9FRqEcR6sgAi0GmyN8", "scope": "GOOGLE", "types": ["bar", "restaurant", "food", "point_of_interest", "establishment"], "user_ratings_total": 2416, "vicinity": "Zimmerstra\u00dfe 19, Berlin"}, {"business_status": "OPERATIONAL", "geometry": {"location": {"lat": 52.5214089, "lng": 13.4117395}, "viewport": {"northeast": {"lat": 52.52297007989272, "lng": 13.41292602989272}, "southwest": {"lat": 52.52027042010727, "lng": 13.41022637010728}}}, "icon": "https://maps.gstatic.com/mapfiles/place_api/icons/v1/png_71/bar-71.png", "icon_background_color": "#FF9E67", "icon_mask_base_uri": "https://maps.gstatic.com/mapfiles/place_api/icons/v2/bar_pinlet", "name": "Bierbar Alkopole", "opening_hours": {"open_now": true}, "photos": [{"height": 2480, "html_attributions": ["<a href=\"https://maps.google.com/maps/contrib/102329435423745056027\">A Google User</a>"], "photo_reference": "AUGGfZle9iA0eftEoqKtjBJdPqfImPBcBB5p5jDfpLcQsjmo05MD2F6lhC2ss926sFIgg_MLnYZY2eGAmBouYmtd9hsGSfUeCJA7uPwVQj2fqr8HO2aGpQ2oNo091rBgLNCWnWyypV52AIcyo7IBL7C7t_e-YMEijuXubAGF-K_psZUtQq2A", "width": 3508}], "place_id": "ChIJx6t31B5OqEcRO7N671w2z50", "plus_code": {"compound_code": "GCC6+HM Berlin, Germany", "global_code": "9F4MGCC6+HM"}, "price_level": 2, "rating": 4.3, "reference": "ChIJx6t31B5OqEcRO7N671w2z50", "scope": "GOOGLE", "types": ["bar", "restaurant", "food", "point_of_interest", "establishment"], "user_ratings_total": 736, "vicinity": "Dircksenstra\u00dfe 2, Berlin"}, {"business_status": "OPERATIONAL", "geometry": {"location": {"lat": 52.5120893, "lng": 13.416871}, "viewport": {"northeast": {"lat": 52.51345082989272, "lng": 13.41828622989272}, "southwest": {"lat": 52.51075117010728, "lng": 13.41558657010728}}}, "icon": "https://maps.gstatic.com/mapfiles/place_api/icons/v1/png_71/bar-71.png", "icon_background_color": "#FF9E67", "icon_mask_base_uri": "https://maps.gstatic.com/mapfiles/place_api/icons/v2/bar_pinlet", "name": "Gittis Bier-Bar", "opening_hours": {"open_now": true}, "photos": [{"height": 3024, "html_attributions": ["<a href=\"https://maps.google.com/maps/contrib/116108156764194557100\">Al Stan</a>"], "photo_reference": "AUGGfZlH_fpUHpcRJrcrazBelcrFbPB2WcSYt93L2RBZ6M9yc-PMetP8-U05d9Jkpibh5s1CcwliwJqO5OdkJK--H_9WePT5XFOxvMS7yo2vzD1M32PisFPJyKf66Dq1h2IbCpsgrmFqqPsa4es3qV-B6JKm9Heq5tKkzqxq0MvH6FpP0_v1", "width": 4032}], "place_id": "ChIJqTZ81yROqEcRF44U_95Uy_s", "plus_code": {"compound_code": "GC68+RP Berlin, Germany", "global_code": "9F4MGC68+RP"}, "price_level": 1, "rating": 4.1, "reference": "ChIJqTZ81yROqEcRF44U_95Uy_s", "scope": "GOOGLE", "types": ["bar", "restaurant", "food", "point_of_interest", "establishment"], "user_ratings_total": 361, "vicinity": "Br\u00fcckenstra\u00dfe 13, Berlin"}, {"business_status": "OPERATIONAL", "geometry": {"location": {"lat": 52.5013963, "lng": 13.3888639}, "viewport": {"northeast": {"lat": 52.50277807989272, "lng": 13.39008877989272}, "southwest": {"lat": 52.50007842010728, "lng": 13.38738912010728}}}, "icon": "https://maps.gstatic.com/mapfiles/place_api/icons/v1/png_71/bar-71.png", "icon_background_color": "#FF9E67", "icon_mask_base_uri": "https://maps.gstatic.com/mapfiles/place_api/icons/v2/bar_pinlet", "name": "Linie 1", "opening_hours": {"open_now": true}, "photos": [{"height": 2268, "html_attributions": ["<a href=\"https://maps.google.com/maps/contrib/115491708240760336335\">A Google User</a>"], "photo_reference": "AUGGfZke4iH8TQT38r7OII4hf9WGIK6mjIuqLtEnn1eJ9Ut1qhnTYP9JR70of94OY_5LIgYrw0NQYNW96XXSFy_qudwP75ErlkkDYaEHo0p_cE9AolX_SXLq0fPTPakFHgTNU2GQs8521RmUlpQ9zp738Cfyh_5o_tB1gV6c3E0vNwd3HC3N", "width": 4032}], "place_id": "ChIJu2-krCxQqEcRDuxRc29vmR8", "plus_code": {"compound_code": "G92Q+HH Berlin, Germany", "global_code": "9F4MG92Q+HH"}, "price_level": 1, "rating": 4.6, "reference": "ChIJu2-krCxQqEcRDuxRc29vmR8", "scope": "GOOGLE", "types": ["bar", "point_of_interest", "establishment"], "user_ratings_total": 282, "vicinity": "Wilhelmstra\u00dfe 9, Berlin"}, {"business_status": "OPERATIONAL", "geometry": {"location": {"lat": 52.5147858, "lng": 13.3980097}, "viewport": {"northeast": {"lat": 52.51641982989272, "lng": 13.39917127989272}, "southwest": {"lat": 52.51372017010728, "lng": 13.39647162010728}}}, "icon": "https://maps.gstatic.com/mapfiles/place_api/icons/v1/png_71/bar-71.png", "icon_background_color": "#FF9E67", "icon_mask_base_uri": "https://maps.gstatic.com/mapfiles/place_api/icons/v2/bar_pinlet", "name": "TOWN BAR", "opening_hours": {"open_now": true}, "photos": [{"height": 4032, "html_attributions": ["<a href=\"https://maps.google.com/maps/contrib/117786371467365500427\">Monika Stojak</a>"], "photo_reference": "AUGGfZnkIEJx4fMuFXK6K3Illiezbh0ZodygTGxswTMYqoaTACozoXW5vg0Ubng35ptwOR8wPFRkkxDpwpPF7LiqI5qPi0gIvB9S2gNUHoH7lX-4jl_KPcVQIPgVra4FT7tNiyczk7lUttLGR5SHujW1df9YhcvJj0mxWnGRNcd4uDHXlL-x", "width": 6048}], "place_id": "ChIJtwnHa9lRqEcROiZg91b8ULQ", "plus_code": {"compound_code": "G97X+W6 Berlin, Germany", "global_code": "9F4MG97X+W6"}, "rating": 3.8, "reference": "ChIJtwnHa9lRqEcROiZg91b8ULQ", "scope": "GOOGLE", "types": ["bar", "point_of_interest", "establishment"], "user_ratings_total": 18, "vicinity": "Werderscher Markt 11, Berlin"}, {"business_status": "OPERATIONAL", "geometry": {"location": {"lat": 52.5328259, "lng": 13.3957253}, "viewport": {"northeast": {"lat": 52.53415552989271, "lng": 13.39704917989272}, "southwest": {"lat": 52.53145587010727, "lng": 13.39434952010728}}}, "icon": "https://maps.gstatic.com/mapfiles/place_api/icons/v1/png_71/bar-71.png", "icon_background_color": "#FF9E67", "icon_mask_base_uri": "https://maps.gstatic.com/mapfiles/place_api/icons/v2/bar_pinlet", "name": "BrewDog Berlin Mitte", "opening_hours": {"open_now": true}, "photos": [{"height": 3024, "html_attributions": ["<a href=\"https://maps.google.com/maps/contrib/110749349269915978752\">Ruslan Samovarov</a>"], "photo_reference": "AUGGfZnE3Nwi1y78fg_jNQhWpEMR6rIppd90de6A7399NZ9VyO0EPnmfrEecKmWHYwPAsj5VdFKWnzuMtWNnN7GyA2408VAL9jKeYU9Dlxthl2hsL0Q7Wmr_1o7UYZpkzdoQE5I9eiN_AYKZ2h0UO8Tdm-raIkjy4AhUjP_X8ALVBub77Xm8", "width": 4032}], "place_id": "ChIJ6Qv93u9RqEcRh5Idxw-WJa8", "plus_code": {"compound_code": "G9MW+48 Berlin, Germany", "global_code": "9F4MG9MW+48"}, "price_level": 2, "rating": 4.4, "reference": "ChIJ6Qv93u9RqEcRh5Idxw-WJa8", "scope": "GOOGLE", "types": ["bar", "liquor_store", "store", "restaurant", "food", "point_of_interest", "establishment"], "user_ratings_total": 4162, "vicinity": "Ackerstra\u00dfe 29, Berlin"}, {"business_status": "OPERATIONAL", "geometry": {"location": {"lat": 52.5236695, "lng": 13.3909383}, "viewport": {"northeast": {"lat": 52.52494157989272, "lng": 13.39235917989272}, "southwest": {"lat": 52.52224192010727, "lng": 13.38965952010728}}}, "icon": "https://maps.gstatic.com/mapfiles/place_api/icons/v1/png_71/bar-71.png", "icon_background_color": "#FF9E67", "icon_mask_base_uri": "https://maps.gstatic.com/mapfiles/place_api/icons/v2/bar_pinlet", "name": "Belushi's Berlin (Mitte)", "opening_hours": {"open_now": true}, "photos": [{"height": 1251, "html_attributions": ["<a href=\"https://maps.google.com/maps/contrib/112595655719095999398\">A Google User</a>"], "photo_reference": "AUGGfZnN_1zwkpdms9yoeYZrBlmtGUB39FscP1qysC-XFEBA9pY33AUQ-U9lMVtnqzsdpjLodReE-tSW4zqw-h1avZNlmtlzC6kUqrzT0Bu13BADCTjCHqd1tRcRM53imRyzJgMo8zUpO0L8me9Y05FF9rIx8A-2s97-upsi0Wblc4y9uDLA", "width": 1875}], "place_id": "ChIJS-vejQFRqEcRfHLdxR3cP1Y", "plus_code": {"compound_code": "G9FR+F9 Berlin, Germany", "global_code": "9F4MG9FR+F9"}, "price_level": 2, "rating": 4.4, "reference": "ChIJS-vejQFRqEcRfHLdxR3cP1Y", "scope": "GOOGLE", "types": ["bar", "restaurant", "food", "point_of_interest", "establishment"], "user_ratings_total": 947, "vicinity": "Ziegelstra\u00dfe 28, Berlin"}, {"business_status": "OPERATIONAL", "geometry": {"location": {"lat": 52.5324158, "lng": 13.3977726}, "viewport": {"northeast": {"lat": 52.53372062989273, "lng": 13.39904722989272}, "southwest": {"lat": 52.53102097010729, "lng": 13.39634757010728}}}, "icon": "https://maps.gstatic.com/mapfiles/place_api/icons/v1/png_71/bar-71.png", "icon_background_color": "#FF9E67", "icon_mask_base_uri": "https://maps.gstatic.com/mapfiles/place_api/icons/v2/bar_pinlet", "name": "CC Bar", "opening_hours": {"open_now": true}, "photos": [{"height": 2304, "html_attributions": ["<a href=\"https://maps.google.com/maps/contrib/112809211531247522901\">Alexander Hramov</a>"], "photo_reference": "AUGGfZljdGYd5APYQj5jqqchN-utfxgfDHOkjLnw4YgRHIXzfi2KT49T1RYPesIPXXB0qbH9eNulOaNA940iSqXB8dkYaL0PqxaGy9JLKyKrjLKfo21sWIUpJ78Puvej81WaODOogKKtBT8GGsQUTcqzD0Nkm9vvPr42iopPF1cfEgVJXIzv", "width": 4608}], "place_id": "ChIJ0zMRUOVRqEcRu1q8SI7QaPo", "plus_code": {"compound_code": "G9JX+V4 Berlin, Germany", "global_code": "9F4MG9JX+V4"}, "price_level": 1, "rating": 4.7, "reference": "ChIJ0zMRUOVRqEcRu1q8SI7QaPo", "scope": "GOOGLE", "types": ["bar", "point_of_interest", "establishment"], "user_ratings_total": 126, "vicinity": "Invalidenstra\u00dfe 161, Berlin"}, {"business_status": "OPERATIONAL", "geometry": {"location": {"lat": 52.53220899999999, "lng": 13.3804843}, "viewport": {"northeast": {"lat": 52.53363762989272, "lng": 13.38200737989272}, "southwest": {"lat": 52.53093797010727, "lng": 13.37930772010728}}}, "icon": "https://maps.gstatic.com/mapfiles/place_api/icons/v1/png_71/bar-71.png", "icon_background_color": "#FF9E67", "icon_mask_base_uri": "https://maps.gstatic.com/mapfiles/place_api/icons/v2/bar_pinlet", "name": "Bierstube Alt Berlin", "opening_hours": {"open_now": true}, "photos": [{"height": 2268, "html_attributions": ["<a href=\"https://maps.google.com/maps/contrib/107289636926076277392\">Russell</a>"], "photo_reference": "AUGGfZmCNwuZb1quGLQG1EC4kRJnQXpqj8dqTE6yQY4tGUpW8r2n78H8LmDQ-MMx394ZadxUHygbG1IyUsO3UiIFImqsy68QuTx8khytg_wYoC-DcOW_A5e2N1LbQR5Q3qMKwxAhiNSuDcYFJFES1zsmjXkw60eyOVtu43EmXfko7A-ajTU1", "width": 4032}], "place_id": "ChIJx-jMJ5NRqEcRcMALPcTBQ18", "plus_code": {"compound_code": "G9JJ+V5 Berlin, Germany", "global_code": "9F4MG9JJ+V5"}, "price_level": 2, "rating": 4.3, "reference": "ChIJx-jMJ5NRqEcRcMALPcTBQ18", "scope": "GOOGLE", "types": ["bar", "restaurant", "food", "point_of_interest", "establishment"], "user_ratings_total": 270, "vicinity": "Chausseestra\u00dfe 102, Berlin"}, {"business_status": "OPERATIONAL", "geometry": {"location": {"lat": 52.537243, "lng": 13.4176111}, "viewport": {"northeast": {"lat": 52.53859092989272, "lng": 13.41891497989272}, "southwest": {"lat": 52.53589127010728, "lng": 13.41621532010728}}}, "icon": "https://maps.gstatic.com/mapfiles/place_api/icons/v1/png_71/bar-71.png", "icon_background_color": "#FF9E67", "icon_mask_base_uri": "https://maps.gstatic.com/mapfiles/place_api/icons/v2/bar_pinlet", "name": "Cliffs of Dooneen", "opening_hours": {"open_now": true}, "photos": [{"height": 3024, "html_attributions": ["<a href=\"https://maps.google.com/maps/contrib/109986111509509931900\">David Gasirabo</a>"], "photo_reference": "AUGGfZkJ3SuudV0JHNdhGBKOpx8qmXKxJtfKk667jTy_VJKV9AWfYFRqZ3dWZ37fcxDVnpiA7AMprkOspnLzzCPUasmaGzD0uyBh1hQgcHyLhf3GXtnMTY0SXyyeoKRJpL0qaZ4l9Wt_41Q4Zk-m6des0n0xkbc5_rdjp2Hi6b_nsGSl7559", "width": 4032}], "place_id": "ChIJWe9elwFOqEcRoESYJyaMfcU", "plus_code": {"compound_code": "GCP9+V3 Berlin, Germany", "global_code": "9F4MGCP9+V3"}, "price_level": 2, "rating": 4.6, "reference": "ChIJWe9elwFOqEcRoESYJyaMfcU", "scope": "GOOGLE", "types": ["bar", "restaurant", "food", "point_of_interest", "establishment"], "user_ratings_total": 480, "vicinity": "Husemannstra\u00dfe 6, Berlin"}, {"business_status": "OPERATIONAL", "geometry": {"location": {"lat": 52.525911, "lng": 13.390299}, "viewport": {"northeast": {"lat": 52.52722772989272, "lng": 13.39169117989272}, "southwest": {"lat": 52.52452807010728, "lng": 13.38899152010728}}}, "icon": "https://maps.gstatic.com/mapfiles/place_api/icons/v1/png_71/bar-71.png", "icon_background_color": "#FF9E67", "icon_mask_base_uri": "https://maps.gstatic.com/mapfiles/place_api/icons/v2/bar_pinlet", "name": "Denk - Mal - Lounge Pub", "opening_hours": {"open_now": true}, "photos": [{"height": 1289, "html_attributions": ["<a href=\"https://maps.google.com/maps/contrib/112630316593954005041\">J\u00fcrgen Villwock</a>"], "photo_reference": "AUGGfZn43qMMDX6dvrzQrzJLZOuEF_iuoat6F98wqE6R9LJcCiVVL509swCXxxQXZYmEh2LFsMXEouAXlkb18l26N66ATUCLuH5B6AuKwOmc8iYfICyn7PXABDE49hnROZ05KzYqtmE-FfmYZMtTOjjzhwFl2ZyRfcGV3thjYPu2rG1m-asV", "width": 2047}], "place_id": "ChIJz1l18cVRqEcRKrfa2y2tHAo", "plus_code": {"compound_code": "G9GR+94 Berlin, Germany", "global_code": "9F4MG9GR+94"}, "price_level": 2, "rating": 4.5, "reference": "ChIJz1l18cVRqEcRKrfa2y2tHAo", "scope": "GOOGLE", "types": ["bar", "restaurant", "food", "point_of_interest", "establishment"], "user_ratings_total": 705, "vicinity": "Auguststra\u00dfe 92, Berlin"}, {"business_status": "OPERATIONAL", "geometry": {"location": {"lat": 52.5290162, "lng": 13.3933472}, "viewport": {"northeast": {"lat": 52.53036652989272, "lng": 13.39464397989272}, "southwest": {"lat": 52.52766687010728, "lng": 13.39194432010728}}}, "icon": "https://maps.gstatic.com/mapfiles/place_api/icons/v1/png_71/bar-71.png", "icon_background_color": "#FF9E67", "icon_mask_base_uri": "https://maps.gstatic.com/mapfiles/place_api/icons/v2/bar_pinlet", "name": "Cheer\u2019s", "opening_hours": {"open_now": true}, "photos": [{"height": 4608, "html_attributions": ["<a href=\"https://maps.google.com/maps/contrib/104091127938662740316\">J\u00e9r\u00f4me .H</a>"], "photo_reference": "AUGGfZndkMz9r4ZVbVd3iqkahneYmpcX7U3KZ6-SsLuRGuNLCcu5840QE1ncOK23ZAHylhcCRL_Ao_qne9hkITG3ieZSmWElPE4jg7HJQ_U-g4mCCjzt5ekR16KAqmbEPLlFpLiFf3pV8_U9DJ6SGdYT0S_ERSHrSaHddeocOCzHHYLFJl5C", "width": 3456}], "place_id": "ChIJ9zQgUO9RqEcRZtzzJyz4oHc", "plus_code": {"compound_code": "G9HV+J8 Berlin, Germany", "global_code": "9F4MG9HV+J8"}, "rating": 4.6, "reference": "ChIJ9zQgUO9RqEcRZtzzJyz4oHc", "scope": "GOOGLE", "types": ["bar", "point_of_interest", "establishment"], "user_ratings_total": 39, "vicinity": "Gartenstra\u00dfe 6, Berlin"}, {"business_status": "OPERATIONAL", "geometry": {"location": {"lat": 52.51791650000001, "lng": 13.3882839}, "viewport": {"northeast": {"lat": 52.51932067989272, "lng": 13.38968412989272}, "southwest": {"lat": 52.51662102010727, "lng": 13.38698447010728}}}, "icon": "https://maps.gstatic.com/mapfiles/place_api/icons/v1/png_71/bar-71.png", "icon_background_color": "#FF9E67", "icon_mask_base_uri": "https://maps.gstatic.com/mapfiles/place_api/icons/v2/bar_pinlet", "name": "Treffpunkt Berlin", "opening_hours": {"open_now": true}, "photos": [{"height": 3120, "html_attributions": ["<a href=\"https://maps.google.com/maps/contrib/105872682915254764996\">Eileen MacPherson</a>"], "photo_reference": "AUGGfZmEXrJ7dF8ld0LUDl6OEwHNYZQMw_3cdZtwTeBqTUhzeZBrIqeZTz7vCBLs1gZ1_uhhOBO5ZNf12f46Qiq_XNNOquCgrfNk3inLqJFDO3MtgdpUomZcrBMjki1hXMDHyrLJhtEzz5E52kYztit8XPimRZBx6Q7ZEhaw-6TxBzpRVzfL", "width": 4160}], "place_id": "ChIJYS1LpsRRqEcRKV_Xls2gKPs", "plus_code": {"compound_code": "G99Q+58 Berlin, Germany", "global_code": "9F4MG99Q+58"}, "price_level": 2, "rating": 4.5, "reference": "ChIJYS1LpsRRqEcRKV_Xls2gKPs", "scope": "GOOGLE", "types": ["bar", "restaurant", "food", "point_of_interest", "establishment"], "user_ratings_total": 1552, "vicinity": "Mittelstra\u00dfe 55, Berlin"}, {"business_status": "OPERATIONAL", "geometry": {"location": {"lat": 52.5292745, "lng": 13.4052769}, "viewport": {"northeast": {"lat": 52.53061462989272, "lng": 13.40667792989272}, "southwest": {"lat": 52.52791497010728, "lng": 13.40397827010728}}}, "icon": "https://maps.gstatic.com/mapfiles/place_api/icons/v1/png_71/bar-71.png", "icon_background_color": "#FF9E67", "icon_mask_base_uri": "https://maps.gstatic.com/mapfiles/place_api/icons/v2/bar_pinlet", "name": "Schmittz", "opening_hours": {"open_now": true}, "photos": [{"height": 3072, "html_attributions": ["<a href=\"https://maps.google.com/maps/contrib/116612996200762194020\">Hani Hashemi</a>"], "photo_reference": "AUGGfZlkwicp-ESQZVzUy_XG4B28luupzUc3OEwlFsBOHVCZTEBdjPhkc9kSMB0PY94CskYp7W_qe4Df8bNSRpUcW-7l71GQLGrxVoIG1LmnhzA8lNsmNawZsGWDVPTQCTKhaQ71Fa-oXC0dwWnGAcvyiqorSqxRY5QR6pX_Lf3wtrc9LPm_", "width": 4080}], "place_id": "ChIJRRTCoeNRqEcRivH44EOgM-M", "plus_code": {"compound_code": "GCH4+P4 Berlin, Germany", "global_code": "9F4MGCH4+P4"}, "price_level": 1, "rating": 4.3, "reference": "ChIJRRTCoeNRqEcRivH44EOgM-M", "scope": "GOOGLE", "types": ["bar", "point_of_interest", "establishment"], "user_ratings_total": 1256, "vicinity": "Gormannstra\u00dfe 19, Berlin"}, {"business_status": "OPERATIONAL", "geometry": {"location": {"lat": 52.5283993, "lng": 13.4099169}, "viewport": {"northeast": {"lat": 52.52975947989271, "lng": 13.41137937989272}, "southwest": {"lat": 52.52705982010727, "lng": 13.40867972010728}}}, "icon": "https://maps.gstatic.com/mapfiles/place_api/icons/v1/png_71/cafe-71.png", "icon_background_color": "#FF9E67", "icon_mask_base_uri": "https://maps.gstatic.com/mapfiles/place_api/icons/v2/cafe_pinlet", "name": "KASCHK by BRLO", "opening_hours": {"open_now": true}, "photos": [{"height": 3024, "html_attributions": ["<a href=\"https://maps.google.com/maps/contrib/110922347848814841593\">Ilya Belyavin-Reutov</a>"], "photo_reference": "AUGGfZmrQetGCKD9KWh894mTEd4zneRLWc-6Mrcf2BTW0v_b1Ti_vaTQZmrubxBINGToag1TBXOcjTTGZCWCto569g_PzV_coRkaLg_oOBj7UEs3Z4iqWw-bmqYr-9pYwBXa2uUIbm65PHJ-PLZaq_9FuFtCXdqlft1SVzsUbl3DpKfb4Fav", "width": 4032}], "place_id": "ChIJzY2QcOJRqEcRjXMr2_ldGSk", "plus_code": {"compound_code": "GCH5+9X Berlin, Germany", "global_code": "9F4MGCH5+9X"}, "price_level": 2, "rating": 4.4, "reference": "ChIJzY2QcOJRqEcRjXMr2_ldGSk", "scope": "GOOGLE", "types": ["cafe", "bar", "food", "point_of_interest", "establishment"], "user_ratings_total": 2014, "vicinity": "Linienstra\u00dfe 40, Berlin"}, {"business_status": "OPERATIONAL", "geometry": {"location": {"lat": 52.5086393, "lng": 13.39385}, "viewport": {"northeast": {"lat": 52.50998367989271, "lng": 13.39530242989272}, "southwest": {"lat": 52.50728402010727, "lng": 13.39260277010728}}}, "icon": "https://maps.gstatic.com/mapfiles/place_api/icons/v1/png_71/bar-71.png", "icon_background_color": "#FF9E67", "icon_mask_base_uri": "https://maps.gstatic.com/mapfiles/place_api/icons/v2/bar_pinlet", "name": "MCI PUB", "opening_hours": {"open_now": true}, "place_id": "ChIJq6p_0NZRqEcRDVVwcZYGWlM", "plus_code": {"compound_code": "G95V+FG Berlin, Germany", "global_code": "9F4MG95V+FG"}, "rating": 0, "reference": "ChIJq6p_0NZRqEcRDVVwcZYGWlM", "scope": "GOOGLE", "types": ["bar", "point_of_interest", "establishment"], "user_ratings_total": 0, "vicinity": "Markgrafenstra\u00dfe 56, Berlin"}]