[{"business_status": "OPERATIONAL", "geometry": {"location": {"lat": 52.523, "lng": 13.4073341}, "viewport": {"northeast": {"lat": 52.52435417989272, "lng": 13.40849427989272}, "southwest": {"lat": 52.52165452010728, "lng": 13.40579462010728}}}, "icon": "https://maps.gstatic.com/mapfiles/place_api/icons/v1/png_71/bar-71.png", "icon_background_color": "#FF9E67", "icon_mask_base_uri": "https://maps.gstatic.com/mapfiles/place_api/icons/v2/bar_pinlet", "name": "The Pub", "opening_hours": {"open_now": true}, "photos": [{"height": 3263, "html_attributions": ["<a href=\"https://maps.google.com/maps/contrib/110058889479386637399\">The Pub</a>"], "photo_reference": "AUGGfZmxYauGpdDgjkR4ZvhRUaRENfMl1h80XBZvQWaSr5_--GOmNiVnieC6gcTqfxOR-Rm43BZLJz7pchC1m-ZwYndWYOaO8CPi5GZCC07mMoEKJegeeuDd7Uu09M5adZp_j8QupHDp1hF1Q5u1E0qT_U8Se4Run3TKKEYaCuSzVyKemLvm", "width": 4926}], "place_id": "ChIJlczQJOBRqEcRXVYk4DrcCSo", "plus_code": {"compound_code": "GCF4+5W Berlin, Germany", "global_code": "9F4MGCF4+5W"}, "price_level": 2, "rating": 4.4, "reference": "ChIJlczQJOBRqEcRXVYk4DrcCSo", "scope": "GOOGLE", "types": ["bar", "restaurant", "food", "point_of_interest", "establishment"], "user_ratings_total": 2587, "vicinity": "Rochstra\u00dfe 14, Berlin"}, {"business_status": "OPERATIONAL", "geometry": {"location": {"lat": 52.522491, "lng": 13.401438}, "viewport": {"northeast": {"lat": 52.52387382989272, "lng": 13.40224477989272}, "southwest": {"lat": 52.52117417010728, "lng": 13.39954512010728}}}, "icon": "https://maps.gstatic.com/mapfiles/place_api/icons/v1/png_71/bar-71.png", "icon_background_color": "#FF9E67", "icon_mask_base_uri": "https://maps.gstatic.com/mapfiles/place_api/icons/v2/bar_pinlet", "name": "Kilkenny Irish Pub", "opening_hours": {"open_now": true}, "photos": [{"height": 1800, "html_attributions": ["<a href=\"https://maps.google.com/maps/contrib/115458018905763143262\">A Google User</a>"], "photo_reference": "AUGGfZnKTKXtjBArYIuSgJ9SoogLWH3znhv3t7n4BA2ytDUdLJ6VS__wPpgV7Nrhe-7Azq6q8v2xLoDIGxjKDqu0dsSUDYD6x_Bl1PhXu9XUYz_A-MF6KgWZmfpsSEGvlo8QQZfF1WTElKY0_5xgF-X9F3O86Nv2Om_lZxtM2L6PfqBOQ661", "width": 4000}], "place_id": "ChIJs8oZleBRqEcRsBeU5Vog2pM", "plus_code": {"compound_code": "GCC2+XH Berlin, Germany", "global_code": "9F4MGCC2+XH"}, "price_level": 2, "rating": 4.3, "reference": "ChIJs8oZleBRqEcRsBeU5Vog2pM", "scope": "GOOGLE", "types": ["bar", "restaurant", "food", "point_of_interest", "establishment"], "user_ratings_total": 5473, "vicinity": "Am Zwirngraben 17-20, Berlin"}, {"business_status": "OPERATIONAL", "geometry": {"location": {"lat": 52.5223503, "lng": 13.3873539}, "viewport": {"northeast": {"lat": 52.52368392989272, "lng": 13.38878632989272}, "southwest": {"lat": 52.52098427010728, "lng": 13.38608667010728}}}, "icon": "https://maps.gstatic.com/mapfiles/place_api/icons/v1/png_71/bar-71.png", "icon_background_color": "#FF9E67", "icon_mask_base_uri": "https://maps.gstatic.com/mapfiles/place_api/icons/v2/bar_pinlet", "name": "Murphy\u2019s Irish Pub", "opening_hours": {"open_now": true}, "photos": [{"height": 510, "html_attributions": ["<a href=\"https://maps.google.com/maps/contrib/117551912993065028582\">Johannes Elsner</a>"], "photo_reference": "AUGGfZnbq5O2oi77EYRkINAvaDzGwuitjIYBMNz1aUjpxZyJPv7hfHJqcP9y96tNBoPuRnNumWPKgVFZon-Ks1BxL-d9hk3MCupSXnJ-JCQwGYINAU9oNsIqnacmyLiKuCKsPlGgcEKe8kJoV5ptMnqVhSXt7tdQ9-dRnz7TO5n1sk1Gaogl", "width": 800}], "place_id": "ChIJaRuARsJRqEcR4t9C9p0FuwY", "plus_code": {"compound_code": "G9CP+WW Berlin, Germany", "global_code": "9F4MG9CP+WW"}, "price_level": 2, "rating": 4.2, "reference": "ChIJaRuARsJRqEcR4t9C9p0FuwY", "scope": "GOOGLE", "types": ["bar", "restaurant", "food", "point_of_interest", "establishment"], "user_ratings_total": 3992, "vicinity": "Schiffbauerdamm 1, Berlin"}, {"business_status": "OPERATIONAL", "geometry": {"location": {"lat": 52.53149999999999, "lng": 13.3884999}, "viewport": {"northeast": {"lat": 52.53290612989272, "lng": 13.38977507989272}, "southwest": {"lat": 52.53020647010727, "lng": 13.38707542010728}}}, "icon": "https://maps.gstatic.com/mapfiles/place_api/icons/v1/png_71/bar-71.png", "icon_background_color": "#FF9E67", "icon_mask_base_uri": "https://maps.gstatic.com/mapfiles/place_api/icons/v2/bar_pinlet", "name": "The Castle Berlin Mitte", "opening_hours": {"open_now": true}, "photos": [{"height": 3024, "html_attributions": ["<a href=\"https://maps.google.com/maps/contrib/101322404186234853521\">Kai Blitz</a>"], "photo_reference": "AUGGfZlDbVlRlqQu_4xoM1d0f9b3oGYtgYTGbYgcHyEsMTiSDIdsqIb-RbIh_xJ-0J2n7qiqDyVIfjvzIuwUdcwmaDENIHret0YYZ72a-ji07NsXhKrIdgr5_RVEs22qXn9vHgWiFC0DPKTL4WxJqdfV-7DyxFD0WnolbbX1IAuG5mtw7pm2", "width": 4032}], "place_id": "ChIJuROMaiFSqEcRU5RmfS7QB6Q", "plus_code": {"compound_code": "G9JQ+H9 Berlin, Germany", "global_code": "9F4MG9JQ+H9"}, "price_level": 2, "rating": 4.3, "reference": "ChIJuROMaiFSqEcRU5RmfS7QB6Q", "scope": "GOOGLE", "types": ["bar", "meal_takeaway", "restaurant", "food", "point_of_interest", "establishment"], "user_ratings_total": 2222, "vicinity": "Invalidenstra\u00dfe 129, Berlin"}, {"business_status": "OPERATIONAL", "geometry": {"location": {"lat": 52.5075, "lng": 13.3894445}, "viewport": {"northeast": {"lat": 52.50891637989272, "lng": 13.39078822989272}, "southwest": {"lat": 52.50621672010728, "lng": 13.38808857010728}}}, "icon": "https://maps.gstatic.com/mapfiles/place_api/icons/v1/png_71/bar-71.png", "icon_background_color": "#FF9E67", "icon_mask_base_uri": "https://maps.gstatic.com/mapfiles/place_api/icons/v2/bar_pinlet", "name": "Murphy's Irish Pub at Checkpoint Charlie", "opening_hours": {"open_now": true}, "photos": [{"height": 3024, "html_attributions": ["<a href=\"https://maps.google.com/maps/contrib/100003977206125061727\">tamecows</a>"], "photo_reference": "AUGGfZnwc5-MaMr0YaN22P3JK2-VY13jQlkKgeQ-WpyNJDNiT8VdsySuQUuMay1SbO0NQURiGiQn9pa-qJWO0qt6EWOVMO4PPVO6WETFohQNl86oJVSL-HUMsuNEYzQiRfnycWG9XuTYuSoAVldFbN5tLTFkAUGvarAOl0Qzs5DKKGQTQNfX", "width": 4032}], "place_id": "ChIJCzhsb9FRqEcR6sgAi0GmyN8", "plus_code": {"compound_code": "G94Q+XQ Berlin, Germany", "global_code": "9F4MG94Q+XQ"}, "price_level": 2, "rating": 4.3, "reference": "ChIJCzhsb9FRqEcR6sgAi0GmyN8", "scope": "GOOGLE", "types": ["bar", "restaurant", "food", "point_of_interest", "establishment"], "user_ratings_total": 2422, "vicinity": "Zimmerstra\u00dfe 19, Berlin"}, {"business_status": "OPERATIONAL", "geometry": {"location": {"lat": 52.5214089, "lng": 13.4117395}, "viewport": {"northeast": {"lat": 52.52297007989272, "lng": 13.41292602989272}, "southwest": {"lat": 52.52027042010727, "lng": 13.41022637010728}}}, "icon": "https://maps.gstatic.com/mapfiles/place_api/icons/v1/png_71/bar-71.png", "icon_background_color": "#FF9E67", "icon_mask_base_uri": "https://maps.gstatic.com/mapfiles/place_api/icons/v2/bar_pinlet", "name": "Bierbar Alkopole", "opening_hours": {"open_now": true}, "photos": [{"height": 2480, "html_attributions": ["<a href=\"https://maps.google.com/maps/contrib/102329435423745056027\">A Google User</a>"], "photo_reference": "AUGGfZl_Hjgk1arIYEkm0bzKiXf-f1vtAOs_t_x-gYIB4OB9umQqEJpFrrJ1K2adPjWuz1lJf3Ozc5y53rc1NdNe3hPvzjcMrC1XC4MpoPC7QhPutLX4b3f54DwhLrOJLzwst56r0gMJkDgEs1vQN48nV_VFmNmEDKBsqHOEg7wmFsIaQtwj", "width": 3508}], "place_id": "ChIJx6t31B5OqEcRO7N671w2z50", "plus_code": {"compound_code": "GCC6+HM Berlin, Germany", "global_code": "9F4MGCC6+HM"}, "price_level": 2, "rating": 4.3, "reference": "ChIJx6t31B5OqEcRO7N671w2z50", "scope": "GOOGLE", "types": ["bar", "restaurant", "food", "point_of_interest", "establishment"], "user_ratings_total": 736, "vicinity": "Dircksenstra\u00dfe 2, Berlin"}, {"business_status": "OPERATIONAL", "geometry": {"location": {"lat": 52.5120893, "lng": 13.416871}, "viewport": {"northeast": {"lat": 52.51345082989272, "lng": 13.41828622989272}, "southwest": {"lat": 52.51075117010728, "lng": 13.41558657010728}}}, "icon": "https://maps.gstatic.com/mapfiles/place_api/icons/v1/png_71/bar-71.png", "icon_background_color": "#FF9E67", "icon_mask_base_uri": "https://maps.gstatic.com/mapfiles/place_api/icons/v2/bar_pinlet", "name": "Gittis Bier-Bar", "opening_hours": {"open_now": true}, "photos": [{"height": 3024, "html_attributions": ["<a href=\"https://maps.google.com/maps/contrib/116108156764194557100\">Al Stan</a>"], "photo_reference": "AUGGfZnYupSrPugj_j0HZ_VFLYqC3hreDb2j5lZozPZJPa2UT1eWXVtF8IMnKAVIAryZZIUNl7yeo5Gj2n5XnLFXK2T42Omg8EfMJp6ytRwnuNg6NQOr11QnsEa0TeB_0DrjokiYYY3xqTOyshyOAWQEBk262gIsuB633y2JACfu7sfaJdjV", "width": 4032}], "place_id": "ChIJqTZ81yROqEcRF44U_95Uy_s", "plus_code": {"compound_code": "GC68+RP Berlin, Germany", "global_code": "9F4MGC68+RP"}, "price_level": 1, "rating": 4.1, "reference": "ChIJqTZ81yROqEcRF44U_95Uy_s", "scope": "GOOGLE", "types": ["bar", "restaurant", "food", "point_of_interest", "establishment"], "user_ratings_total": 361, "vicinity": "Br\u00fcckenstra\u00dfe 13, Berlin"}, {"business_status": "OPERATIONAL", "geometry": {"location": {"lat": 52.5328259, "lng": 13.3957253}, "viewport": {"northeast": {"lat": 52.53415552989271, "lng": 13.39704917989272}, "southwest": {"lat": 52.53145587010727, "lng": 13.39434952010728}}}, "icon": "https://maps.gstatic.com/mapfiles/place_api/icons/v1/png_71/bar-71.png", "icon_background_color": "#FF9E67", "icon_mask_base_uri": "https://maps.gstatic.com/mapfiles/place_api/icons/v2/bar_pinlet", "name": "BrewDog Berlin Mitte", "opening_hours": {"open_now": true}, "photos": [{"height": 3024, "html_attributions": ["<a href=\"https://maps.google.com/maps/contrib/110749349269915978752\">Ruslan Samovarov</a>"], "photo_reference": "AUGGfZk74-jvFB-0c1PiXeggnI7b_ngsMGO3MQKEWuCfNVO4WVl4C6XUHklNkyihbbpYNP1JyV5LiZKrjTG4oX-01Xn5ffXnKziiax8i5qHf7y6_O3Khlra3z9Fh0PnjwID4V0ZoRfXAvm17nqIbKMAVEPqBkO7AQM0A2Vaf54u-ekwOclFE", "width": 4032}], "place_id": "ChIJ6Qv93u9RqEcRh5Idxw-WJa8", "plus_code": {"compound_code": "G9MW+48 Berlin, Germany", "global_code": "9F4MG9MW+48"}, "price_level": 2, "rating": 4.4, "reference": "ChIJ6Qv93u9RqEcRh5Idxw-WJa8", "scope": "GOOGLE", "types": ["bar", "liquor_store", "restaurant", "food", "point_of_interest", "store", "establishment"], "user_ratings_total": 4172, "vicinity": "Ackerstra\u00dfe 29, Berlin"}, {"business_status": "OPERATIONAL", "geometry": {"location": {"lat": 52.5236695, "lng": 13.3909383}, "viewport": {"northeast": {"lat": 52.52494157989272, "lng": 13.39235917989272}, "southwest": {"lat": 52.52224192010727, "lng": 13.38965952010728}}}, "icon": "https://maps.gstatic.com/mapfiles/place_api/icons/v1/png_71/bar-71.png", "icon_background_color": "#FF9E67", "icon_mask_base_uri": "https://maps.gstatic.com/mapfiles/place_api/icons/v2/bar_pinlet", "name": "Belushi's Berlin (Mitte)", "opening_hours": {"open_now": true}, "photos": [{"height": 1251, "html_attributions": ["<a href=\"https://maps.google.com/maps/contrib/112595655719095999398\">A Google User</a>"], "photo_reference": "AUGGfZnmIS_Bw-1n9r3WNk0iy-2HM6bpqYNs_u43DuwRMsquEvk9eLgsnEyVhpMdLv0EQtgwg9VSafIT-DGpvMAilwMO8fMojWroRC1TuZN2SWMhd9uR5b8c4tdhsrAR7LkaBe8vxaoFoDCz4PqY5qWiTbKDDqWNW32hoJZTPQK-NAAtmemc", "width": 1875}], "place_id": "ChIJS-vejQFRqEcRfHLdxR3cP1Y", "plus_code": {"compound_code": "G9FR+F9 Berlin, Germany", "global_code": "9F4MG9FR+F9"}, "price_level": 2, "rating": 4.4, "reference": "ChIJS-vejQFRqEcRfHLdxR3cP1Y", "scope": "GOOGLE", "types": ["bar", "restaurant", "food", "point_of_interest", "establishment"], "user_ratings_total": 959, "vicinity": "Ziegelstra\u00dfe 28, Berlin"}, {"business_status": "OPERATIONAL", "geometry": {"location": {"lat": 52.5269025, "lng": 13.4106901}, "viewport": {"northeast": {"lat": 52.52826232989273, "lng": 13.41211487989272}, "southwest": {"lat": 52.52556267010728, "lng": 13.40941522010728}}}, "icon": "https://maps.gstatic.com/mapfiles/place_api/icons/v1/png_71/bar-71.png", "icon_background_color": "#FF9E67", "icon_mask_base_uri": "https://maps.gstatic.com/mapfiles/place_api/icons/v2/bar_pinlet", "name": "Belushi's Berlin (Alexanderplatz)", "opening_hours": {"open_now": true}, "photos": [{"height": 2988, "html_attributions": ["<a href=\"https://maps.google.com/maps/contrib/107565222795976200832\">Udi Burg</a>"], "photo_reference": "AUGGfZkjAeuZlKjuB7344cbZPWOpAl_6_o5KptE9Fy_DntvPiBbMd7dsW1vYxWuFaLUaJqcofuBoSQtwVhY-lmeRamWqi1RCOVka11hNWNjfitc5nGwn6KU4N9TBjV68jb2gVefYJkQB5yk2d-aIUphS5nNqpqGh3h_b3Lsf4jvqNgeBppw3", "width": 5312}], "place_id": "ChIJiZMv8B1OqEcRIofsaDMsMsw", "plus_code": {"compound_code": "GCG6+Q7 Berlin, Germany", "global_code": "9F4MGCG6+Q7"}, "price_level": 2, "rating": 4.1, "reference": "ChIJiZMv8B1OqEcRIofsaDMsMsw", "scope": "GOOGLE", "types": ["bar", "restaurant", "food", "point_of_interest", "establishment"], "user_ratings_total": 2478, "vicinity": "Rosa-Luxemburg-Stra\u00dfe 41, Berlin"}, {"business_status": "OPERATIONAL", "geometry": {"location": {"lat": 52.53220899999999, "lng": 13.3804843}, "viewport": {"northeast": {"lat": 52.53363762989272, "lng": 13.38200737989272}, "southwest": {"lat": 52.53093797010727, "lng": 13.37930772010728}}}, "icon": "https://maps.gstatic.com/mapfiles/place_api/icons/v1/png_71/bar-71.png", "icon_background_color": "#FF9E67", "icon_mask_base_uri": "https://maps.gstatic.com/mapfiles/place_api/icons/v2/bar_pinlet", "name": "Bierstube Alt Berlin", "opening_hours": {"open_now": true}, "photos": [{"height": 2268, "html_attributions": ["<a href=\"https://maps.google.com/maps/contrib/107289636926076277392\">Russell</a>"], "photo_reference": "AUGGfZnjhgCBBdLyhM6RUi6cdUC07WsoPVdJw1MLHSZ4TPTkf9QPTPOqkHl8gAlAVmueRlfAJ-uMggw1_VqGoMegtUt0qE_BujCiXRU8-EUrewu11OyVY8ThFPvmClOMxerIMxixXZRi4hVA1LjkYRD2wLIliaTma5QI2Fm5Cd2TofpK-UHy", "width": 4032}], "place_id": "ChIJx-jMJ5NRqEcRcMALPcTBQ18", "plus_code": {"compound_code": "G9JJ+V5 Berlin, Germany", "global_code": "9F4MG9JJ+V5"}, "price_level": 2, "rating": 4.3, "reference": "ChIJx-jMJ5NRqEcRcMALPcTBQ18", "scope": "GOOGLE", "types": ["bar", "restaurant", "food", "point_of_interest", "establishment"], "user_ratings_total": 271, "vicinity": "Chausseestra\u00dfe 102, Berlin"}, {"business_status": "OPERATIONAL", "geometry": {"location": {"lat": 52.537243, "lng": 13.4176111}, "viewport": {"northeast": {"lat": 52.53859092989272, "lng": 13.41891497989272}, "southwest": {"lat": 52.53589127010728, "lng": 13.41621532010728}}}, "icon": "https://maps.gstatic.com/mapfiles/place_api/icons/v1/png_71/bar-71.png", "icon_background_color": "#FF9E67", "icon_mask_base_uri": "https://maps.gstatic.com/mapfiles/place_api/icons/v2/bar_pinlet", "name": "Cliffs of Dooneen", "opening_hours": {"open_now": true}, "photos": [{"height": 3024, "html_attributions": ["<a href=\"https://maps.google.com/maps/contrib/109986111509509931900\">David Gasirabo</a>"], "photo_reference": "AUGGfZku4TK-70TGQfn8ppukQn9kCv0AoIcwZbEzMJv7A-IM8Pg1Xht5ItEFjSBjD6AxUDduSrDmbyijWiUPKfu2eHqzLQI6MTLiTVXRQk5tL6-nC7kJNXQaoNVTf2Bd5KMM19orzgj3eC7Fdl4Ata5ljsYLS063mRSCwirwMuuHlOduM64Z", "width": 4032}], "place_id": "ChIJWe9elwFOqEcRoESYJyaMfcU", "plus_code": {"compound_code": "GCP9+V3 Berlin, Germany", "global_code": "9F4MGCP9+V3"}, "price_level": 2, "rating": 4.6, "reference": "ChIJWe9elwFOqEcRoESYJyaMfcU", "scope": "GOOGLE", "types": ["bar", "restaurant", "food", "point_of_interest", "establishment"], "user_ratings_total": 485, "vicinity": "Husemannstra\u00dfe 6, Berlin"}, {"business_status": "OPERATIONAL", "geometry": {"location": {"lat": 52.525911, "lng": 13.390299}, "viewport": {"northeast": {"lat": 52.52722772989272, "lng": 13.39169117989272}, "southwest": {"lat": 52.52452807010728, "lng": 13.38899152010728}}}, "icon": "https://maps.gstatic.com/mapfiles/place_api/icons/v1/png_71/bar-71.png", "icon_background_color": "#FF9E67", "icon_mask_base_uri": "https://maps.gstatic.com/mapfiles/place_api/icons/v2/bar_pinlet", "name": "Denk - Mal - Lounge Pub", "opening_hours": {"open_now": true}, "photos": [{"height": 1289, "html_attributions": ["<a href=\"https://maps.google.com/maps/contrib/112630316593954005041\">J\u00fcrgen Villwock</a>"], "photo_reference": "AUGGfZnr8XLratzD9BLLnOdHpJIRNX7_9RLEAO_aI-VENxNf1afKSBpBCxvmalz_jQ-WPupyCn5zm0SaTz7R3Hfmc81fHM4qYe_QUIXMFnXR_wGb0S0xbVaoG2nL1xQZYueaSLDmIDTUoEyr520YH-5kolojQvhAICJpcD1Nl21_PeYGHld5", "width": 2047}], "place_id": "ChIJz1l18cVRqEcRKrfa2y2tHAo", "plus_code": {"compound_code": "G9GR+94 Berlin, Germany", "global_code": "9F4MG9GR+94"}, "price_level": 2, "rating": 4.5, "reference": "ChIJz1l18cVRqEcRKrfa2y2tHAo", "scope": "GOOGLE", "types": ["bar", "restaurant", "food", "point_of_interest", "establishment"], "user_ratings_total": 706, "vicinity": "Auguststra\u00dfe 92, Berlin"}, {"business_status": "OPERATIONAL", "geometry": {"location": {"lat": 52.51791650000001, "lng": 13.3882839}, "viewport": {"northeast": {"lat": 52.51932067989272, "lng": 13.38968412989272}, "southwest": {"lat": 52.51662102010727, "lng": 13.38698447010728}}}, "icon": "https://maps.gstatic.com/mapfiles/place_api/icons/v1/png_71/bar-71.png", "icon_background_color": "#FF9E67", "icon_mask_base_uri": "https://maps.gstatic.com/mapfiles/place_api/icons/v2/bar_pinlet", "name": "Treffpunkt Berlin", "opening_hours": {"open_now": true}, "photos": [{"height": 3120, "html_attributions": ["<a href=\"https://maps.google.com/maps/contrib/105872682915254764996\">Eileen MacPherson</a>"], "photo_reference": "AUGGfZnCcd6PlzPg1gvQll1C3vWdLNkJf9J21Lr8OoaKQyWJMocMiQ5mmAr2YdOF8xo6cXdrrgIa2_rM4ur3mfzEFWF4Cxoh0Rzg9a-Mvsj9MCzWiqzSH29uB4rcLuGTMVhjNeprHJcwlABIhrzwc9OZF9DaHJ5EPf8YxVS5aAPvvPpc_4Ci", "width": 4160}], "place_id": "ChIJYS1LpsRRqEcRKV_Xls2gKPs", "plus_code": {"compound_code": "G99Q+58 Berlin, Germany", "global_code": "9F4MG99Q+58"}, "price_level": 2, "rating": 4.5, "reference": "ChIJYS1LpsRRqEcRKV_Xls2gKPs", "scope": "GOOGLE", "types": ["bar", "restaurant", "food", "point_of_interest", "establishment"], "user_ratings_total": 1559, "vicinity": "Mittelstra\u00dfe 55, Berlin"}, {"business_status": "OPERATIONAL", "geometry": {"location": {"lat": 52.5283993, "lng": 13.4099169}, "viewport": {"northeast": {"lat": 52.52975947989271, "lng": 13.41137937989272}, "southwest": {"lat": 52.52705982010727, "lng": 13.40867972010728}}}, "icon": "https://maps.gstatic.com/mapfiles/place_api/icons/v1/png_71/bar-71.png", "icon_background_color": "#FF9E67", "icon_mask_base_uri": "https://maps.gstatic.com/mapfiles/place_api/icons/v2/bar_pinlet", "name": "KASCHK by BRLO", "opening_hours": {"open_now": true}, "photos": [{"height": 3024, "html_attributions": ["<a href=\"https://maps.google.com/maps/contrib/110922347848814841593\">Ilya Belyavin-Reutov</a>"], "photo_reference": "AUGGfZmFAEbApkV_eUDvVXjK545FGnjmOLmK8uJ9RwG0qLDAzAnOuFxt0k4jNbEH_q7cm8hC4CkI3gNU_OFIDJCcnC7GY5iESFPkhkPb7odHODnTzgUVkuEz8tYlOgAwANMAUMPk6y4gnXEI9EziDd3Db6W3T3kSlkbpwTnAtOldO2kYa9fH", "width": 4032}], "place_id": "ChIJzY2QcOJRqEcRjXMr2_ldGSk", "plus_code": {"compound_code": "GCH5+9X Berlin, Germany", "global_code": "9F4MGCH5+9X"}, "price_level": 2, "rating": 4.4, "reference": "ChIJzY2QcOJRqEcRjXMr2_ldGSk", "scope": "GOOGLE", "types": ["bar", "cafe", "restaurant", "food", "point_of_interest", "establishment"], "user_ratings_total": 2015, "vicinity": "Linienstra\u00dfe 40, Berlin"}, {"business_status": "OPERATIONAL", "geometry": {"location": {"lat": 52.518452, "lng": 13.3883197}, "viewport": {"northeast": {"lat": 52.51983807989272, "lng": 13.38979622989272}, "southwest": {"lat": 52.51713842010728, "lng": 13.38709657010728}}}, "icon": "https://maps.gstatic.com/mapfiles/place_api/icons/v1/png_71/restaurant-71.png", "icon_background_color": "#FF9E67", "icon_mask_base_uri": "https://maps.gstatic.com/mapfiles/place_api/icons/v2/restaurant_pinlet", "name": "Checkpoint Restaurant & Bar", "opening_hours": {"open_now": true}, "photos": [{"height": 1192, "html_attributions": ["<a href=\"https://maps.google.com/maps/contrib/112056134447211435271\">Checkpoint Bar</a>"], "photo_reference": "AUGGfZlYdnXUC8wahbJuk_EVvzpOacvL0j8M3165gU0ccePmaoq1iLZdd4oUi266DaK8inw0mZkLRdXL31P3Rbth-QyLyQgx4E_l7CYWGKM4_xEr67khMbPlsIt4uy1tGUNTLifXG85_6YkeYETjERbA_cppcWdGm4mMaGIU2EgTEzvrAbMs", "width": 2119}], "place_id": "ChIJ5VSYQsNRqEcRY1TXQ5Pa2vE", "plus_code": {"compound_code": "G99Q+98 Berlin, Germany", "global_code": "9F4MG99Q+98"}, "rating": 3.1, "reference": "ChIJ5VSYQsNRqEcRY1TXQ5Pa2vE", "scope": "GOOGLE", "types": ["restaurant", "night_club", "bar", "food", "point_of_interest", "establishment"], "user_ratings_total": 29, "vicinity": "Friedrichstra\u00dfe 151, Berlin"}, {"business_status": "OPERATIONAL", "geometry": {"location": {"lat": 52.5215415, "lng": 13.3860048}, "viewport": {"northeast": {"lat": 52.52285112989272, "lng": 13.38740552989272}, "southwest": {"lat": 52.52015147010727, "lng": 13.38470587010728}}}, "icon": "https://maps.gstatic.com/mapfiles/place_api/icons/v1/png_71/bar-71.png", "icon_background_color": "#FF9E67", "icon_mask_base_uri": "https://maps.gstatic.com/mapfiles/place_api/icons/v2/bar_pinlet", "name": "Vincent Piano Bar", "opening_hours": {"open_now": true}, "photos": [{"height": 1080, "html_attributions": ["<a href=\"https://maps.google.com/maps/contrib/113123933529488818352\">A Google User</a>"], "photo_reference": "AUGGfZnhqPiC_UQZt9OJ5zjnnyJTFa8RUaalQvF2hPc-fWtXXgnG9CWzfUIHmzVsmZ8Cwmp4S4AS4e0391AICAxx6ATVeTy8aKaZ0TeDtgAbPsjljE9kVHiNDFiuq6IMs77-hgkcUeWIMXCFHx0ddjn3oi3tW9K6oFwCLfJqS0zpdgCY-u3Z", "width": 1620}], "place_id": "ChIJyYAwRsJRqEcRcK8EDIZxgTA", "plus_code": {"compound_code": "G9CP+JC Berlin, Germany", "global_code": "9F4MG9CP+JC"}, "price_level": 2, "rating": 4.3, "reference": "ChIJyYAwRsJRqEcRcK8EDIZxgTA", "scope": "GOOGLE", "types": ["bar", "restaurant", "food", "point_of_interest", "establishment"], "user_ratings_total": 1023, "vicinity": "Schiffbauerdamm 6/7, Berlin"}, {"business_status": "OPERATIONAL", "geometry": {"location": {"lat": 52.503105, "lng": 13.4169763}, "viewport": {"northeast": {"lat": 52.50448747989272, "lng": 13.41820837989272}, "southwest": {"lat": 52.50178782010727, "lng": 13.41550872010728}}}, "icon": "https://maps.gstatic.com/mapfiles/place_api/icons/v1/png_71/bar-71.png", "icon_background_color": "#FF9E67", "icon_mask_base_uri": "https://maps.gstatic.com/mapfiles/place_api/icons/v2/bar_pinlet", "name": "Misfit Bar Berlin", "opening_hours": {"open_now": true}, "photos": [{"height": 640, "html_attributions": ["<a href=\"https://maps.google.com/maps/contrib/111949412926349832918\">Misfit Bar</a>"], "photo_reference": "AUGGfZlNX86MhwezVmUMsUtxPaqQO5XDggBpWE7K8V2LyWJn4_SDTzBBVorTecPBFpWBsaUcOxI1MoHM9R_5JvWMkcRzi53FJkYx8y2gNIPNEfqEIiR4vVY7Vzx-SjtNN6OxLZbs1x7xu_Gk2f-VvlGjBeXWxXczZNeBvoe1dskik5LsZEPI", "width": 1352}], "place_id": "ChIJcer9LTJOqEcRdMomkDoZepA", "plus_code": {"compound_code": "GC38+6Q Berlin, Germany", "global_code": "9F4MGC38+6Q"}, "price_level": 1, "rating": 4.5, "reference": "ChIJcer9LTJOqEcRdMomkDoZepA", "scope": "GOOGLE", "types": ["bar", "restaurant", "food", "point_of_interest", "establishment"], "user_ratings_total": 446, "vicinity": "Leuschnerdamm 41, Berlin"}, {"business_status": "OPERATIONAL", "geometry": {"location": {"lat": 52.50905479999999, "lng": 13.3739018}, "viewport": {"northeast": {"lat": 52.51046762989272, "lng": 13.37503132989272}, "southwest": {"lat": 52.50776797010728, "lng": 13.37233167010728}}}, "icon": "https://maps.gstatic.com/mapfiles/place_api/icons/v1/png_71/bar-71.png", "icon_background_color": "#FF9E67", "icon_mask_base_uri": "https://maps.gstatic.com/mapfiles/place_api/icons/v2/bar_pinlet", "name": "QIU - Bar & Restaurant", "opening_hours": {"open_now": true}, "photos": [{"height": 1365, "html_attributions": ["<a href=\"https://maps.google.com/maps/contrib/107958724964993644836\">QIU</a>"], "photo_reference": "AUGGfZmrzchVIkVijnT9V0AzKrSFGF9ouw7mJ0Z2Go0D96y7PXFksRxBkZRUakdr5qbWFmkRMTPeA9ilU_wgywbsPJuUt0Re74EHKGn8L3i54NJNUK4zq_VUpANjAmFJwu5KK7PUR5KXB0I6m1mUvI9hviSVUrglnLuHKwZATfDwpYRuSUzZ", "width": 2048}], "place_id": "ChIJKSv1gslRqEcRno1jZOCFm_8", "plus_code": {"compound_code": "G95F+JH Berlin, Germany", "global_code": "9F4MG95F+JH"}, "rating": 4.5, "reference": "ChIJKSv1gslRqEcRno1jZOCFm_8", "scope": "GOOGLE", "types": ["bar", "night_club", "restaurant", "food", "point_of_interest", "establishment"], "user_ratings_total": 183, "vicinity": "Potsdamer Str. 3, Berlin"}, {"business_status": "OPERATIONAL", "geometry": {"location": {"lat": 52.5109207, "lng": 13.4173295}, "viewport": {"northeast": {"lat": 52.51221687989273, "lng": 13.41868177989272}, "southwest": {"lat": 52.50951722010728, "lng": 13.41598212010728}}}, "icon": "https://maps.gstatic.com/mapfiles/place_api/icons/v1/png_71/bar-71.png", "icon_background_color": "#FF9E67", "icon_mask_base_uri": "https://maps.gstatic.com/mapfiles/place_api/icons/v2/bar_pinlet", "name": "Republic Berlin", "opening_hours": {"open_now": true}, "photos": [{"height": 3024, "html_attributions": ["<a href=\"https://maps.google.com/maps/contrib/111465021924746991194\">Joerg Diker</a>"], "photo_reference": "AUGGfZm3rqI13wP5e9-bTRvLMWcY27hDQDQb9R3fDnn0EkO3zUjXMsNpT2kWtMs3caQRqu7s5qljM68t7ChZKO3DhKVvUJLBBqHvbO1ds5k1c4gF8rxSGKHT_12o6DRnlPz8RnbteIjemT1jwRBWVFb3FiURA9-2-bQIYyI-Toypa0a-C9V8", "width": 4032}], "place_id": "ChIJhWs_fjdOqEcR-vSlhm7PR_g", "plus_code": {"compound_code": "GC68+9W Berlin, Germany", "global_code": "9F4MGC68+9W"}, "price_level": 2, "rating": 4.4, "reference": "ChIJhWs_fjdOqEcR-vSlhm7PR_g", "scope": "GOOGLE", "types": ["meal_takeaway", "bar", "restaurant", "food", "point_of_interest", "establishment"], "user_ratings_total": 888, "vicinity": "K\u00f6penicker Str. 74, Berlin"}]