[{"business_status": "OPERATIONAL", "geometry": {"location": {"lat": 50.7964019, "lng": -1.0925683}, "viewport": {"northeast": {"lat": 50.79774107989272, "lng": -1.091427020107278}, "southwest": {"lat": 50.79504142010728, "lng": -1.094126679892722}}}, "icon": "https://maps.gstatic.com/mapfiles/place_api/icons/v1/png_71/bar-71.png", "icon_background_color": "#FF9E67", "icon_mask_base_uri": "https://maps.gstatic.com/mapfiles/place_api/icons/v2/bar_pinlet", "name": "The Dockyard Pub Portsmouth", "opening_hours": {"open_now": true}, "photos": [{"height": 3024, "html_attributions": ["<a href=\"https://maps.google.com/maps/contrib/115154645977316335762\">Saoirse Kendall</a>"], "photo_reference": "AUc7tXWT536bbHhIg6uPsUcLpDgEMZiHOeJsJZtf8LkHRrH-luPZLYjC-fjCmWBKPJLM02efIfJ3iE7-1GnBuHg6ilCwJrzDIYFSOkd3GTadQHpsEjgICm0Es8mObIhlxuswXLCf66VSnXTroWfaCWo8KL8rmAOXEdSc7Gum4TXoscWfp56a", "width": 4032}], "place_id": "ChIJ4WsgEVVddEgRSrPhVEh1Fhw", "plus_code": {"compound_code": "QWW4+HX Portsmouth, United Kingdom", "global_code": "9C2WQWW4+HX"}, "price_level": 2, "rating": 4.6, "reference": "ChIJ4WsgEVVddEgRSrPhVEh1Fhw", "scope": "GOOGLE", "types": ["bar", "point_of_interest", "establishment"], "user_ratings_total": 1601, "vicinity": "13-19 Guildhall Walk, Portsmouth"}, {"business_status": "OPERATIONAL", "geometry": {"location": {"lat": 50.7899432, "lng": -1.0932198}, "viewport": {"northeast": {"lat": 50.79129447989272, "lng": -1.091807770107278}, "southwest": {"lat": 50.78859482010727, "lng": -1.094507429892722}}}, "icon": "https://maps.gstatic.com/mapfiles/place_api/icons/v1/png_71/bar-71.png", "icon_background_color": "#FF9E67", "icon_mask_base_uri": "https://maps.gstatic.com/mapfiles/place_api/icons/v2/bar_pinlet", "name": "The Hole In The Wall", "opening_hours": {"open_now": true}, "photos": [{"height": 3000, "html_attributions": ["<a href=\"https://maps.google.com/maps/contrib/113377397798771444847\">Julia Holt</a>"], "photo_reference": "AUc7tXWhS7mIqlbzznaFN9BRrjuO7sDzAtx2fnj7T8SFYyMqJ_pczFA5Ts0oW9pyFyHELXayb-CknHLAvVCxxT1rswArtkjuRSEbeQDSX_II5DbgFToMnGi3d5V75IM-HqTmS-O5tMxvsczSABTfOydx31SDzh9b-0azrXGBj_0__UFy6-dN", "width": 4000}], "place_id": "ChIJrZ68IZpddEgRUGOEz6y5PCY", "plus_code": {"compound_code": "QWQ4+XP Southsea, United Kingdom", "global_code": "9C2WQWQ4+XP"}, "price_level": 1, "rating": 4.7, "reference": "ChIJrZ68IZpddEgRUGOEz6y5PCY", "scope": "GOOGLE", "types": ["bar", "restaurant", "food", "point_of_interest", "establishment"], "user_ratings_total": 643, "vicinity": "36 Great Southsea St, Southsea, Portsmouth, Southsea"}, {"business_status": "OPERATIONAL", "geometry": {"location": {"lat": 50.7962839, "lng": -1.0932513}, "viewport": {"northeast": {"lat": 50.79762952989273, "lng": -1.091852820107278}, "southwest": {"lat": 50.79492987010728, "lng": -1.094552479892722}}}, "icon": "https://maps.gstatic.com/mapfiles/place_api/icons/v1/png_71/bar-71.png", "icon_background_color": "#FF9E67", "icon_mask_base_uri": "https://maps.gstatic.com/mapfiles/place_api/icons/v2/bar_pinlet", "name": "Brewhouse & Kitchen - Portsmouth", "opening_hours": {"open_now": true}, "photos": [{"height": 3000, "html_attributions": ["<a href=\"https://maps.google.com/maps/contrib/117378979429023676987\">A Google User</a>"], "photo_reference": "AUc7tXUr-p8sSnF8NFvcDsesb8aF2KtLy6eJQXgxLj7PvsV_JgS3uOl7aksyF5zVlEjrygO2xQo1G3nCIvW7xhY6H6PBzpoAzwKRjaVkZ8T7ZJIy_rJ-u8BGV2VKi2RWEgLZVb3XFdrSN4VWy7jY4VPcrhSeRp3rg-ednwwLyNJO4Sl8k_DP", "width": 4000}], "place_id": "ChIJjctw1p1ddEgRvsfvxmzSn5M", "plus_code": {"compound_code": "QWW4+GM Portsmouth, United Kingdom", "global_code": "9C2WQWW4+GM"}, "price_level": 2, "rating": 4.4, "reference": "ChIJjctw1p1ddEgRvsfvxmzSn5M", "scope": "GOOGLE", "types": ["bar", "restaurant", "food", "point_of_interest", "establishment"], "user_ratings_total": 1598, "vicinity": "26 Guildhall Walk, Portsmouth"}, {"business_status": "OPERATIONAL", "geometry": {"location": {"lat": 50.798498, "lng": -1.1065368}, "viewport": {"northeast": {"lat": 50.79980432989272, "lng": -1.105303170107278}, "southwest": {"lat": 50.79710467010727, "lng": -1.108002829892722}}}, "icon": "https://maps.gstatic.com/mapfiles/place_api/icons/v1/png_71/bar-71.png", "icon_background_color": "#FF9E67", "icon_mask_base_uri": "https://maps.gstatic.com/mapfiles/place_api/icons/v2/bar_pinlet", "name": "Ship Anson", "opening_hours": {"open_now": true}, "photos": [{"height": 1440, "html_attributions": ["<a href=\"https://maps.google.com/maps/contrib/108562523260956135207\">andriy Trofymenko</a>"], "photo_reference": "AUc7tXVKWnLvVJDkXMrCxQk7gm_QbsHf_tvDYqqncF6rVdSuP0E-sMjy4c3Z9iBSG8qsqW5pPPUOE4cLYSkNacJir6FzGKHRF20q03MpwppPtPwNVHshxjOFeeoGHyl41W94MSCjoEiVSx9kOekkqDYapSpw1IzLShVdyQLd-0b_57qNNMKM", "width": 2560}], "place_id": "ChIJDQTh24FddEgRy5aC-8jlpUo", "plus_code": {"compound_code": "QVXV+99 Portsmouth, United Kingdom", "global_code": "9C2WQVXV+99"}, "price_level": 2, "rating": 4.5, "reference": "ChIJDQTh24FddEgRy5aC-8jlpUo", "scope": "GOOGLE", "types": ["bar", "restaurant", "food", "point_of_interest", "establishment"], "user_ratings_total": 2458, "vicinity": "10 The Hard, Portsea, Portsmouth"}, {"business_status": "OPERATIONAL", "geometry": {"location": {"lat": 50.79245239999999, "lng": -1.1091051}, "viewport": {"northeast": {"lat": 50.79382357989272, "lng": -1.107815120107278}, "southwest": {"lat": 50.79112392010727, "lng": -1.110514779892722}}}, "icon": "https://maps.gstatic.com/mapfiles/place_api/icons/v1/png_71/bar-71.png", "icon_background_color": "#FF9E67", "icon_mask_base_uri": "https://maps.gstatic.com/mapfiles/place_api/icons/v2/bar_pinlet", "name": "Spice Island", "opening_hours": {"open_now": true}, "photos": [{"height": 3036, "html_attributions": ["<a href=\"https://maps.google.com/maps/contrib/107018288822684340687\">Bruce Schafer</a>"], "photo_reference": "AUc7tXVKCPR-O1PBS-sorRRluPQytlPl4G_3fNYiJiycGQeRGnNvHEjuWGIl-2vjvIMnC6LpCU2a5j3pmuokrnrB3fpi6GZGldlQNBZg9Gv_HJF7qWVM8PIqQGTRwqGf2Gtq7oQLquoL3ys09HFKzBN6aNMGIQbTvuEuo1fboTQu75VQfiDv", "width": 4048}], "place_id": "ChIJu5kKbIdddEgRDs-6qvqOE_s", "plus_code": {"compound_code": "QVRR+X9 Portsmouth, United Kingdom", "global_code": "9C2WQVRR+X9"}, "price_level": 2, "rating": 4.3, "reference": "ChIJu5kKbIdddEgRDs-6qvqOE_s", "scope": "GOOGLE", "types": ["bar", "restaurant", "food", "point_of_interest", "establishment"], "user_ratings_total": 2678, "vicinity": "1 Bath Square, Old Portsmouth, Portsmouth"}, {"business_status": "OPERATIONAL", "geometry": {"location": {"lat": 50.7900819, "lng": -1.1036485}, "viewport": {"northeast": {"lat": 50.79147957989272, "lng": -1.102350720107278}, "southwest": {"lat": 50.78877992010728, "lng": -1.105050379892722}}}, "icon": "https://maps.gstatic.com/mapfiles/place_api/icons/v1/png_71/bar-71.png", "icon_background_color": "#FF9E67", "icon_mask_base_uri": "https://maps.gstatic.com/mapfiles/place_api/icons/v2/bar_pinlet", "name": "The Dolphin Pub & Kitchen", "opening_hours": {"open_now": true}, "photos": [{"height": 3120, "html_attributions": ["<a href=\"https://maps.google.com/maps/contrib/104197583358164328502\">Tom Brassington</a>"], "photo_reference": "AUc7tXVlAPhLB8a5g_uSJcvSY0WMhuh6ABwF6pulizTVBJtMpePXOFZps9UDx-GmO0alluQQkzOU6yWTu2_07XJfMUs7WB4RZFGjlIEdE6B-c8K7lZVz--lz4yClEYfer_eEHIjaDQQQ1QdSbixx7bDurbzaQD0ebcWYlCaxC-_6S7kb9QnD", "width": 4160}], "place_id": "ChIJla793oVddEgR78hUKpO2B2U", "plus_code": {"compound_code": "QVRW+2G Portsmouth, United Kingdom", "global_code": "9C2WQVRW+2G"}, "price_level": 2, "rating": 4.3, "reference": "ChIJla793oVddEgR78hUKpO2B2U", "scope": "GOOGLE", "types": ["bar", "restaurant", "food", "point_of_interest", "establishment"], "user_ratings_total": 1194, "vicinity": "41 High St, Old Portsmouth, Portsmouth"}, {"business_status": "OPERATIONAL", "geometry": {"location": {"lat": 50.7921949, "lng": -1.1093922}, "viewport": {"northeast": {"lat": 50.79356007989271, "lng": -1.107984620107278}, "southwest": {"lat": 50.79086042010727, "lng": -1.110684279892722}}}, "icon": "https://maps.gstatic.com/mapfiles/place_api/icons/v1/png_71/bar-71.png", "icon_background_color": "#FF9E67", "icon_mask_base_uri": "https://maps.gstatic.com/mapfiles/place_api/icons/v2/bar_pinlet", "name": "The Still & West, Old Portsmouth", "opening_hours": {"open_now": true}, "photos": [{"height": 1280, "html_attributions": ["<a href=\"https://maps.google.com/maps/contrib/104684092563585318613\">The Still &amp; West</a>"], "photo_reference": "AUc7tXVe2bSvzPZQxDAWVBkY4htdY1BYfSEdYxkWxd2xKJG2uzexDhAcfNIizGE2qukqhNyxQaDb30v2WwueWqqrxgQ7qUmhieKuc4Ge5MiPx5cvAGFPpX11Pc9OXlVtJKqY4-C2MZE6THkKouze-QLIEeluDwZoiLyqbtubGUKKcQkow3mR", "width": 1920}], "place_id": "ChIJu5kKbIdddEgR_0l1Kk93wDc", "plus_code": {"compound_code": "QVRR+V6 Portsmouth, United Kingdom", "global_code": "9C2WQVRR+V6"}, "price_level": 2, "rating": 4.4, "reference": "ChIJu5kKbIdddEgR_0l1Kk93wDc", "scope": "GOOGLE", "types": ["bar", "point_of_interest", "establishment"], "user_ratings_total": 2704, "vicinity": "Bath Square, Old Portsmouth, Portsmouth"}, {"business_status": "OPERATIONAL", "geometry": {"location": {"lat": 50.7927829, "lng": -1.0911102}, "viewport": {"northeast": {"lat": 50.79416382989272, "lng": -1.089837270107278}, "southwest": {"lat": 50.79146417010728, "lng": -1.092536929892722}}}, "icon": "https://maps.gstatic.com/mapfiles/place_api/icons/v1/png_71/bar-71.png", "icon_background_color": "#FF9E67", "icon_mask_base_uri": "https://maps.gstatic.com/mapfiles/place_api/icons/v2/bar_pinlet", "name": "Eldon Arms", "opening_hours": {"open_now": true}, "photos": [{"height": 3366, "html_attributions": ["<a href=\"https://maps.google.com/maps/contrib/116206125926769915497\">Josh Knight</a>"], "photo_reference": "AUc7tXXnZ6455p6t0kf0fwyviRuy4EHN7AP12Zc0B4SSA7NUQNxaoJFynzmoNLf9zaRWwD7rQiX__Xofi9UgZdKlaTOYiiQRx82Dg-51hy5pW4mDK9Ia9EwrzG516BiR-sPFK4quNGJZ7__BcocorAuRhtkEGAGaqNK7Nh5h3eGuVYmwD7Ao", "width": 5984}], "place_id": "ChIJTT7ZOJlddEgRBMaWgF71mX8", "plus_code": {"compound_code": "QWV5+4H Southsea, United Kingdom", "global_code": "9C2WQWV5+4H"}, "price_level": 1, "rating": 4.5, "reference": "ChIJTT7ZOJlddEgRBMaWgF71mX8", "scope": "GOOGLE", "types": ["bar", "point_of_interest", "establishment"], "user_ratings_total": 357, "vicinity": "11-17 Eldon St, Southsea, Portsmouth, Southsea"}, {"business_status": "OPERATIONAL", "geometry": {"location": {"lat": 50.7920916, "lng": -1.0913687}, "viewport": {"northeast": {"lat": 50.79347832989272, "lng": -1.090036220107278}, "southwest": {"lat": 50.79077867010728, "lng": -1.092735879892722}}}, "icon": "https://maps.gstatic.com/mapfiles/place_api/icons/v1/png_71/bar-71.png", "icon_background_color": "#FF9E67", "icon_mask_base_uri": "https://maps.gstatic.com/mapfiles/place_api/icons/v2/bar_pinlet", "name": "King Street Tavern", "opening_hours": {"open_now": true}, "photos": [{"height": 3000, "html_attributions": ["<a href=\"https://maps.google.com/maps/contrib/118442274917345066568\">A Google User</a>"], "photo_reference": "AUc7tXUyUrJcbW0Yf8-XEb_4Ky_nF-xU8VaAxiNrfPH9cI48fV34latTIH1h8KvWmWSfvhm6P6hU9wj_qXVEhD5dsxqKAWbuYQrf6lJhd7ERMKwV0JhVg4vyDZL_RP0RN3vzPNuc0O4wnelE_z4VSUqnSNukE6ed-rVK-o0qugqf7aGKe-Es", "width": 4000}], "place_id": "ChIJ1dWYbJlddEgR-Izai4PiWGY", "plus_code": {"compound_code": "QWR5+RF Southsea, United Kingdom", "global_code": "9C2WQWR5+RF"}, "price_level": 2, "rating": 4.6, "reference": "ChIJ1dWYbJlddEgR-Izai4PiWGY", "scope": "GOOGLE", "types": ["bar", "restaurant", "food", "point_of_interest", "establishment"], "user_ratings_total": 744, "vicinity": "King Street Tavern, 70 King St, Southsea, Portsmouth, Southsea"}, {"business_status": "OPERATIONAL", "geometry": {"location": {"lat": 50.7918041, "lng": -1.106168}, "viewport": {"northeast": {"lat": 50.79311702989272, "lng": -1.104850520107278}, "southwest": {"lat": 50.79041737010728, "lng": -1.107550179892722}}}, "icon": "https://maps.gstatic.com/mapfiles/place_api/icons/v1/png_71/bar-71.png", "icon_background_color": "#FF9E67", "icon_mask_base_uri": "https://maps.gstatic.com/mapfiles/place_api/icons/v2/bar_pinlet", "name": "The Bridge Tavern", "opening_hours": {"open_now": true}, "photos": [{"height": 1280, "html_attributions": ["<a href=\"https://maps.google.com/maps/contrib/107402838756561446799\">The Bridge Tavern</a>"], "photo_reference": "AUc7tXUy1AzXfwMekSSQlw2b2VFUKM7OyD5NEI5CpwYOLwhv4vgl5lP4aJD3XlLGLickQd1OVo46F24zbChTtNhp_8hsk63o5Pq4K6WM7cvrpwpRDAUN5wUq2svx1rBuDic101EMS8hnDWMWAl9hM0Docm4jVv8NjRs-u2vpWSauvtvtDw1L", "width": 1920}], "place_id": "ChIJUVbB7YZddEgRVV39lWfDLwA", "plus_code": {"compound_code": "QVRV+PH Portsmouth, United Kingdom", "global_code": "9C2WQVRV+PH"}, "price_level": 2, "rating": 4.3, "reference": "ChIJUVbB7YZddEgRVV39lWfDLwA", "scope": "GOOGLE", "types": ["bar", "restaurant", "food", "point_of_interest", "establishment"], "user_ratings_total": 946, "vicinity": "54 Camber Pl, East St, Old Portsmouth, Portsmouth"}, {"business_status": "OPERATIONAL", "geometry": {"location": {"lat": 50.7900703, "lng": -1.0733255}, "viewport": {"northeast": {"lat": 50.79140337989272, "lng": -1.072034970107278}, "southwest": {"lat": 50.78870372010727, "lng": -1.074734629892722}}}, "icon": "https://maps.gstatic.com/mapfiles/place_api/icons/v1/png_71/bar-71.png", "icon_background_color": "#FF9E67", "icon_mask_base_uri": "https://maps.gstatic.com/mapfiles/place_api/icons/v2/bar_pinlet", "name": "The Golden Eagle", "opening_hours": {"open_now": true}, "photos": [{"height": 2160, "html_attributions": ["<a href=\"https://maps.google.com/maps/contrib/113799072520332593328\">Richie Sheath</a>"], "photo_reference": "AUc7tXU3zHFVWDDb64SCg-6l4XZuYqFCP5vkubObTSz9GBEZ1CCcrUkDkO81b9tvBnZDVP8__3nQWEgjFcTK4onBGQAenxIIIMPymzpdYOcuSSEtLKRoDrQvSPf2ltxel6osT62XeZEUZNocCTbNNFmGL15UgmQiz_CpkWQiDNBwx7D340j7", "width": 3840}], "place_id": "ChIJXfRDv69ddEgRVsDyxjSoLbc", "plus_code": {"compound_code": "QWRG+2M Southsea, United Kingdom", "global_code": "9C2WQWRG+2M"}, "price_level": 2, "rating": 4.5, "reference": "ChIJXfRDv69ddEgRVsDyxjSoLbc", "scope": "GOOGLE", "types": ["bar", "restaurant", "food", "point_of_interest", "establishment"], "user_ratings_total": 303, "vicinity": "1 Delamere Rd, Southsea, Portsmouth, Southsea"}, {"business_status": "OPERATIONAL", "geometry": {"location": {"lat": 50.8001821, "lng": -1.0707693}, "viewport": {"northeast": {"lat": 50.80147642989272, "lng": -1.069430270107278}, "southwest": {"lat": 50.79877677010728, "lng": -1.072129929892722}}}, "icon": "https://maps.gstatic.com/mapfiles/place_api/icons/v1/png_71/bar-71.png", "icon_background_color": "#FF9E67", "icon_mask_base_uri": "https://maps.gstatic.com/mapfiles/place_api/icons/v2/bar_pinlet", "name": "The Newcome Arms", "opening_hours": {"open_now": true}, "photos": [{"height": 638, "html_attributions": ["<a href=\"https://maps.google.com/maps/contrib/115030942082002275195\">A Google User</a>"], "photo_reference": "AUc7tXWLDbMDfVu3hu9wtBjaKm-J2zc1h-AZOkwJ6rxzG36Gka_zYcGj6DeQZtFbPpd4rqLz34HP687hd1yvfFJF30mrIYeefSHyH7ruKx8niTC8x_o9U-FwYCW9LSBpKs1iEngipfs0PBAwBfDTx_vAXFlnWAydqSyctcj-QV0A_M8Oe6eR", "width": 960}], "place_id": "ChIJ35MCRAdddEgR2kMxoT2Ic0U", "plus_code": {"compound_code": "RW2H+3M Portsmouth, United Kingdom", "global_code": "9C2WRW2H+3M"}, "price_level": 2, "rating": 4.4, "reference": "ChIJ35MCRAdddEgR2kMxoT2Ic0U", "scope": "GOOGLE", "types": ["bar", "point_of_interest", "establishment"], "user_ratings_total": 164, "vicinity": "189 Newcome Rd, Fratton, Portsmouth"}, {"business_status": "OPERATIONAL", "geometry": {"location": {"lat": 50.81026869999999, "lng": -1.0788666}, "viewport": {"northeast": {"lat": 50.81160627989272, "lng": -1.077497220107278}, "southwest": {"lat": 50.80890662010728, "lng": -1.080196879892722}}}, "icon": "https://maps.gstatic.com/mapfiles/place_api/icons/v1/png_71/bar-71.png", "icon_background_color": "#FF9E67", "icon_mask_base_uri": "https://maps.gstatic.com/mapfiles/place_api/icons/v2/bar_pinlet", "name": "George & Dragon", "opening_hours": {"open_now": true}, "photos": [{"height": 3036, "html_attributions": ["<a href=\"https://maps.google.com/maps/contrib/101678101482481307054\">Mark Owen</a>"], "photo_reference": "AUc7tXXXa9q9qnWwWNw8-_TLAxjUBEndPdu1Pwoqhu9IOuJh-sTwpapLm8faxO1oNPxJE2Q-975ZVXHs4z8turFxkqiGPPLmlAmQksLKBjC7SO0Pf_J_kcj4wo58mUprAEHsbbWYQbcg4XOP9o4_HnGz_Fe4A7jiHW9IfP3rvOAB73q6hi5S", "width": 4048}], "place_id": "ChIJ1YO2zBFddEgRxEv2UEl4zWU", "plus_code": {"compound_code": "RW6C+4F Portsmouth, United Kingdom", "global_code": "9C2WRW6C+4F"}, "price_level": 2, "rating": 4.4, "reference": "ChIJ1YO2zBFddEgRxEv2UEl4zWU", "scope": "GOOGLE", "types": ["bar", "point_of_interest", "establishment"], "user_ratings_total": 191, "vicinity": "137 Kingston Rd, Portsmouth"}, {"business_status": "OPERATIONAL", "geometry": {"location": {"lat": 50.7897907, "lng": -1.1030386}, "viewport": {"northeast": {"lat": 50.79113047989271, "lng": -1.101657470107277}, "southwest": {"lat": 50.78843082010727, "lng": -1.104357129892722}}}, "icon": "https://maps.gstatic.com/mapfiles/place_api/icons/v1/png_71/bar-71.png", "icon_background_color": "#FF9E67", "icon_mask_base_uri": "https://maps.gstatic.com/mapfiles/place_api/icons/v2/bar_pinlet", "name": "The Pembroke", "opening_hours": {"open_now": true}, "photos": [{"height": 3024, "html_attributions": ["<a href=\"https://maps.google.com/maps/contrib/101678101482481307054\">Mark Owen</a>"], "photo_reference": "AUc7tXWhQfnCQq-FH428YKFPFVd7YZghB9L4rczpt48_NUJcK7_pMwPUN6uXFdffz0cIjSBtxt3toS9bsk46wg0Rv-NJclC70ZyIR3SkwAn70XEjQpWcg8sp6LdUq2gqFh8BldL_0nI2wCAtLGwoNihkdybBcQ5CiIu8mdkUWFd-2oig4jV4", "width": 4032}], "place_id": "ChIJqYbGwYVddEgReUPbMe61D48", "plus_code": {"compound_code": "QVQW+WQ Portsmouth, United Kingdom", "global_code": "9C2WQVQW+WQ"}, "price_level": 1, "rating": 4.6, "reference": "ChIJqYbGwYVddEgReUPbMe61D48", "scope": "GOOGLE", "types": ["bar", "point_of_interest", "establishment"], "user_ratings_total": 351, "vicinity": "20 Pembroke Rd, Old Portsmouth, Portsmouth"}, {"business_status": "OPERATIONAL", "geometry": {"location": {"lat": 50.8134469, "lng": -1.088583}, "viewport": {"northeast": {"lat": 50.81466697989272, "lng": -1.087290570107278}, "southwest": {"lat": 50.81196732010727, "lng": -1.089990229892722}}}, "icon": "https://maps.gstatic.com/mapfiles/place_api/icons/v1/png_71/bar-71.png", "icon_background_color": "#FF9E67", "icon_mask_base_uri": "https://maps.gstatic.com/mapfiles/place_api/icons/v2/bar_pinlet", "name": "The Ship & Castle", "opening_hours": {"open_now": true}, "photos": [{"height": 2438, "html_attributions": ["<a href=\"https://maps.google.com/maps/contrib/116648905244432151610\">Ian Hall</a>"], "photo_reference": "AUc7tXUjiliBIigeLuq0RWIJ950sEA0KfOOtHY9Pw2q8Wna1SmLuofUHmar-ZnAt7i6JE8jVNvvTXz7A9f1tkgW9mRNbDuOkOEVKHFFrCIGQ1xJtqP4gFKd4221Q6iWU7Hbuxp3VSYR5-ooMGlUSdQ1iFMo21TV4Q-rPeZExDHAVRz3gHrk", "width": 3413}], "place_id": "ChIJiZ2fv2xddEgR4abxlIQQ8T8", "plus_code": {"compound_code": "RW76+9H Portsmouth, United Kingdom", "global_code": "9C2WRW76+9H"}, "price_level": 1, "rating": 4.4, "reference": "ChIJiZ2fv2xddEgR4abxlIQQ8T8", "scope": "GOOGLE", "types": ["bar", "restaurant", "food", "point_of_interest", "establishment"], "user_ratings_total": 485, "vicinity": "90 Rudmore Square, Portsmouth"}, {"business_status": "OPERATIONAL", "geometry": {"location": {"lat": 50.79512690000001, "lng": -1.1063434}, "viewport": {"northeast": {"lat": 50.79660012989272, "lng": -1.105054720107278}, "southwest": {"lat": 50.79390047010728, "lng": -1.107754379892722}}}, "icon": "https://maps.gstatic.com/mapfiles/place_api/icons/v1/png_71/bar-71.png", "icon_background_color": "#FF9E67", "icon_mask_base_uri": "https://maps.gstatic.com/mapfiles/place_api/icons/v2/bar_pinlet", "name": "The Old Customs House, Gunwharf Quays", "opening_hours": {"open_now": true}, "photos": [{"height": 3024, "html_attributions": ["<a href=\"https://maps.google.com/maps/contrib/100622778053434902660\">Dunk</a>"], "photo_reference": "AUc7tXURF0vl0sQClxIuZCUQWwBC9YIThzG-VA1ou_3-UK-aCDp3zFqMIpWscrU6vzdRoVJFXWa8OYZKEj6vMW1uzVh35pYQXfhj4_uV3pDLp1Jw2SabAQJQRn-lctiFec9BK658J9CmYUEXlRiW65O7eWDh3H9TW0qhnOg2YBG-Yd9ZcjaA", "width": 4032}], "place_id": "ChIJkwukFoFddEgREb8RRxBuXf4", "plus_code": {"compound_code": "QVWV+3F Portsmouth, United Kingdom", "global_code": "9C2WQVWV+3F"}, "price_level": 2, "rating": 4.2, "reference": "ChIJkwukFoFddEgREb8RRxBuXf4", "scope": "GOOGLE", "types": ["bar", "point_of_interest", "establishment"], "user_ratings_total": 2548, "vicinity": "Vernon Buildings, Portsmouth"}, {"business_status": "OPERATIONAL", "geometry": {"location": {"lat": 50.7961664, "lng": -1.0928599}, "viewport": {"northeast": {"lat": 50.79754952989272, "lng": -1.091609220107278}, "southwest": {"lat": 50.79484987010727, "lng": -1.094308879892722}}}, "icon": "https://maps.gstatic.com/mapfiles/place_api/icons/v1/png_71/bar-71.png", "icon_background_color": "#FF9E67", "icon_mask_base_uri": "https://maps.gstatic.com/mapfiles/place_api/icons/v2/bar_pinlet", "name": "The Guildhall Village", "opening_hours": {"open_now": true}, "photos": [{"height": 4000, "html_attributions": ["<a href=\"https://maps.google.com/maps/contrib/105105166425006765920\">A Google User</a>"], "photo_reference": "AUc7tXWbv_RKKCVwAmddet_uTzQ4oancN8_lPz-2wuSpC4Uc61fPfuvEWN40crbAKMIgnRwEXLcFt5DHMG7Dgo-b1sIXQ4s0Slul_D72RXq6XQw9oAYZPU7mINKIb50__YLQ054h1wnmWlPzJrwDQnTymHs84IqLMOqsMs1-wZdYhxJxl1Kb", "width": 6000}], "place_id": "ChIJJwPjsD9ddEgRpkkKHKpTFE8", "plus_code": {"compound_code": "QWW4+FR Portsmouth, United Kingdom", "global_code": "9C2WQWW4+FR"}, "rating": 4.2, "reference": "ChIJJwPjsD9ddEgRpkkKHKpTFE8", "scope": "GOOGLE", "types": ["meal_delivery", "bar", "restaurant", "food", "point_of_interest", "establishment"], "user_ratings_total": 218, "vicinity": "25 Guildhall Walk, Landport, Portsmouth"}, {"business_status": "OPERATIONAL", "geometry": {"location": {"lat": 50.793851, "lng": -1.091209}, "viewport": {"northeast": {"lat": 50.79521797989273, "lng": -1.089893920107278}, "southwest": {"lat": 50.79251832010728, "lng": -1.092593579892722}}}, "icon": "https://maps.gstatic.com/mapfiles/place_api/icons/v1/png_71/bar-71.png", "icon_background_color": "#FF9E67", "icon_mask_base_uri": "https://maps.gstatic.com/mapfiles/place_api/icons/v2/bar_pinlet", "name": "Raven Pub", "opening_hours": {"open_now": true}, "photos": [{"height": 2674, "html_attributions": ["<a href=\"https://maps.google.com/maps/contrib/105877824765210794145\">A Google User</a>"], "photo_reference": "AUc7tXXsl8utbUNMza1_9cHG9HxIqC-MXn8LWy1Fw-C40h9BxttMJRjZfwyIlgRAMlypAqlsspzqzwNv7YQwUv2_lJJ9Ub8Lhb9WcaYjZVu3I6lfPSRn9H8tnFEueXau1912VEkxlNqtNqv99_YgKXzQLAD5c9wsNdLbb-p8otq0aAifG9Od", "width": 4398}], "place_id": "ChIJ52YHzZ5ddEgRWNuhTvqYCs0", "plus_code": {"compound_code": "QWV5+GG Southsea, United Kingdom", "global_code": "9C2WQWV5+GG"}, "price_level": 1, "rating": 4.4, "reference": "ChIJ52YHzZ5ddEgRWNuhTvqYCs0", "scope": "GOOGLE", "types": ["bar", "point_of_interest", "establishment"], "user_ratings_total": 113, "vicinity": "Bedford St, Southsea, Portsmouth, Southsea"}, {"business_status": "OPERATIONAL", "geometry": {"location": {"lat": 50.809648, "lng": -1.0769619}, "viewport": {"northeast": {"lat": 50.81094972989272, "lng": -1.075577720107278}, "southwest": {"lat": 50.80825007010728, "lng": -1.078277379892722}}}, "icon": "https://maps.gstatic.com/mapfiles/place_api/icons/v1/png_71/bar-71.png", "icon_background_color": "#FF9E67", "icon_mask_base_uri": "https://maps.gstatic.com/mapfiles/place_api/icons/v2/bar_pinlet", "name": "The Druid's Arms", "opening_hours": {"open_now": true}, "photos": [{"height": 4624, "html_attributions": ["<a href=\"https://maps.google.com/maps/contrib/111135530233625116611\">A Google User</a>"], "photo_reference": "AUc7tXVqLYXz_zZYwneUrjrfyQkjwyPKXaK9x7ud6LGOay_DCaOmU6UKRT6PWiE0VLoXiMxdowFw2MW5vptwF4TtBKhq3X3nOwuLWyHDrBbmDCJNncx3apGOVq_uWSB7eeWuF23lkUjfPALSYYi9L8GVus55xeOmj-adaUwiZvtp7eO9ekU-", "width": 3468}], "place_id": "ChIJmd2NrhpddEgRzqqWdQb4XRY", "plus_code": {"compound_code": "RW5F+V6 Portsmouth, United Kingdom", "global_code": "9C2WRW5F+V6"}, "price_level": 2, "rating": 4.4, "reference": "ChIJmd2NrhpddEgRzqqWdQb4XRY", "scope": "GOOGLE", "types": ["park", "bar", "restaurant", "food", "point_of_interest", "establishment"], "user_ratings_total": 101, "vicinity": "13 Binsteed Rd, Fratton, Portsmouth"}, {"business_status": "OPERATIONAL", "geometry": {"location": {"lat": 50.7891004, "lng": -1.076516}, "viewport": {"northeast": {"lat": 50.79047357989272, "lng": -1.075137220107278}, "southwest": {"lat": 50.78777392010728, "lng": -1.077836879892722}}}, "icon": "https://maps.gstatic.com/mapfiles/place_api/icons/v1/png_71/bar-71.png", "icon_background_color": "#FF9E67", "icon_mask_base_uri": "https://maps.gstatic.com/mapfiles/place_api/icons/v2/bar_pinlet", "name": "The Lawrence Arms", "opening_hours": {"open_now": true}, "photos": [{"height": 3456, "html_attributions": ["<a href=\"https://maps.google.com/maps/contrib/106620203732040589208\">alejandro guzman</a>"], "photo_reference": "AUc7tXWy5OhHj1nq1eA_dffL9qIrqi8bexb9fSYSBYZihk2tT5SP6BKFZW4XdAz-HtvWI_uigo2MNI6u4TJd4j6LqocfqtvBQ5AllYyJLk3iaAMBBoavCqs34uZ4gce3vD2ikW3C8t6Y4kVW_jS2PFLTah1fzRDmydsfCr1MZN-hqOFTzf-R", "width": 4608}], "place_id": "ChIJS9MdNqVddEgRVEO9h9ZSGas", "plus_code": {"compound_code": "QWQF+J9 Southsea, United Kingdom", "global_code": "9C2WQWQF+J9"}, "price_level": 2, "rating": 4.6, "reference": "ChIJS9MdNqVddEgRVEO9h9ZSGas", "scope": "GOOGLE", "types": ["bar", "point_of_interest", "establishment"], "user_ratings_total": 472, "vicinity": "63 Lawrence Rd, Southsea, Portsmouth, Southsea"}, {"business_status": "OPERATIONAL", "geometry": {"location": {"lat": 50.7988307, "lng": -1.1069647}, "viewport": {"northeast": {"lat": 50.80020657989272, "lng": -1.105574320107278}, "southwest": {"lat": 50.79750692010728, "lng": -1.108273979892722}}}, "icon": "https://maps.gstatic.com/mapfiles/place_api/icons/v1/png_71/bar-71.png", "icon_background_color": "#FF9E67", "icon_mask_base_uri": "https://maps.gstatic.com/mapfiles/place_api/icons/v2/bar_pinlet", "name": "The Ship & Castle", "opening_hours": {"open_now": true}, "photos": [{"height": 1450, "html_attributions": ["<a href=\"https://maps.google.com/maps/contrib/111941996399252793572\">Sam Aberman</a>"], "photo_reference": "AUc7tXWYFWiEogG8-0Bn5d7_bljuhXGzp7Fe3HGYqcoDk-kum8dFGy6sdtvtPktZ6Xm02o6Eiy4KXcHHasZvkmKqXzUHzIVF3bLQkOzzt0-Mmnksl_oNNsoHzIcUnVmbiA2UAjgxhge3q_KJuzdAw-kLqXBb9vrz-RwgLFainxKnBhRoMFbP", "width": 2578}], "place_id": "ChIJYdMm0YFddEgRSbVxo69ykVE", "plus_code": {"compound_code": "QVXV+H8 Portsmouth, United Kingdom", "global_code": "9C2WQVXV+H8"}, "price_level": 2, "rating": 4.3, "reference": "ChIJYdMm0YFddEgRSbVxo69ykVE", "scope": "GOOGLE", "types": ["bar", "meal_takeaway", "restaurant", "food", "point_of_interest", "establishment"], "user_ratings_total": 1173, "vicinity": "1-2 The Hard, Portsea, Portsmouth"}, {"business_status": "OPERATIONAL", "geometry": {"location": {"lat": 50.8132432, "lng": -1.083513}, "viewport": {"northeast": {"lat": 50.81450332989271, "lng": -1.082140820107278}, "southwest": {"lat": 50.81180367010727, "lng": -1.084840479892722}}}, "icon": "https://maps.gstatic.com/mapfiles/place_api/icons/v1/png_71/bar-71.png", "icon_background_color": "#FF9E67", "icon_mask_base_uri": "https://maps.gstatic.com/mapfiles/place_api/icons/v2/bar_pinlet", "name": "Sovereigns", "opening_hours": {"open_now": true}, "photos": [{"height": 2592, "html_attributions": ["<a href=\"https://maps.google.com/maps/contrib/114085173116311653222\">Mike</a>"], "photo_reference": "AUc7tXXS6aIo5xOomndIftmPq2KSfvkHt9dhbk1KCFR9DWHmjtr-bJITcrUqsN4jVimaWIe9LwoAa1EU2Zzti0M4ARQywvFd0nN89ZWZpiCIhtTxyDjmkzk2HzzMQvXkTMPpbfCNs6bTGC4g9uBn-4iIRIcv1CyAgwmL16IGS7d_V3xZK_Fc", "width": 4608}], "place_id": "ChIJa3bQbhFddEgRl9NodnEzkSs", "plus_code": {"compound_code": "RW78+7H Portsmouth, United Kingdom", "global_code": "9C2WRW78+7H"}, "price_level": 1, "rating": 4.1, "reference": "ChIJa3bQbhFddEgRl9NodnEzkSs", "scope": "GOOGLE", "types": ["bar", "restaurant", "food", "point_of_interest", "establishment"], "user_ratings_total": 1480, "vicinity": "Kingston Cres, North End, Portsmouth"}, {"business_status": "OPERATIONAL", "geometry": {"location": {"lat": 50.8168525, "lng": -1.0794193}, "viewport": {"northeast": {"lat": 50.81819402989272, "lng": -1.078132420107278}, "southwest": {"lat": 50.81549437010728, "lng": -1.080832079892722}}}, "icon": "https://maps.gstatic.com/mapfiles/place_api/icons/v1/png_71/bar-71.png", "icon_background_color": "#FF9E67", "icon_mask_base_uri": "https://maps.gstatic.com/mapfiles/place_api/icons/v2/bar_pinlet", "name": "Clarence Garden", "opening_hours": {"open_now": true}, "photos": [{"height": 2448, "html_attributions": ["<a href=\"https://maps.google.com/maps/contrib/117736061984608983719\">Phill Mintram</a>"], "photo_reference": "AUc7tXV2s3vD4Dlp3xcy5QqkPrpM52XVgPHYz2CxQy4QNWBSpFzkIHOa9FHCKSohNKzBsIqEAlyJkNDYh97grCKGcICldVe7chtM3dVFDWNTCEsFk_tlQeSD1aatgIVDvBeYDJ-rYw9odJka5L1QZ1VBGMChIK_WFE_eYWIPSW8cWmAq03iE", "width": 3264}], "place_id": "ChIJy2MJ_BZddEgRy4U2pPssCiE", "plus_code": {"compound_code": "RW8C+P6 Portsmouth, United Kingdom", "global_code": "9C2WRW8C+P6"}, "price_level": 2, "rating": 3.9, "reference": "ChIJy2MJ_BZddEgRy4U2pPssCiE", "scope": "GOOGLE", "types": ["bar", "restaurant", "food", "point_of_interest", "establishment"], "user_ratings_total": 300, "vicinity": "118 London Rd, North End, Portsmouth"}, {"business_status": "OPERATIONAL", "geometry": {"location": {"lat": 50.8172446, "lng": -1.0642907}, "viewport": {"northeast": {"lat": 50.81859117989272, "lng": -1.063059420107278}, "southwest": {"lat": 50.81589152010728, "lng": -1.065759079892722}}}, "icon": "https://maps.gstatic.com/mapfiles/place_api/icons/v1/png_71/bar-71.png", "icon_background_color": "#FF9E67", "icon_mask_base_uri": "https://maps.gstatic.com/mapfiles/place_api/icons/v2/bar_pinlet", "name": "Star & Garter", "opening_hours": {"open_now": true}, "photos": [{"height": 4128, "html_attributions": ["<a href=\"https://maps.google.com/maps/contrib/112916895906463370714\">Star &amp; Garter</a>"], "photo_reference": "AUc7tXVEKW6PKye3pkjXSK8ISHW7fELK7EA6TqgEJ_mv2Tic7F412KHGkn0HBAlaHl38ESwV3i8tCT4gKCt0HKutf2mBKEVL1OQSL0ykpV_xKTzrDVY6_mhwlLGTwbuwQRS_8CBKX2P3j64m0bhUiDU8Gd1Hw03-g4c-0zp3PAtW04OLClPX", "width": 6192}], "place_id": "ChIJncgSKOBcdEgRntvqQfNQ5fk", "plus_code": {"compound_code": "RW8P+V7 Portsmouth, United Kingdom", "global_code": "9C2WRW8P+V7"}, "price_level": 1, "rating": 4.3, "reference": "ChIJncgSKOBcdEgRntvqQfNQ5fk", "scope": "GOOGLE", "types": ["bar", "restaurant", "food", "point_of_interest", "establishment"], "user_ratings_total": 453, "vicinity": "230 Copnor Rd, Portsmouth"}, {"business_status": "OPERATIONAL", "geometry": {"location": {"lat": 50.7979356, "lng": -1.106167}, "viewport": {"northeast": {"lat": 50.79925182989273, "lng": -1.104856170107278}, "southwest": {"lat": 50.79655217010728, "lng": -1.107555829892722}}}, "icon": "https://maps.gstatic.com/mapfiles/place_api/icons/v1/png_71/lodging-71.png", "icon_background_color": "#909CE1", "icon_mask_base_uri": "https://maps.gstatic.com/mapfiles/place_api/icons/v2/hotel_pinlet", "name": "The Lady Hamilton", "opening_hours": {"open_now": true}, "photos": [{"height": 2592, "html_attributions": ["<a href=\"https://maps.google.com/maps/contrib/101225471951174011791\">Mandisi Mlilo</a>"], "photo_reference": "AUc7tXWkHGmO6jkvRQZdCEE3puixuLxZo2bJcWjyxCYIc_yhq-rFxt_6ud0CeZfrVyKPd4aX_i969hB1BvTt7N-OzfPn8Ncp_eed3sYoOi2763lBw02ASuUGtJ0MsorOyWzZLK2zHOJRcWCUqnjcvuG_UtyLIwAHH17iaBVcm7iMoXysYF60", "width": 4608}], "place_id": "ChIJj_De6YFddEgRR2vSnEfV9Pc", "plus_code": {"compound_code": "QVXV+5G Portsmouth, United Kingdom", "global_code": "9C2WQVXV+5G"}, "rating": 4, "reference": "ChIJj_De6YFddEgRR2vSnEfV9Pc", "scope": "GOOGLE", "types": ["bar", "lodging", "restaurant", "food", "point_of_interest", "establishment"], "user_ratings_total": 538, "vicinity": "21 The Hard, Portsmouth"}, {"business_status": "OPERATIONAL", "geometry": {"location": {"lat": 50.7883116, "lng": -1.0950439}, "viewport": {"northeast": {"lat": 50.78952887989272, "lng": -1.093758470107278}, "southwest": {"lat": 50.78682922010728, "lng": -1.096458129892722}}}, "icon": "https://maps.gstatic.com/mapfiles/place_api/icons/v1/png_71/bar-71.png", "icon_background_color": "#FF9E67", "icon_mask_base_uri": "https://maps.gstatic.com/mapfiles/place_api/icons/v2/bar_pinlet", "name": "Brewhouse & Kitchen - Southsea", "opening_hours": {"open_now": true}, "photos": [{"height": 2293, "html_attributions": ["<a href=\"https://maps.google.com/maps/contrib/111582755537863880134\">William Mahy</a>"], "photo_reference": "AUc7tXWNYb2LqSMGu1SA7PDctJlhRDpqd16UP1mihK-3ve-D7ig4IGqmH94f9H_wmU8O5RzpVSU9xF-LHda8QC9yDTwdWR2_l19B_6SupSp2c41lBx7YsZVpPEzy1FhrW-lMR2gLzbi8E6sVYV7WlVeqnvOIQyMZvx4nkOnHl1wmG7mKzBRh", "width": 3555}], "place_id": "ChIJgTW0BdRddEgRrfOEwr_J8RQ", "plus_code": {"compound_code": "QWQ3+8X Southsea, United Kingdom", "global_code": "9C2WQWQ3+8X"}, "price_level": 2, "rating": 4.5, "reference": "ChIJgTW0BdRddEgRrfOEwr_J8RQ", "scope": "GOOGLE", "types": ["bar", "restaurant", "food", "point_of_interest", "establishment"], "user_ratings_total": 1032, "vicinity": "51 Southsea Terrace, Southsea, Portsmouth, Southsea"}, {"business_status": "OPERATIONAL", "geometry": {"location": {"lat": 50.7952223, "lng": -1.1058752}, "viewport": {"northeast": {"lat": 50.79690372989272, "lng": -1.104002470107278}, "southwest": {"lat": 50.79420407010728, "lng": -1.106702129892722}}}, "icon": "https://maps.gstatic.com/mapfiles/place_api/icons/v1/png_71/bar-71.png", "icon_background_color": "#FF9E67", "icon_mask_base_uri": "https://maps.gstatic.com/mapfiles/place_api/icons/v2/bar_pinlet", "name": "Tap & Tandoor", "opening_hours": {"open_now": true}, "photos": [{"height": 4330, "html_attributions": ["<a href=\"https://maps.google.com/maps/contrib/101079526651470057747\">naresh kolluru</a>"], "photo_reference": "AUc7tXUZh-sDIRejI44dZQZLrrGWCvAAB1p4HQV0IBymgXdBaX6aLa2vCLLQnAP6dBhvhf3s-e6c9lBz_cQmO_AcdHBEX8KFx43xvgdtwI9EQzRL3hPFxR5sJ9688OxYldbiDNUEDDdsS6gojOBnANZF1QlpzOmeTTLJX0ZrzkAiEjO3fluI", "width": 5773}], "place_id": "ChIJYa3XAudddEgRiGThN9L3L_o", "plus_code": {"compound_code": "QVWV+3J Portsmouth, United Kingdom", "global_code": "9C2WQVWV+3J"}, "rating": 4.7, "reference": "ChIJYa3XAudddEgRiGThN9L3L_o", "scope": "GOOGLE", "types": ["bar", "restaurant", "food", "point_of_interest", "establishment"], "user_ratings_total": 387, "vicinity": "Gunwharf Rd, Portsmouth"}, {"business_status": "OPERATIONAL", "geometry": {"location": {"lat": 50.7970322, "lng": -1.0926473}, "viewport": {"northeast": {"lat": 50.79842072989272, "lng": -1.091351120107278}, "southwest": {"lat": 50.79572107010728, "lng": -1.094050779892722}}}, "icon": "https://maps.gstatic.com/mapfiles/place_api/icons/v1/png_71/bar-71.png", "icon_background_color": "#FF9E67", "icon_mask_base_uri": "https://maps.gstatic.com/mapfiles/place_api/icons/v2/bar_pinlet", "name": "The Isambard Kingdom Brunel - JD Wetherspoon", "opening_hours": {"open_now": true}, "photos": [{"height": 3024, "html_attributions": ["<a href=\"https://maps.google.com/maps/contrib/102744790438143309482\">Rhiannon Hunt</a>"], "photo_reference": "AUc7tXWKo3b4FWPtKMbQnRRa_VeNJqBrKkeEuFYD-Xw0j2dffducxCciSKtfZl4VxXW3z_l2OVKUGoep1nHwheXhRdBksrsk3xJ2N3JI2BAfinmuRDAi4e904vjRg4WOlk3iQhZBQafmVLikEisz_WFZhIp3VVSCDEtMdnNZqsHRL7Ho8biQ", "width": 4032}], "place_id": "ChIJ88tw1p1ddEgRwtvUgLIgupk", "plus_code": {"compound_code": "QWW4+RW Portsmouth, United Kingdom", "global_code": "9C2WQWW4+RW"}, "price_level": 1, "rating": 3.9, "reference": "ChIJ88tw1p1ddEgRwtvUgLIgupk", "scope": "GOOGLE", "types": ["bar", "restaurant", "food", "point_of_interest", "establishment"], "user_ratings_total": 3324, "vicinity": "2 Guildhall Walk, Portsmouth"}, {"business_status": "OPERATIONAL", "geometry": {"location": {"lat": 50.816377, "lng": -1.079985}, "viewport": {"northeast": {"lat": 50.81771787989273, "lng": -1.078460120107278}, "southwest": {"lat": 50.81501822010728, "lng": -1.081159779892722}}}, "icon": "https://maps.gstatic.com/mapfiles/place_api/icons/v1/png_71/bar-71.png", "icon_background_color": "#FF9E67", "icon_mask_base_uri": "https://maps.gstatic.com/mapfiles/place_api/icons/v2/bar_pinlet", "name": "Thatchers", "opening_hours": {"open_now": true}, "photos": [{"height": 768, "html_attributions": ["<a href=\"https://maps.google.com/maps/contrib/113858254966428243352\">Thatchers Bar Lounge</a>"], "photo_reference": "AUc7tXXAlwUH2yzU3XWmF_T1R6x50chcD0mTsjjRLpVA5BE1EAYUFb5JkGap1Nr_b9cYJ1xvGxYKK-H331fUWjmLoDQUhSITidE-01-aBjMED2hJMHjgIumFiBWkv5XDK8N2rYZTAmDLK9aY1mWaSJlJCxUm16V0uDdzIIZOudjosgixjWIT", "width": 1024}], "place_id": "ChIJhRto7xZddEgR97wOlkfuqGA", "plus_code": {"compound_code": "RW8C+H2 Portsmouth, United Kingdom", "global_code": "9C2WRW8C+H2"}, "price_level": 2, "rating": 4.2, "reference": "ChIJhRto7xZddEgR97wOlkfuqGA", "scope": "GOOGLE", "types": ["bar", "restaurant", "food", "point_of_interest", "establishment"], "user_ratings_total": 285, "vicinity": "95 London Rd, North End, Portsmouth"}, {"business_status": "OPERATIONAL", "geometry": {"location": {"lat": 50.8154435, "lng": -1.0795558}, "viewport": {"northeast": {"lat": 50.81679102989272, "lng": -1.078242170107278}, "southwest": {"lat": 50.81409137010728, "lng": -1.080941829892722}}}, "icon": "https://maps.gstatic.com/mapfiles/place_api/icons/v1/png_71/bar-71.png", "icon_background_color": "#FF9E67", "icon_mask_base_uri": "https://maps.gstatic.com/mapfiles/place_api/icons/v2/bar_pinlet", "name": "The Sir John Baker - JD Wetherspoon", "opening_hours": {"open_now": true}, "photos": [{"height": 3024, "html_attributions": ["<a href=\"https://maps.google.com/maps/contrib/104169918242633529168\">J Udunuwara</a>"], "photo_reference": "AUc7tXVoerAXSjXndhLTImeyRkeQQ12tpoGO4DKc0IiV51wy6nC1oZFnGJeCBiKBiAkr1D3ygkNeTqrIGP6kju7n1tLfj3y63sZwqTlV2GSz9eYEYQC6KNkVmkfs87ReNO5PgLymQ4SsInvpCgpCZifUOcmSrYA7aeOqM4ueF7P-Arg5B8J3", "width": 4032}], "place_id": "ChIJe63MLBFddEgRCdQSyas1EkI", "plus_code": {"compound_code": "RW8C+55 Portsmouth, United Kingdom", "global_code": "9C2WRW8C+55"}, "price_level": 1, "rating": 4, "reference": "ChIJe63MLBFddEgRCdQSyas1EkI", "scope": "GOOGLE", "types": ["bar", "restaurant", "food", "point_of_interest", "establishment"], "user_ratings_total": 1219, "vicinity": "80 London Rd, North End, Portsmouth"}, {"business_status": "OPERATIONAL", "geometry": {"location": {"lat": 50.79588580000001, "lng": -1.1081828}, "viewport": {"northeast": {"lat": 50.79723562989273, "lng": -1.106832970107278}, "southwest": {"lat": 50.79453597010728, "lng": -1.109532629892722}}}, "icon": "https://maps.gstatic.com/mapfiles/place_api/icons/v1/png_71/restaurant-71.png", "icon_background_color": "#FF9E67", "icon_mask_base_uri": "https://maps.gstatic.com/mapfiles/place_api/icons/v2/restaurant_pinlet", "name": "Cosy Club", "opening_hours": {"open_now": true}, "photos": [{"height": 1335, "html_attributions": ["<a href=\"https://maps.google.com/maps/contrib/102979533056795299660\">A Google User</a>"], "photo_reference": "AUc7tXUYcvbvl0ol-Ob06or4rmha3n45aWyCrfzMcd7Nbz_m9-k8Lf-ddy_u-FnjYqWtOD1lzzdYN0_KQ8vJ2Ma00nxK0LoaWMPf2wujlikxdyefqECGNNYpv1YHNyUtHvnbP3ZbDvtZoEfoebGG7sd2drTRrQ1LsKpmoRF9VMEYQ5uTydDa", "width": 2000}], "place_id": "ChIJcQVgn5dddEgRmcB0ldRbCL4", "plus_code": {"compound_code": "QVWR+9P Portsmouth, United Kingdom", "global_code": "9C2WQVWR+9P"}, "price_level": 2, "rating": 4.4, "reference": "ChIJcQVgn5dddEgRmcB0ldRbCL4", "scope": "GOOGLE", "types": ["cafe", "bar", "restaurant", "food", "point_of_interest", "establishment"], "user_ratings_total": 1011, "vicinity": "28-29, North Bldg, Portsmouth"}, {"business_status": "OPERATIONAL", "geometry": {"location": {"lat": 50.7894608, "lng": -1.1060077}, "viewport": {"northeast": {"lat": 50.79085312989272, "lng": -1.104639170107278}, "southwest": {"lat": 50.78815347010728, "lng": -1.107338829892722}}}, "icon": "https://maps.gstatic.com/mapfiles/place_api/icons/v1/png_71/bar-71.png", "icon_background_color": "#FF9E67", "icon_mask_base_uri": "https://maps.gstatic.com/mapfiles/place_api/icons/v2/bar_pinlet", "name": "The Wellington", "opening_hours": {"open_now": true}, "photos": [{"height": 2160, "html_attributions": ["<a href=\"https://maps.google.com/maps/contrib/109492574807081610386\">Helen Seward</a>"], "photo_reference": "AUc7tXXHuxowJAVv32Fvh5Gfv68MwyR2ZyZlcBvF-ZxAnJ4ZYd747fKNRECRByaITVtmxwm1X4p6px451Xmp-nicFwn4YkwiRveGjBb_Zk28KDjB8F_8GtvT29Rh13rCZWy1y5QnBUzFDYsnMo_eFVSoCz3iSHxwW41vRkaRII4zfZ2y4UiM", "width": 3840}], "place_id": "ChIJPcn9PoZddEgReyYPd349sEo", "plus_code": {"compound_code": "QVQV+QH Portsmouth, United Kingdom", "global_code": "9C2WQVQV+QH"}, "price_level": 2, "rating": 4.1, "reference": "ChIJPcn9PoZddEgReyYPd349sEo", "scope": "GOOGLE", "types": ["bar", "restaurant", "food", "point_of_interest", "establishment"], "user_ratings_total": 483, "vicinity": "62 High St, Old Portsmouth, Portsmouth"}, {"business_status": "OPERATIONAL", "geometry": {"location": {"lat": 50.7900342, "lng": -1.0875066}, "viewport": {"northeast": {"lat": 50.79137042989272, "lng": -1.086105720107278}, "southwest": {"lat": 50.78867077010727, "lng": -1.088805379892722}}}, "icon": "https://maps.gstatic.com/mapfiles/place_api/icons/v1/png_71/restaurant-71.png", "icon_background_color": "#FF9E67", "icon_mask_base_uri": "https://maps.gstatic.com/mapfiles/place_api/icons/v2/restaurant_pinlet", "name": "Huis Belgian Bar & Kitchen", "opening_hours": {"open_now": true}, "photos": [{"height": 9000, "html_attributions": ["<a href=\"https://maps.google.com/maps/contrib/108953457271715400535\">Peter Goodfellow</a>"], "photo_reference": "AUc7tXVgSu9Gk-yuGslMQXi-y1TmRBMF6H3xZ139nuPJM0sGoDsPE7ykEc_e-bFk1ke-tCM9fVT1cYVet-_ZzuaV8pcpp5I7EtNc5MnJsQG6KnjGhLAKvtfJ5UGP1FcoJoCXnpmyFfXkKdvKfKTywm-Z_X2yGrFVGhht3IYSndLZtI68PCIT", "width": 12000}], "place_id": "ChIJef2MRphddEgRLsD3vmvMj5s", "plus_code": {"compound_code": "QWR6+2X Southsea, United Kingdom", "global_code": "9C2WQWR6+2X"}, "price_level": 2, "rating": 4.7, "reference": "ChIJef2MRphddEgRLsD3vmvMj5s", "scope": "GOOGLE", "types": ["cafe", "bar", "restaurant", "food", "point_of_interest", "establishment"], "user_ratings_total": 1000, "vicinity": "62 Elm Grove, Southsea, Portsmouth, Southsea"}, {"business_status": "OPERATIONAL", "geometry": {"location": {"lat": 50.795319, "lng": -1.1056645}, "viewport": {"northeast": {"lat": 50.79690252989272, "lng": -1.103888520107278}, "southwest": {"lat": 50.79420287010728, "lng": -1.106588179892722}}}, "icon": "https://maps.gstatic.com/mapfiles/place_api/icons/v1/png_71/bar-71.png", "icon_background_color": "#FF9E67", "icon_mask_base_uri": "https://maps.gstatic.com/mapfiles/place_api/icons/v2/bar_pinlet", "name": "The Alchemist Portsmouth", "opening_hours": {"open_now": true}, "photos": [{"height": 3984, "html_attributions": ["<a href=\"https://maps.google.com/maps/contrib/100218798538545660972\">A Google User</a>"], "photo_reference": "AUc7tXVKEEYtfx7WdwIBoSG0kxzn7k7WKCyk6RtyBK89e8Xa_LwRpvONyMYXWdmdKnr4usBnt9AfLa_FSrquN7myKagIS14Skksdm0HCAMbaxzFvSQvO0PakOBg2q6SjvZUi5gnvviTVxXt4YFk8NcR9uycpVtDFff72JYnZLl6lBz-62iMi", "width": 5976}], "place_id": "ChIJB6xoplpddEgR30qqe5Oy2cs", "plus_code": {"compound_code": "QVWV+4P Portsmouth, United Kingdom", "global_code": "9C2WQVWV+4P"}, "price_level": 3, "rating": 4.4, "reference": "ChIJB6xoplpddEgR30qqe5Oy2cs", "scope": "GOOGLE", "types": ["bar", "restaurant", "food", "point_of_interest", "establishment"], "user_ratings_total": 815, "vicinity": "Unit R02, 89 Gunwharf Rd, Portsmouth"}, {"business_status": "OPERATIONAL", "geometry": {"location": {"lat": 50.8228818, "lng": -1.0648215}, "viewport": {"northeast": {"lat": 50.82412297989271, "lng": -1.063229570107278}, "southwest": {"lat": 50.82142332010727, "lng": -1.065929229892722}}}, "icon": "https://maps.gstatic.com/mapfiles/place_api/icons/v1/png_71/bar-71.png", "icon_background_color": "#FF9E67", "icon_mask_base_uri": "https://maps.gstatic.com/mapfiles/place_api/icons/v2/bar_pinlet", "name": "Golden Hind", "opening_hours": {"open_now": true}, "photos": [{"height": 4128, "html_attributions": ["<a href=\"https://maps.google.com/maps/contrib/112405803416636871922\">Golden Hind</a>"], "photo_reference": "AUc7tXX04hL37V2XHwBy_ulFXkIF7ssu5RrUIpDeYAVgRWopibMt3H9I8-NaltivJbcBH1VCRYBefsWQu7z1aSxGp1qZ-4CMIUKVJxQTTU14wIncZ6yqFMUV1S7Vw9uSxQPsL21kHslJ4R6sIU1g6DdFELQL99k9YgMfJC2aOMdwuLloamKC", "width": 6192}], "place_id": "ChIJxU3WgyBddEgRYdGa4YeYf_I", "plus_code": {"compound_code": "RWFP+53 Portsmouth, United Kingdom", "global_code": "9C2WRWFP+53"}, "price_level": 2, "rating": 4.1, "reference": "ChIJxU3WgyBddEgRYdGa4YeYf_I", "scope": "GOOGLE", "types": ["bar", "restaurant", "food", "point_of_interest", "establishment"], "user_ratings_total": 835, "vicinity": "384 Copnor Rd, Portsmouth"}, {"business_status": "OPERATIONAL", "geometry": {"location": {"lat": 50.7953829, "lng": -1.1052555}, "viewport": {"northeast": {"lat": 50.79695007989272, "lng": -1.103741970107278}, "southwest": {"lat": 50.79425042010728, "lng": -1.106441629892722}}}, "icon": "https://maps.gstatic.com/mapfiles/place_api/icons/v1/png_71/bar-71.png", "icon_background_color": "#FF9E67", "icon_mask_base_uri": "https://maps.gstatic.com/mapfiles/place_api/icons/v2/bar_pinlet", "name": "The Liquorist Portsmouth", "opening_hours": {"open_now": true}, "photos": [{"height": 960, "html_attributions": ["<a href=\"https://maps.google.com/maps/contrib/109335648047100247884\">A Google User</a>"], "photo_reference": "AUc7tXWiZPDf1w5dLubIqgrJUk8uMIpE_3M6xTQFcGubNW7t5DG9kgTamMbSOuoq5BtVijJdGjRKA8D5vJ01WQLJycnev7rpB3q_1Ao8bSuenOswgsz2ADmmf062ae7UmqfOFy31vrpmoXb1MsJUqa_6q0WL4Ni69CkDi4HOd2VNmz7JWym1", "width": 960}], "place_id": "ChIJIWJwVIFddEgRDHmXMu7StHs", "plus_code": {"compound_code": "QVWV+5V Portsmouth, United Kingdom", "global_code": "9C2WQVWV+5V"}, "price_level": 2, "rating": 4.1, "reference": "ChIJIWJwVIFddEgRDHmXMu7StHs", "scope": "GOOGLE", "types": ["night_club", "bar", "restaurant", "food", "point_of_interest", "establishment"], "user_ratings_total": 1189, "vicinity": "Portsmouth"}, {"business_status": "OPERATIONAL", "geometry": {"location": {"lat": 50.7994006, "lng": -1.1060857}, "viewport": {"northeast": {"lat": 50.80078242989271, "lng": -1.104813120107278}, "southwest": {"lat": 50.79808277010727, "lng": -1.107512779892722}}}, "icon": "https://maps.gstatic.com/mapfiles/place_api/icons/v1/png_71/bar-71.png", "icon_background_color": "#FF9E67", "icon_mask_base_uri": "https://maps.gstatic.com/mapfiles/place_api/icons/v2/bar_pinlet", "name": "Bar + Block Steakhouse Portsmouth", "opening_hours": {"open_now": true}, "photos": [{"height": 4032, "html_attributions": ["<a href=\"https://maps.google.com/maps/contrib/106387870704192225367\">Dave Mitchell</a>"], "photo_reference": "AUc7tXVjMc4Pg_AsCaL6qgKNBtCzQ_beGHrUxpg1-XDf3cytLa-QrKjUcMyQcf8tTtD_OPzVME4arrjDUbqRXIRuS0EoYoSnD7HN_55IOovKFokflNkVVYvpRG9M3Y66X0dV4A6BnMfqS2U2UWGiHUWgrY2w6xTEYdTAUzLgUEXU9_NF6tzT", "width": 3024}], "place_id": "ChIJ0aTC2aRddEgRbAxhJSuf5WQ", "plus_code": {"compound_code": "QVXV+QH Portsmouth, United Kingdom", "global_code": "9C2WQVXV+QH"}, "price_level": 2, "rating": 4.2, "reference": "ChIJ0aTC2aRddEgRbAxhJSuf5WQ", "scope": "GOOGLE", "types": ["bar", "restaurant", "food", "point_of_interest", "establishment"], "user_ratings_total": 607, "vicinity": "Queen St, Portsea, Portsmouth"}, {"business_status": "OPERATIONAL", "geometry": {"location": {"lat": 50.79160659999999, "lng": -1.0955025}, "viewport": {"northeast": {"lat": 50.79294217989271, "lng": -1.094232520107278}, "southwest": {"lat": 50.79024252010727, "lng": -1.096932179892722}}}, "icon": "https://maps.gstatic.com/mapfiles/place_api/icons/v1/png_71/restaurant-71.png", "icon_background_color": "#FF9E67", "icon_mask_base_uri": "https://maps.gstatic.com/mapfiles/place_api/icons/v2/restaurant_pinlet", "name": "The Chambers", "opening_hours": {"open_now": true}, "photos": [{"height": 3480, "html_attributions": ["<a href=\"https://maps.google.com/maps/contrib/115185197890128294993\">Darren Vincent</a>"], "photo_reference": "AUc7tXXz38cU7QDTN4e6snprTk2Iia5HrgNtIfOllFjlWY86Emuq_fvCwaSAaweYpq8jzB-BAAuCr2Ei91kinSp57sBllz3fvFkGXjGJDbFpFTxLNOrpAUE281DXuwqNaXVtu85J6sZ6WmVHU_xyweiH7-L1Tqse9aPcKfKrPIO-Xfxem_JQ", "width": 4640}], "place_id": "ChIJbVBpCJtddEgRH_kbPdWBqQI", "plus_code": {"compound_code": "QWR3+JQ Southsea, United Kingdom", "global_code": "9C2WQWR3+JQ"}, "price_level": 3, "rating": 4.3, "reference": "ChIJbVBpCJtddEgRH_kbPdWBqQI", "scope": "GOOGLE", "types": ["restaurant", "food", "point_of_interest", "establishment"], "user_ratings_total": 424, "vicinity": "27 Landport Terrace, Southsea, Portsmouth, Southsea"}, {"business_status": "OPERATIONAL", "geometry": {"location": {"lat": 50.8138212, "lng": -1.0801749}, "viewport": {"northeast": {"lat": 50.81519132989272, "lng": -1.078815920107278}, "southwest": {"lat": 50.81249167010728, "lng": -1.081515579892722}}}, "icon": "https://maps.gstatic.com/mapfiles/place_api/icons/v1/png_71/restaurant-71.png", "icon_background_color": "#FF9E67", "icon_mask_base_uri": "https://maps.gstatic.com/mapfiles/place_api/icons/v2/restaurant_pinlet", "name": "The Grapes", "opening_hours": {"open_now": true}, "photos": [{"height": 3024, "html_attributions": ["<a href=\"https://maps.google.com/maps/contrib/106071565485458074224\">Alistair Attrill</a>"], "photo_reference": "AUc7tXVtQDAk1ng67wjTDZ_-0xc1z5hdWLXNJXLpyg1YBExF35uQDVl6w2jX2_XgUS5rugCL7GXREHVMxAtHVhhGxk3eu0AdkTUr3-0azLoUmpLseipIl_3cqutYEr3ya_FaSrUy7K2q2umjDIWXyHtm_eXIPwcxOqwU1zGe264HZrQd89g5", "width": 4032}], "place_id": "ChIJ_1tXOBFddEgRsIHJDjXcmQs", "plus_code": {"compound_code": "RW79+GV Portsmouth, United Kingdom", "global_code": "9C2WRW79+GV"}, "price_level": 1, "rating": 3.7, "reference": "ChIJ_1tXOBFddEgRsIHJDjXcmQs", "scope": "GOOGLE", "types": ["bar", "restaurant", "food", "point_of_interest", "establishment"], "user_ratings_total": 127, "vicinity": "19 London Rd, North End, Portsmouth"}, {"business_status": "OPERATIONAL", "geometry": {"location": {"lat": 50.7953523, "lng": -1.1073534}, "viewport": {"northeast": {"lat": 50.79670892989272, "lng": -1.106017120107278}, "southwest": {"lat": 50.79400927010728, "lng": -1.108716779892722}}}, "icon": "https://maps.gstatic.com/mapfiles/place_api/icons/v1/png_71/bar-71.png", "icon_background_color": "#FF9E67", "icon_mask_base_uri": "https://maps.gstatic.com/mapfiles/place_api/icons/v2/bar_pinlet", "name": "Slug & Lettuce - Portsmouth", "opening_hours": {"open_now": true}, "photos": [{"height": 450, "html_attributions": ["<a href=\"https://maps.google.com/maps/contrib/105436633865007106949\">The Slug And Lettuce</a>"], "photo_reference": "AUc7tXXWiqkfmoVsKNpyNywqJsirvpTPNOYvd4URMiQKU8_xic1O5h0IpO1ktu13JUt7KpUqPoG5jreCcdZmswXNNfOKzkR_EA18JCT3HQROCG1FqXDDPJk81eKeCFY6dzQzGF0LsvEnfD0sBSiwF9x1mLfG7_m5CUPQv9_iUcbJW5L6lckP", "width": 900}], "place_id": "ChIJvdjUh3VddEgRm2pI7NzE3Ug", "plus_code": {"compound_code": "QVWV+43 Portsmouth, United Kingdom", "global_code": "9C2WQVWV+43"}, "price_level": 2, "rating": 4.3, "reference": "ChIJvdjUh3VddEgRm2pI7NzE3Ug", "scope": "GOOGLE", "types": ["bar", "restaurant", "food", "point_of_interest", "establishment"], "user_ratings_total": 4319, "vicinity": "Unit R07, Portsmouth"}, {"business_status": "OPERATIONAL", "geometry": {"location": {"lat": 50.8002725, "lng": -1.0919351}, "viewport": {"northeast": {"lat": 50.80161827989271, "lng": -1.090568520107278}, "southwest": {"lat": 50.79891862010727, "lng": -1.093268179892722}}}, "icon": "https://maps.gstatic.com/mapfiles/place_api/icons/v1/png_71/bar-71.png", "icon_background_color": "#FF9E67", "icon_mask_base_uri": "https://maps.gstatic.com/mapfiles/place_api/icons/v2/bar_pinlet", "name": "The Royal Standard (Ruby's)", "opening_hours": {"open_now": true}, "photos": [{"height": 3024, "html_attributions": ["<a href=\"https://maps.google.com/maps/contrib/101555233094717195122\">Rutvik Patel</a>"], "photo_reference": "AUc7tXXdpjp1EpSQC_w9R-aQhoUGaxjdZhdvsgrQC0U92Acg0nYA7oaydYXdilLo6mWZ3F-dt_ppcVS4QOAHpFPuYgkeoCwMAhHkmYTOE8C7sDAa-k-pPbTFIlVbyOkb37SmiqXsjgdDQZmJg9OpX01LJMVBz-pNfnvCW5C2jqUNUn5t4bZB", "width": 4032}], "place_id": "ChIJR1COwXVddEgRacvA6b76y6U", "plus_code": {"compound_code": "RW25+46 Portsmouth, United Kingdom", "global_code": "9C2WRW25+46"}, "price_level": 2, "rating": 4.3, "reference": "ChIJR1COwXVddEgRacvA6b76y6U", "scope": "GOOGLE", "types": ["bar", "point_of_interest", "establishment"], "user_ratings_total": 189, "vicinity": "20 Edinburgh Rd, Portsmouth"}, {"business_status": "OPERATIONAL", "geometry": {"location": {"lat": 50.7938238, "lng": -1.0625368}, "viewport": {"northeast": {"lat": 50.79519537989272, "lng": -1.061170270107278}, "southwest": {"lat": 50.79249572010728, "lng": -1.063869929892722}}}, "icon": "https://maps.gstatic.com/mapfiles/place_api/icons/v1/png_71/bar-71.png", "icon_background_color": "#FF9E67", "icon_mask_base_uri": "https://maps.gstatic.com/mapfiles/place_api/icons/v2/bar_pinlet", "name": "The Shepherd's Crook Pub and Kitchen", "opening_hours": {"open_now": true}, "photos": [{"height": 2359, "html_attributions": ["<a href=\"https://maps.google.com/maps/contrib/100188967232682519791\">A Google User</a>"], "photo_reference": "AUc7tXWu6IavdoVEB0nifPV9LCSo_moqlthI6XpoPZUSzSel-ZDmFiwzxJl6icqQ8YhZ2v5ZXPBMTT6C5zujV2e-HDBCNNc2LXD_mJrS92MsfZIKh2vo5G4V2_8aDo4fJkNCnoF_govK-T2qtL96-CYG8Y5B2i3bc4sinpKyMTEk6cqNtMw", "width": 4192}], "place_id": "ChIJvwI_WVNcdEgRm3Gwhe7bU1I", "plus_code": {"compound_code": "QWVP+GX Southsea, United Kingdom", "global_code": "9C2WQWVP+GX"}, "price_level": 2, "rating": 4.1, "reference": "ChIJvwI_WVNcdEgRm3Gwhe7bU1I", "scope": "GOOGLE", "types": ["bar", "point_of_interest", "establishment"], "user_ratings_total": 316, "vicinity": "107 Goldsmith Ave, Southsea, Portsmouth, Southsea"}, {"business_status": "OPERATIONAL", "geometry": {"location": {"lat": 50.7894046, "lng": -1.0927313}, "viewport": {"northeast": {"lat": 50.79077482989271, "lng": -1.091420270107278}, "southwest": {"lat": 50.78807517010727, "lng": -1.094119929892722}}}, "icon": "https://maps.gstatic.com/mapfiles/place_api/icons/v1/png_71/bar-71.png", "icon_background_color": "#FF9E67", "icon_mask_base_uri": "https://maps.gstatic.com/mapfiles/place_api/icons/v2/bar_pinlet", "name": "The Barley Mow", "opening_hours": {"open_now": true}, "photos": [{"height": 3000, "html_attributions": ["<a href=\"https://maps.google.com/maps/contrib/101045944018186536456\">Jack F</a>"], "photo_reference": "AUc7tXXLcQ0haXKTRZgMeXARTD8AUJA-o2ZANGZ49yOxoJnJHtTIHhm8WJFk-A3Dw9c7Omn-PORSYwqxY2_GdJHnurCpFqCv16iWXDDlqFs1sWvrdHuETgPpWb1dL9eiXbXnDn-GR5FFyAgH_RhCqt2eqd7irdPf6LwgCUjM1cJvpz9Vm_SI", "width": 4000}], "place_id": "ChIJ8WRTHJpddEgR1VzleZ9tttY", "plus_code": {"compound_code": "QWQ4+QW Southsea, United Kingdom", "global_code": "9C2WQWQ4+QW"}, "price_level": 1, "rating": 4.5, "reference": "ChIJ8WRTHJpddEgR1VzleZ9tttY", "scope": "GOOGLE", "types": ["bar", "point_of_interest", "establishment"], "user_ratings_total": 483, "vicinity": "39 Castle Rd, Southsea, Portsmouth, Southsea"}, {"business_status": "OPERATIONAL", "geometry": {"location": {"lat": 50.81360600000001, "lng": -1.0763923}, "viewport": {"northeast": {"lat": 50.81498962989272, "lng": -1.075094270107278}, "southwest": {"lat": 50.81228997010727, "lng": -1.077793929892722}}}, "icon": "https://maps.gstatic.com/mapfiles/place_api/icons/v1/png_71/bar-71.png", "icon_background_color": "#FF9E67", "icon_mask_base_uri": "https://maps.gstatic.com/mapfiles/place_api/icons/v2/bar_pinlet", "name": "The Pelham Arms", "opening_hours": {"open_now": true}, "photos": [{"height": 3024, "html_attributions": ["<a href=\"https://maps.google.com/maps/contrib/107691137700726037802\">A Google User</a>"], "photo_reference": "AUc7tXXvztmZf753Tikw6tzUtkYQKWToFpnhl1MtsYloIhukCHSj5yChDvcd55p21Ac-bkBw0FlBz1iXHyUJujd85Tk1-XBdXoFnEkmmpuF1aAdvN71Vp_yj1_5B4qjY7912e00md4sBRp6YxKHn9bFnMWGZAtm5O7nwVzT7a1EYVP4D4tV2", "width": 4032}], "place_id": "ChIJd6cvNxpddEgRYZauaJDVDKM", "plus_code": {"compound_code": "RW7F+CC Portsmouth, United Kingdom", "global_code": "9C2WRW7F+CC"}, "price_level": 2, "rating": 4.1, "reference": "ChIJd6cvNxpddEgRYZauaJDVDKM", "scope": "GOOGLE", "types": ["bar", "point_of_interest", "establishment"], "user_ratings_total": 269, "vicinity": "78 Chichester Rd, Portsmouth"}, {"business_status": "OPERATIONAL", "geometry": {"location": {"lat": 50.7926301, "lng": -1.0734845}, "viewport": {"northeast": {"lat": 50.79395257989272, "lng": -1.072118170107278}, "southwest": {"lat": 50.79125292010728, "lng": -1.074817829892722}}}, "icon": "https://maps.gstatic.com/mapfiles/place_api/icons/v1/png_71/bar-71.png", "icon_background_color": "#FF9E67", "icon_mask_base_uri": "https://maps.gstatic.com/mapfiles/place_api/icons/v2/bar_pinlet", "name": "The Nell Gwynne", "opening_hours": {"open_now": true}, "photos": [{"height": 1148, "html_attributions": ["<a href=\"https://maps.google.com/maps/contrib/113426267657526225372\">The Nell Gwynne</a>"], "photo_reference": "AUc7tXUuFCeMH8AndabFe3WA3iw3pG9_XclNcCR7Z0wxD_N7czX4qZi3uCOZkX4Qa2eiU2-ySSvRinYT4T-P5KvdEnS2BuspEfjE7LefMfYNrERnJeB52I-7TxbKJBf4ffmELIFEe48l1mIjae1_pDW3rb_iX1Asu5RQM15j9ILZAet3W3z4", "width": 2040}], "place_id": "ChIJ-Yo9Xa9ddEgRLS0UUrW-7Jc", "plus_code": {"compound_code": "QWVG+3J Southsea, United Kingdom", "global_code": "9C2WQWVG+3J"}, "price_level": 1, "rating": 4.4, "reference": "ChIJ-Yo9Xa9ddEgRLS0UUrW-7Jc", "scope": "GOOGLE", "types": ["bar", "point_of_interest", "establishment"], "user_ratings_total": 116, "vicinity": "70 Jessie Rd, Southsea, Portsmouth, Southsea"}, {"business_status": "OPERATIONAL", "geometry": {"location": {"lat": 50.7903952, "lng": -1.088711}, "viewport": {"northeast": {"lat": 50.79172387989272, "lng": -1.087357220107278}, "southwest": {"lat": 50.78902422010727, "lng": -1.090056879892722}}}, "icon": "https://maps.gstatic.com/mapfiles/place_api/icons/v1/png_71/bar-71.png", "icon_background_color": "#FF9E67", "icon_mask_base_uri": "https://maps.gstatic.com/mapfiles/place_api/icons/v2/bar_pinlet", "name": "The Honest Politician", "opening_hours": {"open_now": true}, "photos": [{"height": 564, "html_attributions": ["<a href=\"https://maps.google.com/maps/contrib/100238585714544848096\">A Google User</a>"], "photo_reference": "AUc7tXVa5zswerLA8oO-8JI1n2X3_1Ya3wJfdGCJSGAStRqtKSEfGiNR1SnGtW4S54qMkD9aPhgPLabF_GT-tde9R6iVFIIhjHQW-jCTIxXOzAxiDndRS9MGgcYsrfAjrW_KSe6juL6Z8alt86WgOWYp6gSwQ-GgdP2t8hDRuX4KkhviBtjM", "width": 843}], "place_id": "ChIJgeK7aJhddEgRwN3F43ZI5Hc", "plus_code": {"compound_code": "QWR6+5G Southsea, United Kingdom", "global_code": "9C2WQWR6+5G"}, "price_level": 2, "rating": 4.1, "reference": "ChIJgeK7aJhddEgRwN3F43ZI5Hc", "scope": "GOOGLE", "types": ["bar", "point_of_interest", "establishment"], "user_ratings_total": 615, "vicinity": "47 Elm Grove, Southsea, Portsmouth, Southsea"}, {"business_status": "OPERATIONAL", "geometry": {"location": {"lat": 50.8133808, "lng": -1.0849823}, "viewport": {"northeast": {"lat": 50.81460762989272, "lng": -1.083359270107278}, "southwest": {"lat": 50.81190797010728, "lng": -1.086058929892722}}}, "icon": "https://maps.gstatic.com/mapfiles/place_api/icons/v1/png_71/bar-71.png", "icon_background_color": "#FF9E67", "icon_mask_base_uri": "https://maps.gstatic.com/mapfiles/place_api/icons/v2/bar_pinlet", "name": "The Admiral Drake", "opening_hours": {"open_now": true}, "photos": [{"height": 1152, "html_attributions": ["<a href=\"https://maps.google.com/maps/contrib/105658205068549702717\">The Admiral Drake</a>"], "photo_reference": "AUc7tXVYKjsWJcSo-ZpDes7cIHtBzygvd-NpW_upnb0Hs78dX2d7o03_6FTEaJxdvseThv3WhDPbCpQYzIr2cYwllP6QazVaJBQD0CF2ktEWXalJcBswWYp0HBSV5C9AFcvSA4NvXQmqqKRfngvA-Cp79-VNCqSjBRxw0ralSiXBqOqTXCV0", "width": 2048}], "place_id": "ChIJIcqeCxNddEgRf4IlWdEZe50", "plus_code": {"compound_code": "RW77+9X Portsmouth, United Kingdom", "global_code": "9C2WRW77+9X"}, "price_level": 1, "rating": 4.4, "reference": "ChIJIcqeCxNddEgRf4IlWdEZe50", "scope": "GOOGLE", "types": ["bar", "point_of_interest", "establishment"], "user_ratings_total": 436, "vicinity": "8 Kingston Cres, North End, Portsmouth"}, {"business_status": "OPERATIONAL", "geometry": {"location": {"lat": 50.8020445, "lng": -1.0771908}, "viewport": {"northeast": {"lat": 50.80337822989272, "lng": -1.075918670107278}, "southwest": {"lat": 50.80067857010727, "lng": -1.078618329892722}}}, "icon": "https://maps.gstatic.com/mapfiles/place_api/icons/v1/png_71/bar-71.png", "icon_background_color": "#FF9E67", "icon_mask_base_uri": "https://maps.gstatic.com/mapfiles/place_api/icons/v2/bar_pinlet", "name": "Trafalgar Arms", "opening_hours": {"open_now": true}, "photos": [{"height": 3036, "html_attributions": ["<a href=\"https://maps.google.com/maps/contrib/101678101482481307054\">Mark Owen</a>"], "photo_reference": "AUc7tXVcBIDPDKInExN5dPZ5wEiLZAiq2fHHQdijnNAJdZWDYDXe8uF-LD8oVIgl9CcAQWVRxieOXQ-FnbK0POwqxMNEglBY8DkfXSnQN4bYiGtiQel7wBTaucGUgcnz2u7zAkJPn9yTiYKW6zVJ7KeaOwPWCufDaxTU3rT2y8J3eKYyYygT", "width": 4048}], "place_id": "ChIJWft58whddEgRfIDbLRfSwMI", "plus_code": {"compound_code": "RW2F+R4 Portsmouth, United Kingdom", "global_code": "9C2WRW2F+R4"}, "price_level": 2, "rating": 4.2, "reference": "ChIJWft58whddEgRfIDbLRfSwMI", "scope": "GOOGLE", "types": ["bar", "point_of_interest", "establishment"], "user_ratings_total": 124, "vicinity": "254 Fratton Rd, Fratton, Portsmouth"}, {"business_status": "OPERATIONAL", "geometry": {"location": {"lat": 50.8118782, "lng": -1.0609993}, "viewport": {"northeast": {"lat": 50.81321832989272, "lng": -1.059614170107278}, "southwest": {"lat": 50.81051867010728, "lng": -1.062313829892722}}}, "icon": "https://maps.gstatic.com/mapfiles/place_api/icons/v1/png_71/bar-71.png", "icon_background_color": "#FF9E67", "icon_mask_base_uri": "https://maps.gstatic.com/mapfiles/place_api/icons/v2/bar_pinlet", "name": "The Jolly Taxpayer", "opening_hours": {"open_now": true}, "photos": [{"height": 3024, "html_attributions": ["<a href=\"https://maps.google.com/maps/contrib/116606271580119539740\">Lee H</a>"], "photo_reference": "AUc7tXXitxB91rqZPeDO2FoPPbnzoRnc2UOdu4uaGKrMij_-sL8ByttkDUxGK7cyTnaUIB-ckwo_vlj4FfUyP16c8yd5xDrJ7s9ppDOGikoX2yd0ea-cWP8syWkjMZPk2qnUj-c3M64WdPFd9vajkl2nhgF4mgmo-GOu1moJPpRqPWMaBNrM", "width": 4032}], "place_id": "ChIJEZLyA-NcdEgRr0RbcS5D_5M", "plus_code": {"compound_code": "RW6Q+QJ Portsmouth, United Kingdom", "global_code": "9C2WRW6Q+QJ"}, "price_level": 2, "rating": 4.5, "reference": "ChIJEZLyA-NcdEgRr0RbcS5D_5M", "scope": "GOOGLE", "types": ["bar", "point_of_interest", "establishment"], "user_ratings_total": 176, "vicinity": "2 Eastbourne Rd, Portsmouth"}, {"business_status": "OPERATIONAL", "geometry": {"location": {"lat": 50.8111359, "lng": -1.077898}, "viewport": {"northeast": {"lat": 50.81252467989272, "lng": -1.076544770107278}, "southwest": {"lat": 50.80982502010727, "lng": -1.079244429892722}}}, "icon": "https://maps.gstatic.com/mapfiles/place_api/icons/v1/png_71/bar-71.png", "icon_background_color": "#FF9E67", "icon_mask_base_uri": "https://maps.gstatic.com/mapfiles/place_api/icons/v2/bar_pinlet", "name": "The British Queen", "opening_hours": {"open_now": true}, "photos": [{"height": 3024, "html_attributions": ["<a href=\"https://maps.google.com/maps/contrib/118217464013850604733\">Mark Hooper</a>"], "photo_reference": "AUc7tXUaugZ0SYFnmIuCS_vzFT8RwxcTrmwii4w8yT_gUBPyE6mreiQPEWFF4o-Rgfs9MY1QStGg0I3PpTCN7Qb1SVaUlvtZhuiG27O_GsdUcnpj-rjoSIOAeyo8fnCqKQhzQR0GipSMxNJQRod9UO1xTBCUi8KRwnfL1uzM9Olot-rUduEb", "width": 4032}], "place_id": "ChIJGTo0RBBddEgRzfXgjeDjGPA", "plus_code": {"compound_code": "RW6C+CR Portsmouth, United Kingdom", "global_code": "9C2WRW6C+CR"}, "price_level": 1, "rating": 4.2, "reference": "ChIJGTo0RBBddEgRzfXgjeDjGPA", "scope": "GOOGLE", "types": ["bar", "food", "store", "point_of_interest", "establishment"], "user_ratings_total": 112, "vicinity": "18 Queen's Rd, Fratton, Portsmouth"}, {"business_status": "OPERATIONAL", "geometry": {"location": {"lat": 50.81076830000001, "lng": -1.073408}, "viewport": {"northeast": {"lat": 50.81211862989272, "lng": -1.072069920107277}, "southwest": {"lat": 50.80941897010727, "lng": -1.074769579892722}}}, "icon": "https://maps.gstatic.com/mapfiles/place_api/icons/v1/png_71/bar-71.png", "icon_background_color": "#FF9E67", "icon_mask_base_uri": "https://maps.gstatic.com/mapfiles/place_api/icons/v2/bar_pinlet", "name": "The Winchester Arms", "opening_hours": {"open_now": true}, "photos": [{"height": 3024, "html_attributions": ["<a href=\"https://maps.google.com/maps/contrib/118217464013850604733\">Mark Hooper</a>"], "photo_reference": "AUc7tXU8IZ5kV4LqeEp634Sdw1fsfJlGWcmfgs_OF24JM-0mf1pePE1G7uFNel9DPVecgcvl7ZWau0Q3adOn_1_y6A54ivwZr6SoQgXec48F1xUAf8uvrj2cdIdu3uAzx8gp6f6qdJ6qICnP95IXSdJmRfixpZDaEa5QaoGwOhJue-9L2438", "width": 4032}], "place_id": "ChIJM5D63RpddEgRkR4kLQeyLFw", "plus_code": {"compound_code": "RW6G+8J Portsmouth, United Kingdom", "global_code": "9C2WRW6G+8J"}, "price_level": 1, "rating": 4.3, "reference": "ChIJM5D63RpddEgRkR4kLQeyLFw", "scope": "GOOGLE", "types": ["bar", "point_of_interest", "establishment"], "user_ratings_total": 113, "vicinity": "99 Winchester Rd, Fratton, Portsmouth"}, {"business_status": "OPERATIONAL", "geometry": {"location": {"lat": 50.81598820000001, "lng": -1.0836596}, "viewport": {"northeast": {"lat": 50.81736112989272, "lng": -1.082165920107278}, "southwest": {"lat": 50.81466147010727, "lng": -1.084865579892722}}}, "icon": "https://maps.gstatic.com/mapfiles/place_api/icons/v1/png_71/bar-71.png", "icon_background_color": "#FF9E67", "icon_mask_base_uri": "https://maps.gstatic.com/mapfiles/place_api/icons/v2/bar_pinlet", "name": "The Derby Tavern", "opening_hours": {"open_now": true}, "photos": [{"height": 2042, "html_attributions": ["<a href=\"https://maps.google.com/maps/contrib/114846200415677231667\">A Google User</a>"], "photo_reference": "AUc7tXVLXZEPDE_iaG6PFSBw0HyKyFNBi7bAWVtNVntUdFMnIObay_2eOhOndIF_ksEPVdaDNClv7oRwkBsxOv4KUFyfWMoT6-keMIKjrxdDElw3y2ohmpb6tVVEacnCM6mTtGRqmTCOVrYnfNInks0x5EbLvRixE7vWCa7XEgrwuMDA2fRQ", "width": 3765}], "place_id": "ChIJl2m4QRRddEgRES4O4VKG4pQ", "plus_code": {"compound_code": "RW88+9G Portsmouth, United Kingdom", "global_code": "9C2WRW88+9G"}, "price_level": 2, "rating": 4.6, "reference": "ChIJl2m4QRRddEgRES4O4VKG4pQ", "scope": "GOOGLE", "types": ["bar", "point_of_interest", "establishment"], "user_ratings_total": 117, "vicinity": "47 Stamshaw Rd, North End, Portsmouth"}, {"business_status": "OPERATIONAL", "geometry": {"location": {"lat": 50.7971142, "lng": -1.0932704}, "viewport": {"northeast": {"lat": 50.79845562989271, "lng": -1.091914270107278}, "southwest": {"lat": 50.79575597010727, "lng": -1.094613929892722}}}, "icon": "https://maps.gstatic.com/mapfiles/place_api/icons/v1/png_71/bar-71.png", "icon_background_color": "#FF9E67", "icon_mask_base_uri": "https://maps.gstatic.com/mapfiles/place_api/icons/v2/bar_pinlet", "name": "The Fleet Portsmouth", "opening_hours": {"open_now": true}, "photos": [{"height": 3024, "html_attributions": ["<a href=\"https://maps.google.com/maps/contrib/101045944018186536456\">Jack F</a>"], "photo_reference": "AUc7tXUubcZLQOcZ5x3PyoxqGjCMwuvgU78I-5MId5JoIDAh7pOtkJzfj3qxB--3y3DylpNlijAXzFmAfruXL12QMuNocdeU5VEYoczGGeJCrpH7ndS0AvzcS7J6h2yhZicPOr3TZONUBW5EOOdx2vBq4gnOYta_e0AtXpq6WaDMHhusrl2n", "width": 4032}], "place_id": "ChIJ8SUx2p1ddEgRwtwnnIPlZto", "plus_code": {"compound_code": "QWW4+RM Portsmouth, United Kingdom", "global_code": "9C2WQWW4+RM"}, "price_level": 1, "rating": 4.2, "reference": "ChIJ8SUx2p1ddEgRwtwnnIPlZto", "scope": "GOOGLE", "types": ["bar", "point_of_interest", "establishment"], "user_ratings_total": 1281, "vicinity": "1 King Henry I St, Portsmouth"}, {"business_status": "OPERATIONAL", "geometry": {"location": {"lat": 50.8050359, "lng": -1.0645427}, "viewport": {"northeast": {"lat": 50.80637557989272, "lng": -1.063163370107278}, "southwest": {"lat": 50.80367592010728, "lng": -1.065863029892722}}}, "icon": "https://maps.gstatic.com/mapfiles/place_api/icons/v1/png_71/bar-71.png", "icon_background_color": "#FF9E67", "icon_mask_base_uri": "https://maps.gstatic.com/mapfiles/place_api/icons/v2/bar_pinlet", "name": "The Rose In June", "opening_hours": {"open_now": true}, "photos": [{"height": 2988, "html_attributions": ["<a href=\"https://maps.google.com/maps/contrib/100114344490424355355\">Jon Saxty</a>"], "photo_reference": "AUc7tXUHJRNW6THxJA0eLffLnZkE3HlITX73UmVpq0OFwnC6IBdJeSgY37ZZ0SrfDCvV1-2GaPyyXoOGOVNn3XtcReBXWlAVilCGtfHIW0Ltk3RFCm9Oge8hanEWdFCiZyDMwJKLOKE8vrtkLOohbNYM9-7tASX7K6VcgBj1stGNx2TuTTkh", "width": 5312}], "place_id": "ChIJxSCPBQJddEgRP_4zdXkY0nU", "plus_code": {"compound_code": "RW4P+25 Portsmouth, United Kingdom", "global_code": "9C2WRW4P+25"}, "price_level": 2, "rating": 4.6, "reference": "ChIJxSCPBQJddEgRP_4zdXkY0nU", "scope": "GOOGLE", "types": ["bar", "point_of_interest", "establishment"], "user_ratings_total": 481, "vicinity": "102 Milton Rd, Portsmouth"}, {"business_status": "OPERATIONAL", "geometry": {"location": {"lat": 50.7980151, "lng": -1.0770134}, "viewport": {"northeast": {"lat": 50.79937267989271, "lng": -1.075594970107278}, "southwest": {"lat": 50.79667302010727, "lng": -1.078294629892722}}}, "icon": "https://maps.gstatic.com/mapfiles/place_api/icons/v1/png_71/bar-71.png", "icon_background_color": "#FF9E67", "icon_mask_base_uri": "https://maps.gstatic.com/mapfiles/place_api/icons/v2/bar_pinlet", "name": "The Froddington Arms", "opening_hours": {"open_now": true}, "photos": [{"height": 1513, "html_attributions": ["<a href=\"https://maps.google.com/maps/contrib/111941996399252793572\">Sam Aberman</a>"], "photo_reference": "AUc7tXWDTlzLTm9PoRPd9_E6_NWMKLWcADka2SFRrLxbjdKrq3qoRAjgmQQMajgNM6SW5VeoDIE92C2G6_juia4weGgn1IeLZkAcwTDiranneVjjp__nXhH4nbKHlyDbbF98se8gVm19fjFcGAM9PSHgTXwymHeJ3zdy9a4uV9lzw_a63uHD", "width": 1629}], "place_id": "ChIJJTWblKdddEgRi84goqYEl50", "plus_code": {"compound_code": "QWXF+65 Portsmouth, United Kingdom", "global_code": "9C2WQWXF+65"}, "price_level": 2, "rating": 4.2, "reference": "ChIJJTWblKdddEgRi84goqYEl50", "scope": "GOOGLE", "types": ["bar", "point_of_interest", "establishment"], "user_ratings_total": 102, "vicinity": "55 Fratton Rd, Portsmouth"}, {"business_status": "OPERATIONAL", "geometry": {"location": {"lat": 50.8182926, "lng": -1.0788879}, "viewport": {"northeast": {"lat": 50.81962697989272, "lng": -1.077523170107278}, "southwest": {"lat": 50.81692732010728, "lng": -1.080222829892722}}}, "icon": "https://maps.gstatic.com/mapfiles/place_api/icons/v1/png_71/bar-71.png", "icon_background_color": "#FF9E67", "icon_mask_base_uri": "https://maps.gstatic.com/mapfiles/place_api/icons/v2/bar_pinlet", "name": "The Fountain Inn", "opening_hours": {"open_now": true}, "photos": [{"height": 3000, "html_attributions": ["<a href=\"https://maps.google.com/maps/contrib/108470589869837293353\">Carlos Garc\u00eda</a>"], "photo_reference": "AUc7tXVGb-2ONuzDetE8wckrFDPdeLI_jdokLwmaPZFDKj2pTEB8DOvQow7wNV8aYKUEapUUO-GqceYHVoU9Z9d6rQsPKJcFQrotBf3dqfR4H7G0pCb-WYvDQgC-vxXJGXCOjEy9ljeVL9xTTc6avgtBTICin22aCJzdTWLRthEN5-0-_rZA", "width": 4000}], "place_id": "ChIJp4sDAZpddEgRw76GNTTD6WM", "plus_code": {"compound_code": "RW9C+8C Portsmouth, United Kingdom", "global_code": "9C2WRW9C+8C"}, "price_level": 2, "rating": 4.3, "reference": "ChIJp4sDAZpddEgRw76GNTTD6WM", "scope": "GOOGLE", "types": ["bar", "point_of_interest", "establishment"], "user_ratings_total": 264, "vicinity": "163 London Rd, North End, Portsmouth"}, {"business_status": "OPERATIONAL", "geometry": {"location": {"lat": 50.8007539, "lng": -1.0771069}, "viewport": {"northeast": {"lat": 50.80209652989272, "lng": -1.075777570107278}, "southwest": {"lat": 50.79939687010727, "lng": -1.078477229892722}}}, "icon": "https://maps.gstatic.com/mapfiles/place_api/icons/v1/png_71/bar-71.png", "icon_background_color": "#FF9E67", "icon_mask_base_uri": "https://maps.gstatic.com/mapfiles/place_api/icons/v2/bar_pinlet", "name": "The Electric Arms", "opening_hours": {"open_now": true}, "photos": [{"height": 1950, "html_attributions": ["<a href=\"https://maps.google.com/maps/contrib/111941996399252793572\">Sam Aberman</a>"], "photo_reference": "AUc7tXX_3EOmDm4W-K-bmw1TsWzvNCzIEKdqrR2BKOj_vaXuDWjZGCVCsozbvSI3R9Yl5OTvGtLip10Ow9RBtApGySCXwQZJcHVyigk6ro75uvn_iey6hUYfETmlMz5kYKrTWuNv2Yfh8iBjmjHIc2SguR-LH9UOtaXkpm72YbsYk0Ymclhp", "width": 1922}], "place_id": "ChIJ8_gQQQhddEgRNFACcQilx08", "plus_code": {"compound_code": "RW2F+85 Portsmouth, United Kingdom", "global_code": "9C2WRW2F+85"}, "rating": 4.5, "reference": "ChIJ8_gQQQhddEgRNFACcQilx08", "scope": "GOOGLE", "types": ["bar", "point_of_interest", "establishment"], "user_ratings_total": 82, "vicinity": "192 Fratton Rd, Fratton, Portsmouth"}, {"business_status": "OPERATIONAL", "geometry": {"location": {"lat": 50.8193549, "lng": -1.0846446}, "viewport": {"northeast": {"lat": 50.82069857989272, "lng": -1.083282070107278}, "southwest": {"lat": 50.81799892010728, "lng": -1.085981729892722}}}, "icon": "https://maps.gstatic.com/mapfiles/place_api/icons/v1/png_71/bar-71.png", "icon_background_color": "#FF9E67", "icon_mask_base_uri": "https://maps.gstatic.com/mapfiles/place_api/icons/v2/bar_pinlet", "name": "Mother Shipton", "opening_hours": {"open_now": true}, "photos": [{"height": 3024, "html_attributions": ["<a href=\"https://maps.google.com/maps/contrib/100304251727175518678\">aLL aLL</a>"], "photo_reference": "AUc7tXVrhnXPIO99YyzwwhrSGKA9Bzr8OF_Kl921qkii8jmTCmSdU-mOwSLXrOsGKdrWW8pAMM-C5kDhZfGRt9HPWkxEolTqIb-uOucaWf2eofXKki1s4DuB6wgLqEn4rKkbEZlcdDD3RPNN5LDU38vNkD0mivlkoIrnhXjkm_I5zOcbXJRc", "width": 4032}], "place_id": "ChIJh73zgxVddEgRCdJAl28Qo2k", "plus_code": {"compound_code": "RW98+Q4 Portsmouth, United Kingdom", "global_code": "9C2WRW98+Q4"}, "rating": 4.3, "reference": "ChIJh73zgxVddEgRCdJAl28Qo2k", "scope": "GOOGLE", "types": ["bar", "point_of_interest", "establishment"], "user_ratings_total": 130, "vicinity": "223 Twyford Ave, Portsmouth"}, {"business_status": "OPERATIONAL", "geometry": {"location": {"lat": 50.7994786, "lng": -1.0906009}, "viewport": {"northeast": {"lat": 50.80078362989271, "lng": -1.089241270107278}, "southwest": {"lat": 50.79808397010727, "lng": -1.091940929892722}}}, "icon": "https://maps.gstatic.com/mapfiles/place_api/icons/v1/png_71/bar-71.png", "icon_background_color": "#FF9E67", "icon_mask_base_uri": "https://maps.gstatic.com/mapfiles/place_api/icons/v2/bar_pinlet", "name": "Surrey Street", "photos": [{"height": 2560, "html_attributions": ["<a href=\"https://maps.google.com/maps/contrib/100898519210180770833\">Bardia Hematian</a>"], "photo_reference": "AUc7tXVSr2eDJ3l0OpDsbwqoaoSGF7IJSGvIIby8MpkOUQEhYdyEW88xTKXgoglogzSgAg-_4GBHdJoNoairM9Dh0o72aE2Y8j8jPALYhMCsEGQSK5Lz1dn1FtVRZ19YFnPxZJpifyh3m6Y7nPf97QsJ4N9_5Bt5lX3-ieKOx05HCHhBVT37", "width": 1440}], "place_id": "ChIJZ8lhhHVddEgR3ynDhFZ83hc", "plus_code": {"compound_code": "QWX5+QQ Portsmouth, United Kingdom", "global_code": "9C2WQWX5+QQ"}, "price_level": 2, "rating": 3.8, "reference": "ChIJZ8lhhHVddEgR3ynDhFZ83hc", "scope": "GOOGLE", "types": ["bar", "point_of_interest", "establishment"], "user_ratings_total": 62, "vicinity": "City Centre, 1-3 Surrey St, Portsmouth"}, {"business_status": "OPERATIONAL", "geometry": {"location": {"lat": 50.8002536, "lng": -1.0916306}, "viewport": {"northeast": {"lat": 50.80154047989272, "lng": -1.090322320107278}, "southwest": {"lat": 50.79884082010728, "lng": -1.093021979892722}}}, "icon": "https://maps.gstatic.com/mapfiles/place_api/icons/v1/png_71/bar-71.png", "icon_background_color": "#FF9E67", "icon_mask_base_uri": "https://maps.gstatic.com/mapfiles/place_api/icons/v2/bar_pinlet", "name": "Park Tavern", "opening_hours": {"open_now": true}, "photos": [{"height": 4080, "html_attributions": ["<a href=\"https://maps.google.com/maps/contrib/103417350127018398814\">A Google User</a>"], "photo_reference": "AUc7tXUuRvhrSWXcoHheYQaA9WLJIp8dY4mWRpLg3gjvxvj0b2dU4vaWkihbGXG38SePVbrxrldLwewRe5AGrkYxNubHr7Y-1w5HyAlwsWYw9fGsWk-Dk8KkjyGAwGdJ_8R1ZoZPyNBL9uqbLMMCLpMOD0_vrjbwot_eOdkHAwNvrSc7IBuJ", "width": 3072}], "place_id": "ChIJrZ3LwXVddEgRJBoEnBgJr0k", "plus_code": {"compound_code": "RW25+48 Portsmouth, United Kingdom", "global_code": "9C2WRW25+48"}, "rating": 4.1, "reference": "ChIJrZ3LwXVddEgRJBoEnBgJr0k", "scope": "GOOGLE", "types": ["bar", "point_of_interest", "establishment"], "user_ratings_total": 77, "vicinity": "16 Edinburgh Rd, Portsmouth"}]