[{"business_status": "OPERATIONAL", "geometry": {"location": {"lat": 49.4804532, "lng": 8.471360599999999}, "viewport": {"northeast": {"lat": 49.48210037989272, "lng": 8.47258387989272}, "southwest": {"lat": 49.47940072010727, "lng": 8.469884220107277}}}, "icon": "https://maps.gstatic.com/mapfiles/place_api/icons/v1/png_71/bar-71.png", "icon_background_color": "#FF9E67", "icon_mask_base_uri": "https://maps.gstatic.com/mapfiles/place_api/icons/v2/bar_pinlet", "name": "Murphy's Law", "opening_hours": {"open_now": true}, "photos": [{"height": 3000, "html_attributions": ["<a href=\"https://maps.google.com/maps/contrib/111600052775070199536\">A Google User</a>"], "photo_reference": "AUGGfZle_177UKLsaCmwTrkdsUaZHXtIf8U37NvcrvMW9B-B5MRHXC7smAagKJA0Im_6ycR9uv7vMJNz6FavoIk7AD_ms8371T1I5-ZCBKrTUnTchLrgU-CZ1CoAKeaaC_jFTeuGCKzCmILEZgm8fWPOatat5UGWjpmik8d0R0f9QCEUybXB", "width": 4000}], "place_id": "ChIJ92irAh_Ml0cRuuoZvsuOt6g", "plus_code": {"compound_code": "FFJC+5G Mannheim, Germany", "global_code": "8FXCFFJC+5G"}, "price_level": 2, "rating": 4.3, "reference": "ChIJ92irAh_Ml0cRuuoZvsuOt6g", "scope": "GOOGLE", "types": ["bar", "restaurant", "point_of_interest", "food", "establishment"], "user_ratings_total": 1559, "vicinity": "Kaiserring 10, Mannheim"}, {"business_status": "OPERATIONAL", "geometry": {"location": {"lat": 49.4884513, "lng": 8.4690244}, "viewport": {"northeast": {"lat": 49.48981687989272, "lng": 8.470388629892721}, "southwest": {"lat": 49.48711722010728, "lng": 8.467688970107277}}}, "icon": "https://maps.gstatic.com/mapfiles/place_api/icons/v1/png_71/bar-71.png", "icon_background_color": "#FF9E67", "icon_mask_base_uri": "https://maps.gstatic.com/mapfiles/place_api/icons/v2/bar_pinlet", "name": "Destille Nr. 13", "opening_hours": {"open_now": true}, "photos": [{"height": 2928, "html_attributions": ["<a href=\"https://maps.google.com/maps/contrib/102687268593035388341\">Jakub Prauzek</a>"], "photo_reference": "AUGGfZmLTKd__fgtiYDRVrDClxdVroI9B38CZcimsadujG7CYeYoCHkvv6axAaS86AR0_s1emxzoM29anYMITxBjHH1py4Ik_NziuJqOFTnrCQPyHILbJBFN2oQl45vWqe6i1hnmcVBTvOjzFtLhDJA5_-ikCw5k957vF90cHjTLPhBRkQhx", "width": 3904}], "place_id": "ChIJxWBW9yPMl0cRt8IOEawyXTs", "plus_code": {"compound_code": "FFQ9+9J Mannheim, Germany", "global_code": "8FXCFFQ9+9J"}, "price_level": 1, "rating": 4.5, "reference": "ChIJxWBW9yPMl0cRt8IOEawyXTs", "scope": "GOOGLE", "types": ["bar", "restaurant", "point_of_interest", "food", "establishment"], "user_ratings_total": 425, "vicinity": "Q2 13, Mannheim"}, {"business_status": "OPERATIONAL", "geometry": {"location": {"lat": 49.4772548, "lng": 8.483829100000001}, "viewport": {"northeast": {"lat": 49.47863502989272, "lng": 8.48522262989272}, "southwest": {"lat": 49.47593537010728, "lng": 8.482522970107276}}}, "icon": "https://maps.gstatic.com/mapfiles/place_api/icons/v1/png_71/bar-71.png", "icon_background_color": "#FF9E67", "icon_mask_base_uri": "https://maps.gstatic.com/mapfiles/place_api/icons/v2/bar_pinlet", "name": "Mythos Bar", "opening_hours": {"open_now": true}, "photos": [{"height": 3024, "html_attributions": ["<a href=\"https://maps.google.com/maps/contrib/107795365610864842358\">Sanjay Madhava</a>"], "photo_reference": "AUGGfZn7KNAoIVvCEhL7nwSTEe73_c6wfjQY0JqA8EJ1N4lueZPSQlh9nCK6YThIldKL6fkDKcASyust8XYJymv-p3P6_BljBEVB2f1eQUR7T5aZooaCWT-SqPfYEbVkFS_SbfBgCxfOxT5ASZAjHI2hH1xtb4IyiNP_RNZVryrXOxoDHeH8", "width": 4032}], "place_id": "ChIJdVhSfqPOl0cR_VXDJHhRaWQ", "plus_code": {"compound_code": "FFGM+VG Mannheim, Germany", "global_code": "8FXCFFGM+VG"}, "price_level": 2, "rating": 4.6, "reference": "ChIJdVhSfqPOl0cR_VXDJHhRaWQ", "scope": "GOOGLE", "types": ["night_club", "bar", "restaurant", "point_of_interest", "food", "establishment"], "user_ratings_total": 81, "vicinity": "Seckenheimer Str. 102, Mannheim"}, {"business_status": "OPERATIONAL", "geometry": {"location": {"lat": 49.4862197, "lng": 8.4650559}, "viewport": {"northeast": {"lat": 49.48763767989272, "lng": 8.466465529892723}, "southwest": {"lat": 49.48493802010728, "lng": 8.463765870107279}}}, "icon": "https://maps.gstatic.com/mapfiles/place_api/icons/v1/png_71/bar-71.png", "icon_background_color": "#FF9E67", "icon_mask_base_uri": "https://maps.gstatic.com/mapfiles/place_api/icons/v2/bar_pinlet", "name": "N One Lounge", "opening_hours": {"open_now": true}, "photos": [{"height": 661, "html_attributions": ["<a href=\"https://maps.google.com/maps/contrib/111882446736538427940\">A Google User</a>"], "photo_reference": "AUGGfZmaHFmULYHi32P7YLe8QvnxODoHl969SPQHYbKPQ_XaR2WB5NX7STPCprW3ThUPhIls3K-h0p7HIRowQ3Ubnx0yGLFVmGpqHQpQKfrNPX9At35JhpkWoDMsYz12VMwiNCxLlBLHHL9_t1Z7ky0N76fPwJ5WwLLzuzBVvT3MandP_pRO", "width": 992}], "place_id": "ChIJLXcw4CPMl0cRARxkpfPlEx8", "plus_code": {"compound_code": "FFP8+F2 Mannheim, Germany", "global_code": "8FXCFFP8+F2"}, "price_level": 2, "rating": 4, "reference": "ChIJLXcw4CPMl0cRARxkpfPlEx8", "scope": "GOOGLE", "types": ["night_club", "bar", "restaurant", "point_of_interest", "food", "establishment"], "user_ratings_total": 1097, "vicinity": "N1 1, Mannheim"}, {"business_status": "OPERATIONAL", "geometry": {"location": {"lat": 49.491245, "lng": 8.474118899999999}, "viewport": {"northeast": {"lat": 49.49265697989271, "lng": 8.475455879892722}, "southwest": {"lat": 49.48995732010727, "lng": 8.472756220107279}}}, "icon": "https://maps.gstatic.com/mapfiles/place_api/icons/v1/png_71/bar-71.png", "icon_background_color": "#FF9E67", "icon_mask_base_uri": "https://maps.gstatic.com/mapfiles/place_api/icons/v2/bar_pinlet", "name": "Fermac's Irish Pub & Restaurant", "opening_hours": {"open_now": false}, "photos": [{"height": 1068, "html_attributions": ["<a href=\"https://maps.google.com/maps/contrib/102917011599735418343\">Fitzgeralds Irish Pub</a>"], "photo_reference": "AUGGfZmzfXAimzow6i12iS4aJPI6RzDmd8eaqe5Cbqeqtow0O5jB9Swmb-e-N3h3xvz8Po67wpRiy98i9JjipU7l1_zUco5R3FNwFuYzfKVIUSzn77Ul982WujqhW-QWr9BmJxnq4Mg9_mF_ACHr2MqUKDrdFjhD6KqcZkJPsPpY89amb_ze", "width": 1600}], "place_id": "ChIJvzLPTybMl0cRNSZvLwD1RfQ", "plus_code": {"compound_code": "FFRF+FJ Mannheim, Germany", "global_code": "8FXCFFRF+FJ"}, "price_level": 2, "rating": 4.5, "reference": "ChIJvzLPTybMl0cRNSZvLwD1RfQ", "scope": "GOOGLE", "types": ["bar", "restaurant", "point_of_interest", "food", "establishment"], "user_ratings_total": 960, "vicinity": "U5 13, Mannheim"}, {"business_status": "OPERATIONAL", "geometry": {"location": {"lat": 49.4832931, "lng": 8.4464873}, "viewport": {"northeast": {"lat": 49.48467772989272, "lng": 8.44780917989272}, "southwest": {"lat": 49.48197807010728, "lng": 8.445109520107277}}}, "icon": "https://maps.gstatic.com/mapfiles/place_api/icons/v1/png_71/bar-71.png", "icon_background_color": "#FF9E67", "icon_mask_base_uri": "https://maps.gstatic.com/mapfiles/place_api/icons/v2/bar_pinlet", "name": "Liam-Joseph Dolphin Gastst\u00e4tte Irish-Pub", "place_id": "ChIJM8LwWGrMl0cRtSz28FpfRUw", "plus_code": {"compound_code": "FCMW+8H Ludwigshafen, Germany", "global_code": "8FXCFCMW+8H"}, "rating": 4.6, "reference": "ChIJM8LwWGrMl0cRtSz28FpfRUw", "scope": "GOOGLE", "types": ["bar", "restaurant", "point_of_interest", "food", "establishment"], "user_ratings_total": 28, "vicinity": "Bahnhofstra\u00dfe 13, Ludwigshafen am Rhein"}, {"business_status": "OPERATIONAL", "geometry": {"location": {"lat": 49.4832931, "lng": 8.4464873}, "viewport": {"northeast": {"lat": 49.48467772989272, "lng": 8.44780917989272}, "southwest": {"lat": 49.48197807010728, "lng": 8.445109520107277}}}, "icon": "https://maps.gstatic.com/mapfiles/place_api/icons/v1/png_71/bar-71.png", "icon_background_color": "#FF9E67", "icon_mask_base_uri": "https://maps.gstatic.com/mapfiles/place_api/icons/v2/bar_pinlet", "name": "Ireland's Own - Ludwigshafen am Rhein", "opening_hours": {"open_now": false}, "photos": [{"height": 3000, "html_attributions": ["<a href=\"https://maps.google.com/maps/contrib/111401001373560869032\">A Google User</a>"], "photo_reference": "AUGGfZkjhDuytVB6LFCL-YFc5IW0V2ef1VrgHrlWXPZPXSJDmNGlYTl-fdCng84iAG1JfjfL_WPPNM-5uESM_eh8Gc7asWWsax-m63woKsBphjzi6AuEwNHtscqPTnxJTfLOXN4SkZTLo5CfhcdMHwcjstbmVKpE-yViyIo9qO0CFFo0uGl1", "width": 4000}], "place_id": "ChIJ20lWWGrMl0cR222RPD4EtMs", "plus_code": {"compound_code": "FCMW+8H Ludwigshafen, Germany", "global_code": "8FXCFCMW+8H"}, "price_level": 2, "rating": 4.4, "reference": "ChIJ20lWWGrMl0cR222RPD4EtMs", "scope": "GOOGLE", "types": ["bar", "restaurant", "point_of_interest", "food", "establishment"], "user_ratings_total": 767, "vicinity": "Bahnhofstra\u00dfe 13, Ludwigshafen am Rhein"}, {"business_status": "OPERATIONAL", "geometry": {"location": {"lat": 49.492225, "lng": 8.472723199999999}, "viewport": {"northeast": {"lat": 49.49362507989272, "lng": 8.474120279892722}, "southwest": {"lat": 49.49092542010728, "lng": 8.471420620107278}}}, "icon": "https://maps.gstatic.com/mapfiles/place_api/icons/v1/png_71/bar-71.png", "icon_background_color": "#FF9E67", "icon_mask_base_uri": "https://maps.gstatic.com/mapfiles/place_api/icons/v2/bar_pinlet", "name": "Kombinat - Mannheim", "opening_hours": {"open_now": false}, "photos": [{"height": 2976, "html_attributions": ["<a href=\"https://maps.google.com/maps/contrib/101842379986152660349\">Sebastian Kranz</a>"], "photo_reference": "AUGGfZksDTjikjOkPlPun1W0pUJs5NrCkOkAU2YVZsyca36-Gy5tc0iVTmNiGvkLnSJsrK8-xnkrAt_WDkKTesSQ9ywJzAtqa_HG43uPE1945iuLUVGsM6kBpql2vT1fe2C5aFlt7zMtWZUt-kbWiCyGNa5n_h6lwTIwIIBO2D83BrdrQKvb", "width": 3968}], "place_id": "ChIJKzGjEibMl0cRDKUUh57NS18", "plus_code": {"compound_code": "FFRF+V3 Mannheim, Germany", "global_code": "8FXCFFRF+V3"}, "price_level": 1, "rating": 4.6, "reference": "ChIJKzGjEibMl0cRDKUUh57NS18", "scope": "GOOGLE", "types": ["bar", "night_club", "restaurant", "point_of_interest", "food", "establishment"], "user_ratings_total": 930, "vicinity": "U3 16, Mannheim"}, {"business_status": "OPERATIONAL", "geometry": {"location": {"lat": 49.4949731, "lng": 8.4567366}, "viewport": {"northeast": {"lat": 49.49629682989272, "lng": 8.458359379892721}, "southwest": {"lat": 49.49359717010728, "lng": 8.455659720107278}}}, "icon": "https://maps.gstatic.com/mapfiles/place_api/icons/v1/png_71/restaurant-71.png", "icon_background_color": "#FF9E67", "icon_mask_base_uri": "https://maps.gstatic.com/mapfiles/place_api/icons/v2/restaurant_pinlet", "name": "St. James", "opening_hours": {"open_now": true}, "photos": [{"height": 2963, "html_attributions": ["<a href=\"https://maps.google.com/maps/contrib/110584606926478202996\">ruediger.baumann</a>"], "photo_reference": "AUGGfZnhk5CRmZW-PS56rMmtJniDqoI3vlnrdY3dMIyh66ZhMfpEHeuTjbTcLTHGaB3nRQ_no1_9wIqAangq4cdgmIpfo8o-tqBkfvIrZs26BSC_neUWNwWXVN-t_6wDXjkSN0vI-FiyGk7dJt4wfN7TLfCuosg1XNJge8WF6nSRL6b_JmpO", "width": 3951}], "place_id": "ChIJkcMUeTfMl0cRiIlE-ZoxEyI", "plus_code": {"compound_code": "FFV4+XM Mannheim, Germany", "global_code": "8FXCFFV4+XM"}, "price_level": 2, "rating": 4.2, "reference": "ChIJkcMUeTfMl0cRiIlE-ZoxEyI", "scope": "GOOGLE", "types": ["bar", "restaurant", "point_of_interest", "food", "establishment"], "user_ratings_total": 459, "vicinity": "Hafenstra\u00dfe 25-27, Mannheim"}, {"business_status": "OPERATIONAL", "geometry": {"location": {"lat": 49.4757056, "lng": 8.4724535}, "viewport": {"northeast": {"lat": 49.47697877989272, "lng": 8.473764379892723}, "southwest": {"lat": 49.47427912010728, "lng": 8.471064720107279}}}, "icon": "https://maps.gstatic.com/mapfiles/place_api/icons/v1/png_71/restaurant-71.png", "icon_background_color": "#FF9E67", "icon_mask_base_uri": "https://maps.gstatic.com/mapfiles/place_api/icons/v2/restaurant_pinlet", "name": "HANS IM GL\u00dcCK - MANNHEIM Gl\u00fccksteinallee", "opening_hours": {"open_now": true}, "photos": [{"height": 2268, "html_attributions": ["<a href=\"https://maps.google.com/maps/contrib/100883891204569944242\">Christian Hiltl</a>"], "photo_reference": "AUGGfZmHHqYUCvJtG4m_ksuIoRUix1Xg637Hrb4YQnqDy0NRmSX_qdQ1aUh8DzgyWc6q7NgoMvl79VZX1VRJoSe-y3zRTkeWuo-rwqYMKBk6xdxaWqdTW3xaG1tNI4hh71BrEhyCadOMks4sAYPej3iEVVhX3gV4DGUWbQ1pHzubqSKcKoM", "width": 4032}], "place_id": "ChIJ568coDLNl0cRnFluiIGZrgQ", "plus_code": {"compound_code": "FFGC+7X Mannheim, Germany", "global_code": "8FXCFFGC+7X"}, "price_level": 2, "rating": 4.2, "reference": "ChIJ568coDLNl0cRnFluiIGZrgQ", "scope": "GOOGLE", "types": ["night_club", "bar", "restaurant", "point_of_interest", "food", "establishment"], "user_ratings_total": 2120, "vicinity": "Gl\u00fccksteinallee 37, Mannheim"}, {"business_status": "OPERATIONAL", "geometry": {"location": {"lat": 49.4863339, "lng": 8.4718767}, "viewport": {"northeast": {"lat": 49.48765782989273, "lng": 8.47330937989272}, "southwest": {"lat": 49.48495817010728, "lng": 8.470609720107277}}}, "icon": "https://maps.gstatic.com/mapfiles/place_api/icons/v1/png_71/bar-71.png", "icon_background_color": "#FF9E67", "icon_mask_base_uri": "https://maps.gstatic.com/mapfiles/place_api/icons/v2/bar_pinlet", "name": "Havana", "opening_hours": {"open_now": true}, "photos": [{"height": 4032, "html_attributions": ["<a href=\"https://maps.google.com/maps/contrib/111156379261825823760\">Jilber Marazyan</a>"], "photo_reference": "AUGGfZm3yFVkZhLKY8Lc3sGj6aZT9iQDvcGfbnJlA9lcxbzRaevKV2W5C8Z_RgPm7G42jmf7IGCrHAn0Zg3Vi8XfaQtYtLCsEtDMRvPdN8QrQkOQ_vg0nbMtWqwA9F7Nh4NvCmcirTBnnK9o58nOuLvPVFbt_JXvC1HJGLpDudKDBukV7JHc", "width": 3024}], "place_id": "ChIJERgnDSHMl0cRN9bnKa_hnlw", "plus_code": {"compound_code": "FFPC+GQ Mannheim, Germany", "global_code": "8FXCFFPC+GQ"}, "price_level": 2, "rating": 3.4, "reference": "ChIJERgnDSHMl0cRN9bnKa_hnlw", "scope": "GOOGLE", "types": ["bar", "restaurant", "point_of_interest", "food", "establishment"], "user_ratings_total": 1162, "vicinity": "P6 16 - 19, Mannheim"}, {"business_status": "OPERATIONAL", "geometry": {"location": {"lat": 49.4795982, "lng": 8.449779999999999}, "viewport": {"northeast": {"lat": 49.48107002989272, "lng": 8.451061579892722}, "southwest": {"lat": 49.47837037010727, "lng": 8.448361920107278}}}, "icon": "https://maps.gstatic.com/mapfiles/place_api/icons/v1/png_71/restaurant-71.png", "icon_background_color": "#FF9E67", "icon_mask_base_uri": "https://maps.gstatic.com/mapfiles/place_api/icons/v2/restaurant_pinlet", "name": "ALEX Ludwigshafen", "opening_hours": {"open_now": true}, "photos": [{"height": 1536, "html_attributions": ["<a href=\"https://maps.google.com/maps/contrib/109126089917836643578\">Dejan Milosavljevic</a>"], "photo_reference": "AUGGfZnED8N2Shyiqh49Alp2qkWhr1e6oAKCh4sm1fnb0OdXdN8uivrWqu6OWClAs8bb6D2oSuP8b9fC3E0HpT3Cdy3ER5C6QNCZwCXMkXS0ZiutC6QndH_jpYoE7kJ9FzxwuJW1UDsUl11HK4ft1mdcnDK1sRUBv_QnguTa3vOCn8DeIX2y", "width": 2048}], "place_id": "ChIJmXh4pxTMl0cRcO9XEwqQCb4", "plus_code": {"compound_code": "FCHX+RW Ludwigshafen, Germany", "global_code": "8FXCFCHX+RW"}, "price_level": 2, "rating": 4.1, "reference": "ChIJmXh4pxTMl0cRcO9XEwqQCb4", "scope": "GOOGLE", "types": ["restaurant", "cafe", "bar", "bakery", "store", "point_of_interest", "food", "establishment"], "user_ratings_total": 2074, "vicinity": "Bismarckstra\u00dfe 29, Ludwigshafen am Rhein"}, {"business_status": "OPERATIONAL", "geometry": {"location": {"lat": 49.4809592, "lng": 8.4704891}, "viewport": {"northeast": {"lat": 49.48227712989272, "lng": 8.472093079892723}, "southwest": {"lat": 49.47957747010727, "lng": 8.469393420107279}}}, "icon": "https://maps.gstatic.com/mapfiles/place_api/icons/v1/png_71/restaurant-71.png", "icon_background_color": "#FF9E67", "icon_mask_base_uri": "https://maps.gstatic.com/mapfiles/place_api/icons/v2/restaurant_pinlet", "name": "Lenok\u2019s Burger (Hbf)", "opening_hours": {"open_now": true}, "photos": [{"height": 3149, "html_attributions": ["<a href=\"https://maps.google.com/maps/contrib/109525183333393591734\">A Google User</a>"], "photo_reference": "AUGGfZnn2-0RF2cAjdJFeCdtvLox5khYvWvE4YWchjPBKdwpdho4pJOYaTJ4TH-DOfNln8h4DTpkaSlwfISyOsHTullPHoMu6NAN2BLNYX6jFzvpFFTNk2xpsZRhTwRCjQeNLm8-UjoIlzvBlBo8qL31gqj00DqRInU4SVrIj-zi68hqtb6g", "width": 5598}], "place_id": "ChIJ0079Gx_Ml0cRTQ-6jfxAlvg", "plus_code": {"compound_code": "FFJC+95 Mannheim, Germany", "global_code": "8FXCFFJC+95"}, "price_level": 2, "rating": 4, "reference": "ChIJ0079Gx_Ml0cRTQ-6jfxAlvg", "scope": "GOOGLE", "types": ["restaurant", "point_of_interest", "food", "establishment"], "user_ratings_total": 941, "vicinity": "L15 12/13, Mannheim"}, {"business_status": "OPERATIONAL", "geometry": {"location": {"lat": 49.4859313, "lng": 8.469358399999999}, "viewport": {"northeast": {"lat": 49.48772362989272, "lng": 8.471723150000004}, "southwest": {"lat": 49.48502397010728, "lng": 8.468570149999996}}}, "icon": "https://maps.gstatic.com/mapfiles/place_api/icons/v1/png_71/restaurant-71.png", "icon_background_color": "#FF9E67", "icon_mask_base_uri": "https://maps.gstatic.com/mapfiles/place_api/icons/v2/restaurant_pinlet", "name": "Dachgarten", "opening_hours": {"open_now": true}, "photos": [{"height": 1440, "html_attributions": ["<a href=\"https://maps.google.com/maps/contrib/117423728957528550928\">stef ver</a>"], "photo_reference": "AUGGfZkThPAjyJmJ2CTS3YNwEkd19teC42Mf_inz1A-l2f2mZg9yc3PlkGoErdxw6D9L3TznRNKgy8rpKRsKKP1KN-GTlwpU7T24QPi-8w2rxZByIk3jxO5vmLhjUiUSGu-0n1pqqS8u-PPaoRZHAYnEQEd7wvY7xfbWIOu0JjQqckF_jRn-", "width": 2560}], "place_id": "ChIJ-SBJ1SPMl0cRpAfJsV447kE", "plus_code": {"compound_code": "FFP9+9P Mannheim, Germany", "global_code": "8FXCFFP9+9P"}, "price_level": 2, "rating": 4.1, "reference": "ChIJ-SBJ1SPMl0cRpAfJsV447kE", "scope": "GOOGLE", "types": ["restaurant", "point_of_interest", "food", "establishment"], "user_ratings_total": 1158, "vicinity": "engelhorn Mode im Quadrat, O5 9-12, Mannheim"}, {"business_status": "OPERATIONAL", "geometry": {"location": {"lat": 49.4820731, "lng": 8.4728443}, "viewport": {"northeast": {"lat": 49.48347832989273, "lng": 8.474060079892721}, "southwest": {"lat": 49.48077867010728, "lng": 8.471360420107278}}}, "icon": "https://maps.gstatic.com/mapfiles/place_api/icons/v1/png_71/restaurant-71.png", "icon_background_color": "#FF9E67", "icon_mask_base_uri": "https://maps.gstatic.com/mapfiles/place_api/icons/v2/restaurant_pinlet", "name": "Unicorn", "opening_hours": {"open_now": true}, "photos": [{"height": 3024, "html_attributions": ["<a href=\"https://maps.google.com/maps/contrib/114684657831694973235\">Firas Kassem</a>"], "photo_reference": "AUGGfZkSdIREvnBhHKnPd-tX5Vnc8ttxwk-fwPNN-dwuOthPMqKWbRbbD1VQjiFgfRrtNEJTGrGtThmqlRrGu9d4QYFwlAnfakhZ0istsjaxcPsqNtHZJqe2XNCPdbaUozWlZLdnfZ7XlvwL2BKKJVo46ff6HUseIaCMEVI33ziOSUeLouC6", "width": 4032}], "place_id": "ChIJ__I24SPMl0cRk-3dAgjiL0k", "plus_code": {"compound_code": "FFJF+R4 Mannheim, Germany", "global_code": "8FXCFFJF+R4"}, "rating": 3.3, "reference": "ChIJ__I24SPMl0cRk-3dAgjiL0k", "scope": "GOOGLE", "types": ["night_club", "bar", "restaurant", "point_of_interest", "food", "establishment"], "user_ratings_total": 207, "vicinity": "Kaiserring 30, Mannheim"}, {"business_status": "OPERATIONAL", "geometry": {"location": {"lat": 49.4892123, "lng": 8.4669283}, "viewport": {"northeast": {"lat": 49.49064287989273, "lng": 8.46832672989272}, "southwest": {"lat": 49.48794322010728, "lng": 8.465627070107276}}}, "icon": "https://maps.gstatic.com/mapfiles/place_api/icons/v1/png_71/cafe-71.png", "icon_background_color": "#FF9E67", "icon_mask_base_uri": "https://maps.gstatic.com/mapfiles/place_api/icons/v2/cafe_pinlet", "name": "Coffee Fellows - Kaffee, Bagels, Fr\u00fchst\u00fcck", "opening_hours": {"open_now": true}, "photos": [{"height": 3024, "html_attributions": ["<a href=\"https://maps.google.com/maps/contrib/107158767156198444360\">David Losak</a>"], "photo_reference": "AUGGfZmSmywprgzh8WewtndWqYT6wNT3RVMvbG6xym4CYM5TXcQ-QYOyVb5yA-Ts7QcqUf_WAdWfoN6f4IJxG-gnQXFttj2QsD_SPbYULjWe6Gnl5v4TpetPITovYIu8t5uvFC13k2MjdQAtLAks9qu4pK3XqW0LBKwVjEwdSHYGz2xfW4Vm", "width": 4032}], "place_id": "ChIJ1zxegSTMl0cR3sBAY_B9MVA", "plus_code": {"compound_code": "FFQ8+MQ Mannheim, Germany", "global_code": "8FXCFFQ8+MQ"}, "price_level": 2, "rating": 4, "reference": "ChIJ1zxegSTMl0cR3sBAY_B9MVA", "scope": "GOOGLE", "types": ["cafe", "store", "restaurant", "point_of_interest", "food", "establishment"], "user_ratings_total": 549, "vicinity": "F1 1-5, Mannheim"}, {"business_status": "OPERATIONAL", "geometry": {"location": {"lat": 49.472911, "lng": 8.469476}, "viewport": {"northeast": {"lat": 49.47423207989272, "lng": 8.470793479892722}, "southwest": {"lat": 49.47153242010728, "lng": 8.468093820107278}}}, "icon": "https://maps.gstatic.com/mapfiles/place_api/icons/v1/png_71/cafe-71.png", "icon_background_color": "#FF9E67", "icon_mask_base_uri": "https://maps.gstatic.com/mapfiles/place_api/icons/v2/cafe_pinlet", "name": "Perle Kaffeebar", "opening_hours": {"open_now": true}, "photos": [{"height": 3472, "html_attributions": ["<a href=\"https://maps.google.com/maps/contrib/108241203889136943601\">Marco Sawatzki</a>"], "photo_reference": "AUGGfZkufMtQdUKERhGIM5e6QgwpbfHpBxx5D089jN1M6ldZBQtGRquDxShlHEJLWKUyFHXG9Lbdftyw2Y9mch-Ep1zNVIOhTEpEMMnVnZKyEBk0NgwXnfjasv0ttmzFLbZiX1YFSEzb0zI2drBeEhhF4zJ7R2nfm7yk1aRtMCqH7xqmiyp4", "width": 4624}], "place_id": "ChIJd8B51QLMl0cRQZswzdvGRMY", "plus_code": {"compound_code": "FFF9+5Q Mannheim, Germany", "global_code": "8FXCFFF9+5Q"}, "price_level": 2, "rating": 4.4, "reference": "ChIJd8B51QLMl0cRQZswzdvGRMY", "scope": "GOOGLE", "types": ["cafe", "bar", "store", "restaurant", "point_of_interest", "food", "establishment"], "user_ratings_total": 329, "vicinity": "Meerfeldstra\u00dfe 59, Mannheim"}, {"business_status": "OPERATIONAL", "geometry": {"location": {"lat": 49.4798732, "lng": 8.4696169}, "viewport": {"northeast": {"lat": 49.48145962989272, "lng": 8.47071897989272}, "southwest": {"lat": 49.47875997010728, "lng": 8.468019320107276}}}, "icon": "https://maps.gstatic.com/mapfiles/place_api/icons/v1/png_71/cafe-71.png", "icon_background_color": "#FF9E67", "icon_mask_base_uri": "https://maps.gstatic.com/mapfiles/place_api/icons/v2/cafe_pinlet", "name": "Coffee Fellows", "opening_hours": {"open_now": true}, "photos": [{"height": 567, "html_attributions": ["<a href=\"https://maps.google.com/maps/contrib/103302670182835298278\">Coffee Fellows</a>"], "photo_reference": "AUGGfZn-efjnq0wikX7UWwV68Ap9CerSW6Kp3yGTSgidtNtI7jr9FPrvf0gctHxififAF7Et-ApWG1rNbg96voACjjwQ2mK0_VZ8NbAUoPupJoU27fUqcw1QRycIUJNybFnDCgeCswLGwK-mMpVVz_nwaoO7eAWKzDiAlhCYEI3j7Lt_Bvj_", "width": 850}], "place_id": "ChIJuRRijB7Ml0cRUZkU4K5HAAI", "plus_code": {"compound_code": "FFH9+WR Mannheim, Germany", "global_code": "8FXCFFH9+WR"}, "price_level": 2, "rating": 3.4, "reference": "ChIJuRRijB7Ml0cRUZkU4K5HAAI", "scope": "GOOGLE", "types": ["cafe", "store", "restaurant", "point_of_interest", "food", "establishment"], "user_ratings_total": 257, "vicinity": "Willy-Brandt-Platz 17, Mannheim"}, {"business_status": "OPERATIONAL", "geometry": {"location": {"lat": 49.4886675, "lng": 8.4645383}, "viewport": {"northeast": {"lat": 49.48997422989272, "lng": 8.465959279892722}, "southwest": {"lat": 49.48727457010728, "lng": 8.463259620107278}}}, "icon": "https://maps.gstatic.com/mapfiles/place_api/icons/v1/png_71/restaurant-71.png", "icon_background_color": "#FF9E67", "icon_mask_base_uri": "https://maps.gstatic.com/mapfiles/place_api/icons/v2/restaurant_pinlet", "name": "Ellin Original Greek I Griechisches Restaurant in Mannheim", "opening_hours": {"open_now": true}, "photos": [{"height": 4032, "html_attributions": ["<a href=\"https://maps.google.com/maps/contrib/107273219412734845998\">A Google User</a>"], "photo_reference": "AUGGfZlHlQFLs430Yjk-xmX9DMiC7q4Jg0ytwMbaWyaEXLVny6Bl8FR7MEL6L5d0qx6wjXzT7-oArwaCKbN7Z2pIR4SCBk8qLuPJu7B-RhvA-esdEUkW-aAq3GpXnaobp0LVLpwOHmPaiw8miX_36OnqlO7AShzEvNdiJJvWOhkO5hDX04pe", "width": 3024}], "place_id": "ChIJr6qXzwHNl0cRA0YIHfEtXQA", "plus_code": {"compound_code": "FFQ7+FR Mannheim, Germany", "global_code": "8FXCFFQ7+FR"}, "price_level": 2, "rating": 4.1, "reference": "ChIJr6qXzwHNl0cRA0YIHfEtXQA", "scope": "GOOGLE", "types": ["meal_takeaway", "cafe", "bar", "restaurant", "point_of_interest", "food", "establishment"], "user_ratings_total": 692, "vicinity": "E3 1, Mannheim"}, {"business_status": "OPERATIONAL", "geometry": {"location": {"lat": 49.47432620000001, "lng": 8.4653564}, "viewport": {"northeast": {"lat": 49.47573382989273, "lng": 8.466728279892722}, "southwest": {"lat": 49.47303417010728, "lng": 8.464028620107278}}}, "icon": "https://maps.gstatic.com/mapfiles/place_api/icons/v1/png_71/restaurant-71.png", "icon_background_color": "#FF9E67", "icon_mask_base_uri": "https://maps.gstatic.com/mapfiles/place_api/icons/v2/restaurant_pinlet", "name": "DIE METZGEREI", "opening_hours": {"open_now": true}, "photos": [{"height": 2003, "html_attributions": ["<a href=\"https://maps.google.com/maps/contrib/104114059753336618121\">Die Metzgerei</a>"], "photo_reference": "AUGGfZn1uPBaPlVHgnP70_O1pCcGrFZJyWtYReAoDFoEGV6UIL_AO-goJF_Px1Chaf1bxU5CDELaw7QgGfMr7J7dWsUfpwzOvjkUXf45vKqfXTfd6jjReAJz2J2eqES3EtUz9KQYKjcFR8Xs2lljkej8Px0kw66FihsvJSd-7aHzHBtHCKej", "width": 3000}], "place_id": "ChIJxSNkQRvMl0cRCvG20Dr5rTE", "plus_code": {"compound_code": "FFF8+P4 Mannheim, Germany", "global_code": "8FXCFFF8+P4"}, "price_level": 2, "rating": 4.6, "reference": "ChIJxSNkQRvMl0cRCvG20Dr5rTE", "scope": "GOOGLE", "types": ["restaurant", "point_of_interest", "food", "establishment"], "user_ratings_total": 1286, "vicinity": "Rheinparkstra\u00dfe 4, Mannheim"}]