[{"business_status": "OPERATIONAL", "geometry": {"location": {"lat": 52.5214089, "lng": 13.4117395}, "viewport": {"northeast": {"lat": 52.52297007989272, "lng": 13.41292602989272}, "southwest": {"lat": 52.52027042010727, "lng": 13.41022637010728}}}, "icon": "https://maps.gstatic.com/mapfiles/place_api/icons/v1/png_71/bar-71.png", "icon_background_color": "#FF9E67", "icon_mask_base_uri": "https://maps.gstatic.com/mapfiles/place_api/icons/v2/bar_pinlet", "name": "Bierbar Alkopole", "opening_hours": {"open_now": true}, "photos": [{"height": 2480, "html_attributions": ["<a href=\"https://maps.google.com/maps/contrib/102329435423745056027\">A Google User</a>"], "photo_reference": "AUGGfZnKW6Tv_jkW6Bb-v4aZ31IB_7jRDdTUtTyE2Gjeu_o-BWUTNrA75Oln0B4GR6rf8c7v7Mlo8CWJjjMRxOk3VGg8fEdkOV4uSo-FC1ivJ9q46-wa-u0KCqg0HuUrHtuXzcTutd5rXl-Xg_JifyohPkVXXM_ppxs6MYs8r_hr9urXd9On", "width": 3508}], "place_id": "ChIJx6t31B5OqEcRO7N671w2z50", "plus_code": {"compound_code": "GCC6+HM Berlin, Germany", "global_code": "9F4MGCC6+HM"}, "price_level": 2, "rating": 4.3, "reference": "ChIJx6t31B5OqEcRO7N671w2z50", "scope": "GOOGLE", "types": ["bar", "restaurant", "food", "point_of_interest", "establishment"], "user_ratings_total": 736, "vicinity": "Dircksenstra\u00dfe 2, Berlin"}, {"business_status": "OPERATIONAL", "geometry": {"location": {"lat": 52.522491, "lng": 13.401438}, "viewport": {"northeast": {"lat": 52.52387382989272, "lng": 13.40224477989272}, "southwest": {"lat": 52.52117417010728, "lng": 13.39954512010728}}}, "icon": "https://maps.gstatic.com/mapfiles/place_api/icons/v1/png_71/bar-71.png", "icon_background_color": "#FF9E67", "icon_mask_base_uri": "https://maps.gstatic.com/mapfiles/place_api/icons/v2/bar_pinlet", "name": "Kilkenny Irish Pub", "opening_hours": {"open_now": true}, "photos": [{"height": 1800, "html_attributions": ["<a href=\"https://maps.google.com/maps/contrib/115458018905763143262\">A Google User</a>"], "photo_reference": "AUGGfZnCZf9h-1BZA1PV2T3WP7VTgm_HEFEHskjeAEs-YtKapEoFFoiiAxVKWvveAgfoeYv2wsm-T0GzjnO6bgF0CoDOXAunE0GNYEvCIjV56FmGaHu1SUqyVE0v85QKQcXuBhZSdRqkCZpeSbx22Ky0qjPLaTpXpaVs15yLkrd-BnOkV1WD", "width": 4000}], "place_id": "ChIJs8oZleBRqEcRsBeU5Vog2pM", "plus_code": {"compound_code": "GCC2+XH Berlin, Germany", "global_code": "9F4MGCC2+XH"}, "price_level": 2, "rating": 4.3, "reference": "ChIJs8oZleBRqEcRsBeU5Vog2pM", "scope": "GOOGLE", "types": ["bar", "restaurant", "food", "point_of_interest", "establishment"], "user_ratings_total": 5476, "vicinity": "Am Zwirngraben 17-20, Berlin"}, {"business_status": "OPERATIONAL", "geometry": {"location": {"lat": 52.51791650000001, "lng": 13.3882839}, "viewport": {"northeast": {"lat": 52.51932067989272, "lng": 13.38968412989272}, "southwest": {"lat": 52.51662102010727, "lng": 13.38698447010728}}}, "icon": "https://maps.gstatic.com/mapfiles/place_api/icons/v1/png_71/bar-71.png", "icon_background_color": "#FF9E67", "icon_mask_base_uri": "https://maps.gstatic.com/mapfiles/place_api/icons/v2/bar_pinlet", "name": "Treffpunkt Berlin", "opening_hours": {"open_now": true}, "photos": [{"height": 3120, "html_attributions": ["<a href=\"https://maps.google.com/maps/contrib/105872682915254764996\">Eileen MacPherson</a>"], "photo_reference": "AUGGfZljgqEnkM79AHKPyq9wCqMTnKe7B7y-KkfC0IFLLzxvqxD9b0d64osZ9n8eCtQXfQlp7RtZ7sD0zc28dHWZll0kyRBlpCfA3i458P3DzO-1t_s0JGTtMFB2Lg5gjcpPCV20FftdRehb9mB2_ZrwUsdgclkNwtJAxz-QPAj2lG6lZZIn", "width": 4160}], "place_id": "ChIJYS1LpsRRqEcRKV_Xls2gKPs", "plus_code": {"compound_code": "G99Q+58 Berlin, Germany", "global_code": "9F4MG99Q+58"}, "price_level": 2, "rating": 4.5, "reference": "ChIJYS1LpsRRqEcRKV_Xls2gKPs", "scope": "GOOGLE", "types": ["bar", "restaurant", "food", "point_of_interest", "establishment"], "user_ratings_total": 1560, "vicinity": "Mittelstra\u00dfe 55, Berlin"}, {"business_status": "OPERATIONAL", "geometry": {"location": {"lat": 52.523, "lng": 13.4073341}, "viewport": {"northeast": {"lat": 52.52435417989272, "lng": 13.40849427989272}, "southwest": {"lat": 52.52165452010728, "lng": 13.40579462010728}}}, "icon": "https://maps.gstatic.com/mapfiles/place_api/icons/v1/png_71/bar-71.png", "icon_background_color": "#FF9E67", "icon_mask_base_uri": "https://maps.gstatic.com/mapfiles/place_api/icons/v2/bar_pinlet", "name": "The Pub", "opening_hours": {"open_now": true}, "photos": [{"height": 3263, "html_attributions": ["<a href=\"https://maps.google.com/maps/contrib/110058889479386637399\">The Pub</a>"], "photo_reference": "AUGGfZlQgF5rbEb3ywj5u9mjZksqS2_PnDrb_VItt-zr43jOtN4MVPd4A3bZf6j6S1u2FMj84G0Ea9yZAdRw5vqMsKOIfnmwVLe_YgpvFTccv7prv-vdFKIgvFFcZav2LcykqDY4Uu2UEuxRp0E4o54d0WLMktKVFY0jAxuKcoygcATKJitW", "width": 4926}], "place_id": "ChIJlczQJOBRqEcRXVYk4DrcCSo", "plus_code": {"compound_code": "GCF4+5W Berlin, Germany", "global_code": "9F4MGCF4+5W"}, "price_level": 2, "rating": 4.4, "reference": "ChIJlczQJOBRqEcRXVYk4DrcCSo", "scope": "GOOGLE", "types": ["bar", "restaurant", "food", "point_of_interest", "establishment"], "user_ratings_total": 2588, "vicinity": "Rochstra\u00dfe 14, Berlin"}, {"business_status": "OPERATIONAL", "geometry": {"location": {"lat": 52.4995388, "lng": 13.4392837}, "viewport": {"northeast": {"lat": 52.50094712989272, "lng": 13.44059342989272}, "southwest": {"lat": 52.49824747010728, "lng": 13.43789377010728}}}, "icon": "https://maps.gstatic.com/mapfiles/place_api/icons/v1/png_71/bar-71.png", "icon_background_color": "#FF9E67", "icon_mask_base_uri": "https://maps.gstatic.com/mapfiles/place_api/icons/v2/bar_pinlet", "name": "Hopfenreich", "opening_hours": {"open_now": true}, "photos": [{"height": 2268, "html_attributions": ["<a href=\"https://maps.google.com/maps/contrib/101970396208602188023\">Hincu Gheorghe</a>"], "photo_reference": "AUGGfZmZUpNdBPrzndtN72RJBPrZuQdlypCvaMJmMjPZzDkVxcO2-Nm8iLh8nObued2j9PpIejlAsdSa1RoxmQR0M1rrUzGJ3TV1Hz3aeNr3ik0z7GdYH1pVeysZ404zMgTonpcLpfi1th-mZj-jKPR1UAuTH467IG4_3eNH2P98BxgLgvyt", "width": 4032}], "place_id": "ChIJ82yhtk1OqEcRJPJmrJrgtX8", "plus_code": {"compound_code": "FCXQ+RP Berlin, Germany", "global_code": "9F4MFCXQ+RP"}, "price_level": 2, "rating": 4.5, "reference": "ChIJ82yhtk1OqEcRJPJmrJrgtX8", "scope": "GOOGLE", "types": ["bar", "restaurant", "food", "point_of_interest", "establishment"], "user_ratings_total": 2070, "vicinity": "Sorauer Str. 31, Berlin"}, {"business_status": "OPERATIONAL", "geometry": {"location": {"lat": 52.5223503, "lng": 13.3873539}, "viewport": {"northeast": {"lat": 52.52368392989272, "lng": 13.38878632989272}, "southwest": {"lat": 52.52098427010728, "lng": 13.38608667010728}}}, "icon": "https://maps.gstatic.com/mapfiles/place_api/icons/v1/png_71/bar-71.png", "icon_background_color": "#FF9E67", "icon_mask_base_uri": "https://maps.gstatic.com/mapfiles/place_api/icons/v2/bar_pinlet", "name": "Murphy\u2019s Irish Pub", "opening_hours": {"open_now": true}, "photos": [{"height": 510, "html_attributions": ["<a href=\"https://maps.google.com/maps/contrib/117551912993065028582\">Johannes Elsner</a>"], "photo_reference": "AUGGfZkyTBxw0-iSxckNuE3wAnsdyZhe2-VDZyehvmHhAFTfxTmbzbzqLKZekTj6iQxzsye2lwpIdj44dQUbTuqenhC2b0-GYsf2GnWCUOztW2k-5xDiW40ky0c8x1IZRnYFDf6VTxEOs45UL09cJeO99D9ZWQlpJPcx21iauBaZBM2XOtU2", "width": 800}], "place_id": "ChIJaRuARsJRqEcR4t9C9p0FuwY", "plus_code": {"compound_code": "G9CP+WW Berlin, Germany", "global_code": "9F4MG9CP+WW"}, "price_level": 2, "rating": 4.2, "reference": "ChIJaRuARsJRqEcR4t9C9p0FuwY", "scope": "GOOGLE", "types": ["bar", "restaurant", "food", "point_of_interest", "establishment"], "user_ratings_total": 3994, "vicinity": "Schiffbauerdamm 1, Berlin"}, {"business_status": "OPERATIONAL", "geometry": {"location": {"lat": 52.537243, "lng": 13.4176111}, "viewport": {"northeast": {"lat": 52.53859092989272, "lng": 13.41891497989272}, "southwest": {"lat": 52.53589127010728, "lng": 13.41621532010728}}}, "icon": "https://maps.gstatic.com/mapfiles/place_api/icons/v1/png_71/bar-71.png", "icon_background_color": "#FF9E67", "icon_mask_base_uri": "https://maps.gstatic.com/mapfiles/place_api/icons/v2/bar_pinlet", "name": "Cliffs of Dooneen", "opening_hours": {"open_now": true}, "photos": [{"height": 3024, "html_attributions": ["<a href=\"https://maps.google.com/maps/contrib/109986111509509931900\">David Gasirabo</a>"], "photo_reference": "AUGGfZlIk9BgQe3_wc_b_r0T9wQlQYM5z8p8KTYZVEAHZkt5bh4pEQNqeWa7OVRnDimXVpB1B4BLXgLtY3C1pFSpeOKP1jCebtGfLDr6SWZeXCqdVmaPvoFbNF59-7eEPF9XyQXE9KtOu7-PSrPi4xIA1mAmwhu3j3J2qAFAcEXk98FuNAih", "width": 4032}], "place_id": "ChIJWe9elwFOqEcRoESYJyaMfcU", "plus_code": {"compound_code": "GCP9+V3 Berlin, Germany", "global_code": "9F4MGCP9+V3"}, "price_level": 2, "rating": 4.6, "reference": "ChIJWe9elwFOqEcRoESYJyaMfcU", "scope": "GOOGLE", "types": ["bar", "restaurant", "food", "point_of_interest", "establishment"], "user_ratings_total": 485, "vicinity": "Husemannstra\u00dfe 6, Berlin"}, {"business_status": "OPERATIONAL", "geometry": {"location": {"lat": 52.53220899999999, "lng": 13.3804843}, "viewport": {"northeast": {"lat": 52.53363762989272, "lng": 13.38200737989272}, "southwest": {"lat": 52.53093797010727, "lng": 13.37930772010728}}}, "icon": "https://maps.gstatic.com/mapfiles/place_api/icons/v1/png_71/bar-71.png", "icon_background_color": "#FF9E67", "icon_mask_base_uri": "https://maps.gstatic.com/mapfiles/place_api/icons/v2/bar_pinlet", "name": "Bierstube Alt Berlin", "opening_hours": {"open_now": true}, "photos": [{"height": 2268, "html_attributions": ["<a href=\"https://maps.google.com/maps/contrib/107289636926076277392\">Russell</a>"], "photo_reference": "AUGGfZnp-b4CzrPCbYjZKN4U_rMvCkMlZDCtNcFNuVh8MOyZW7PnCQo9o-RVUWEQbVJW8ukArGWm92XK4b_-E-I6MLZLIi9qdyGJtxHoByg_NtPmdlol7pwUxGMBjxKKU73xMjAZpMLLPuPoGv-X4QPumdBavFRO7r_8jXvUjy2vaVs8AzWt", "width": 4032}], "place_id": "ChIJx-jMJ5NRqEcRcMALPcTBQ18", "plus_code": {"compound_code": "G9JJ+V5 Berlin, Germany", "global_code": "9F4MG9JJ+V5"}, "price_level": 2, "rating": 4.3, "reference": "ChIJx-jMJ5NRqEcRcMALPcTBQ18", "scope": "GOOGLE", "types": ["bar", "restaurant", "food", "point_of_interest", "establishment"], "user_ratings_total": 271, "vicinity": "Chausseestra\u00dfe 102, Berlin"}, {"business_status": "OPERATIONAL", "geometry": {"location": {"lat": 52.53149999999999, "lng": 13.3884999}, "viewport": {"northeast": {"lat": 52.53290612989272, "lng": 13.38977507989272}, "southwest": {"lat": 52.53020647010727, "lng": 13.38707542010728}}}, "icon": "https://maps.gstatic.com/mapfiles/place_api/icons/v1/png_71/bar-71.png", "icon_background_color": "#FF9E67", "icon_mask_base_uri": "https://maps.gstatic.com/mapfiles/place_api/icons/v2/bar_pinlet", "name": "The Castle Berlin Mitte", "opening_hours": {"open_now": true}, "photos": [{"height": 3024, "html_attributions": ["<a href=\"https://maps.google.com/maps/contrib/101322404186234853521\">Kai Blitz</a>"], "photo_reference": "AUGGfZkZqtWLpYtW-kpvjyE9RrKY8snjQuNNMAP1hOc0-nmcvVb1OIdXN8ls_6-Hfp8-qByTyyeqBh7XmmQFBzNR0O0ExOMdlhL09GF1-lhVROimimrM6PTyjXtg8SeYxM3dXqM0GZxxIaewFLi0l1iEPHbtf5OtorDzFR2DB-odYcNsrnol", "width": 4032}], "place_id": "ChIJuROMaiFSqEcRU5RmfS7QB6Q", "plus_code": {"compound_code": "G9JQ+H9 Berlin, Germany", "global_code": "9F4MG9JQ+H9"}, "price_level": 2, "rating": 4.3, "reference": "ChIJuROMaiFSqEcRU5RmfS7QB6Q", "scope": "GOOGLE", "types": ["bar", "meal_takeaway", "restaurant", "food", "point_of_interest", "establishment"], "user_ratings_total": 2224, "vicinity": "Invalidenstra\u00dfe 129, Berlin"}, {"business_status": "OPERATIONAL", "geometry": {"location": {"lat": 52.5075, "lng": 13.3894445}, "viewport": {"northeast": {"lat": 52.50891637989272, "lng": 13.39078822989272}, "southwest": {"lat": 52.50621672010728, "lng": 13.38808857010728}}}, "icon": "https://maps.gstatic.com/mapfiles/place_api/icons/v1/png_71/bar-71.png", "icon_background_color": "#FF9E67", "icon_mask_base_uri": "https://maps.gstatic.com/mapfiles/place_api/icons/v2/bar_pinlet", "name": "Murphy's Irish Pub at Checkpoint Charlie", "opening_hours": {"open_now": true}, "photos": [{"height": 3024, "html_attributions": ["<a href=\"https://maps.google.com/maps/contrib/100003977206125061727\">tamecows</a>"], "photo_reference": "AUGGfZnamYr_yVf0jD-ITVC3aKjeuYL7v2wW0sUDCbPfltGr-_FI_ueXp9-RoX4x9Xd-AFKs2LCvt_keXsc0wT6VXc0BttxDHnJJ7y89dGZ3J7PInyy_ohZ_uQHyWcm-7hTh3E3q1io8ViL2uctIHU6x1kw3W-sPfKkmBZIjv6pt2LdcMHvT", "width": 4032}], "place_id": "ChIJCzhsb9FRqEcR6sgAi0GmyN8", "plus_code": {"compound_code": "G94Q+XQ Berlin, Germany", "global_code": "9F4MG94Q+XQ"}, "price_level": 2, "rating": 4.3, "reference": "ChIJCzhsb9FRqEcR6sgAi0GmyN8", "scope": "GOOGLE", "types": ["bar", "restaurant", "food", "point_of_interest", "establishment"], "user_ratings_total": 2424, "vicinity": "Zimmerstra\u00dfe 19, Berlin"}, {"business_status": "OPERATIONAL", "geometry": {"location": {"lat": 52.5328259, "lng": 13.3957253}, "viewport": {"northeast": {"lat": 52.53415552989271, "lng": 13.39704917989272}, "southwest": {"lat": 52.53145587010727, "lng": 13.39434952010728}}}, "icon": "https://maps.gstatic.com/mapfiles/place_api/icons/v1/png_71/bar-71.png", "icon_background_color": "#FF9E67", "icon_mask_base_uri": "https://maps.gstatic.com/mapfiles/place_api/icons/v2/bar_pinlet", "name": "BrewDog Berlin Mitte", "opening_hours": {"open_now": true}, "photos": [{"height": 3024, "html_attributions": ["<a href=\"https://maps.google.com/maps/contrib/110749349269915978752\">Ruslan Samovarov</a>"], "photo_reference": "AUGGfZmWHXeFVe6UJk3KQh_c5Ge1qMJVaz5hnSz4o2l8XlAhPUOMM7LT6sSb2NCQ7NsUpHy2APKg9Z_6LZqswQ9VtUGFH2x_n2RIILgK8x0sT-J4kreyzJztZABNgIkITjZ3uSdi7JSUeYi9jUzgdEwxxnxEcqS-pUfx77azwmO8WJduBecv", "width": 4032}], "place_id": "ChIJ6Qv93u9RqEcRh5Idxw-WJa8", "plus_code": {"compound_code": "G9MW+48 Berlin, Germany", "global_code": "9F4MG9MW+48"}, "price_level": 2, "rating": 4.4, "reference": "ChIJ6Qv93u9RqEcRh5Idxw-WJa8", "scope": "GOOGLE", "types": ["bar", "liquor_store", "restaurant", "food", "store", "point_of_interest", "establishment"], "user_ratings_total": 4175, "vicinity": "Ackerstra\u00dfe 29, Berlin"}, {"business_status": "OPERATIONAL", "geometry": {"location": {"lat": 52.5283993, "lng": 13.4099169}, "viewport": {"northeast": {"lat": 52.52975947989271, "lng": 13.41137937989272}, "southwest": {"lat": 52.52705982010727, "lng": 13.40867972010728}}}, "icon": "https://maps.gstatic.com/mapfiles/place_api/icons/v1/png_71/bar-71.png", "icon_background_color": "#FF9E67", "icon_mask_base_uri": "https://maps.gstatic.com/mapfiles/place_api/icons/v2/bar_pinlet", "name": "KASCHK by BRLO", "opening_hours": {"open_now": true}, "photos": [{"height": 3024, "html_attributions": ["<a href=\"https://maps.google.com/maps/contrib/110922347848814841593\">Ilya Belyavin-Reutov</a>"], "photo_reference": "AUGGfZkL3rx5dc3VISfFOaeALewNTai1PAr72eIv3AAAQISvXZDSI7_SrkH56h309FcVEC_sUdo-podFR6ttzklMhnTBiQH0ASgwUZlb0U2QO4fY07mTnGZ9gtEQWr_oFNnH0bha_mJMFYRYtwxiPpKvvTL3yRphLgFSrbhVShhYmoJYeTL8", "width": 4032}], "place_id": "ChIJzY2QcOJRqEcRjXMr2_ldGSk", "plus_code": {"compound_code": "GCH5+9X Berlin, Germany", "global_code": "9F4MGCH5+9X"}, "price_level": 2, "rating": 4.4, "reference": "ChIJzY2QcOJRqEcRjXMr2_ldGSk", "scope": "GOOGLE", "types": ["cafe", "bar", "restaurant", "food", "point_of_interest", "establishment"], "user_ratings_total": 2015, "vicinity": "Linienstra\u00dfe 40, Berlin"}, {"business_status": "OPERATIONAL", "geometry": {"location": {"lat": 52.5236695, "lng": 13.3909383}, "viewport": {"northeast": {"lat": 52.52494157989272, "lng": 13.39235917989272}, "southwest": {"lat": 52.52224192010727, "lng": 13.38965952010728}}}, "icon": "https://maps.gstatic.com/mapfiles/place_api/icons/v1/png_71/bar-71.png", "icon_background_color": "#FF9E67", "icon_mask_base_uri": "https://maps.gstatic.com/mapfiles/place_api/icons/v2/bar_pinlet", "name": "Belushi's Berlin (Mitte)", "opening_hours": {"open_now": true}, "photos": [{"height": 1251, "html_attributions": ["<a href=\"https://maps.google.com/maps/contrib/112595655719095999398\">A Google User</a>"], "photo_reference": "AUGGfZncPW0hNR-o8syAnYrRK84npOwRHODyqMOSL0QmxRsNmWrhAmzOgUAmqQB1dP49w5v1U7EVkwy-mTLimDMLzhe-ozrkNGcOYHyz5Q2ND1IVEY9J7-Ct9VCeMvAurPBLqUv2ffSfAwN9JqaI44qhesgqojpDPchAY8ptVXkbQH8JfViD", "width": 1875}], "place_id": "ChIJS-vejQFRqEcRfHLdxR3cP1Y", "plus_code": {"compound_code": "G9FR+F9 Berlin, Germany", "global_code": "9F4MG9FR+F9"}, "price_level": 2, "rating": 4.4, "reference": "ChIJS-vejQFRqEcRfHLdxR3cP1Y", "scope": "GOOGLE", "types": ["bar", "restaurant", "food", "point_of_interest", "establishment"], "user_ratings_total": 959, "vicinity": "Ziegelstra\u00dfe 28, Berlin"}, {"business_status": "OPERATIONAL", "geometry": {"location": {"lat": 52.5120893, "lng": 13.416871}, "viewport": {"northeast": {"lat": 52.51345082989272, "lng": 13.41828622989272}, "southwest": {"lat": 52.51075117010728, "lng": 13.41558657010728}}}, "icon": "https://maps.gstatic.com/mapfiles/place_api/icons/v1/png_71/bar-71.png", "icon_background_color": "#FF9E67", "icon_mask_base_uri": "https://maps.gstatic.com/mapfiles/place_api/icons/v2/bar_pinlet", "name": "Gittis Bier-Bar", "opening_hours": {"open_now": true}, "photos": [{"height": 3024, "html_attributions": ["<a href=\"https://maps.google.com/maps/contrib/116108156764194557100\">Al Stan</a>"], "photo_reference": "AUGGfZm2TTkjgxqoxcj5qg5tbuq8HHPtXli0wIEc01kWGDOGWtiiKtOUSKVstxyOHqKeXGZSMUQucnReElDOA9G5pYcqy5G2qniLNOyNkG7MetNwInDZeWzNXKRUQ4WzJ75Db_SWZXQmJP6gZeS6M-7vWhJcqKBBV4SD8eZLxKyKxeqBu5O4", "width": 4032}], "place_id": "ChIJqTZ81yROqEcRF44U_95Uy_s", "plus_code": {"compound_code": "GC68+RP Berlin, Germany", "global_code": "9F4MGC68+RP"}, "price_level": 1, "rating": 4.1, "reference": "ChIJqTZ81yROqEcRF44U_95Uy_s", "scope": "GOOGLE", "types": ["bar", "restaurant", "food", "point_of_interest", "establishment"], "user_ratings_total": 361, "vicinity": "Br\u00fcckenstra\u00dfe 13, Berlin"}, {"business_status": "OPERATIONAL", "geometry": {"location": {"lat": 52.5386191, "lng": 13.4234473}, "viewport": {"northeast": {"lat": 52.53994952989272, "lng": 13.42494062989272}, "southwest": {"lat": 52.53724987010728, "lng": 13.42224097010728}}}, "icon": "https://maps.gstatic.com/mapfiles/place_api/icons/v1/png_71/bar-71.png", "icon_background_color": "#FF9E67", "icon_mask_base_uri": "https://maps.gstatic.com/mapfiles/place_api/icons/v2/bar_pinlet", "name": "Birra - Italian Craft Beer", "opening_hours": {"open_now": true}, "photos": [{"height": 3024, "html_attributions": ["<a href=\"https://maps.google.com/maps/contrib/106048252159271746773\">Philipp Kl\u00f6ckner</a>"], "photo_reference": "AUGGfZmt3G2w0VReYzMWjbtk2Z2iJqkiq6WhN8pumzih2J-lpwUCRdFU5kwtgytk1w2S-voPciLcD9JTDUpT7y2ix2R2iQYqMGzRlTdQkzrQHl8ZNghpNCf1lR0mVxGuy71O5aCeMkvCwBnD87mq2AgcOnTHsf_aDTqTtNpq_UHYq5ZbPNXg", "width": 4032}], "place_id": "ChIJPwKOLAdOqEcR9uIsTD5yV58", "plus_code": {"compound_code": "GCQF+C9 Berlin, Germany", "global_code": "9F4MGCQF+C9"}, "price_level": 2, "rating": 4.7, "reference": "ChIJPwKOLAdOqEcR9uIsTD5yV58", "scope": "GOOGLE", "types": ["bar", "restaurant", "food", "point_of_interest", "establishment"], "user_ratings_total": 1153, "vicinity": "Prenzlauer Allee 198, Berlin"}, {"business_status": "OPERATIONAL", "geometry": {"location": {"lat": 52.5269025, "lng": 13.4106901}, "viewport": {"northeast": {"lat": 52.52826232989273, "lng": 13.41211487989272}, "southwest": {"lat": 52.52556267010728, "lng": 13.40941522010728}}}, "icon": "https://maps.gstatic.com/mapfiles/place_api/icons/v1/png_71/bar-71.png", "icon_background_color": "#FF9E67", "icon_mask_base_uri": "https://maps.gstatic.com/mapfiles/place_api/icons/v2/bar_pinlet", "name": "Belushi's Berlin (Alexanderplatz)", "opening_hours": {"open_now": true}, "photos": [{"height": 2988, "html_attributions": ["<a href=\"https://maps.google.com/maps/contrib/107565222795976200832\">Udi Burg</a>"], "photo_reference": "AUGGfZloMf_LUXtKun0tWi9bKsWtVoBO7d0WEXQyJtRJ4e1mm-_kCd86BfwZ6-xUhMILXd52hERSrwvm0pfdVly_v9NsujyZuOLPkJC27bkLUPcIUr5P76McJtdUFvfU48ecs6SyF3Gxwm5RC3hGNDotfrU34OkfuQvHE1NaOSFwNSC_C7fu", "width": 5312}], "place_id": "ChIJiZMv8B1OqEcRIofsaDMsMsw", "plus_code": {"compound_code": "GCG6+Q7 Berlin, Germany", "global_code": "9F4MGCG6+Q7"}, "price_level": 2, "rating": 4.1, "reference": "ChIJiZMv8B1OqEcRIofsaDMsMsw", "scope": "GOOGLE", "types": ["bar", "restaurant", "food", "point_of_interest", "establishment"], "user_ratings_total": 2480, "vicinity": "Rosa-Luxemburg-Stra\u00dfe 41, Berlin"}, {"business_status": "OPERATIONAL", "geometry": {"location": {"lat": 52.5232756, "lng": 13.404724}, "viewport": {"northeast": {"lat": 52.52467682989272, "lng": 13.40604702989272}, "southwest": {"lat": 52.52197717010728, "lng": 13.40334737010728}}}, "icon": "https://maps.gstatic.com/mapfiles/place_api/icons/v1/png_71/restaurant-71.png", "icon_background_color": "#FF9E67", "icon_mask_base_uri": "https://maps.gstatic.com/mapfiles/place_api/icons/v2/restaurant_pinlet", "name": "Das Lemke - Biergarten, Brauerei, Deutsche K\u00fcche", "opening_hours": {"open_now": true}, "photos": [{"height": 8403, "html_attributions": ["<a href=\"https://maps.google.com/maps/contrib/106525806750464632239\">C M</a>"], "photo_reference": "AUGGfZkPnBQbGP7CFqW1lTkWGtgZpmxD5gp0_5q7-tdEyvuadEXzsEnOIlPLkcyT-Tif3z_ePlDIY34mtRmphhfULs2cfFD3oelF8h3lcR9U3qZyQPIFqcDDMrODmY-ncOIoMHVszITEZaAnxOkMiDKI7W-9EoLlLHTwX1ekNkZt1FRq1ZM0", "width": 11205}], "place_id": "ChIJUzrhW-BRqEcRNf2pK9EYCZ4", "plus_code": {"compound_code": "GCF3+8V Berlin, Germany", "global_code": "9F4MGCF3+8V"}, "price_level": 2, "rating": 4.2, "reference": "ChIJUzrhW-BRqEcRNf2pK9EYCZ4", "scope": "GOOGLE", "types": ["bar", "restaurant", "food", "point_of_interest", "establishment"], "user_ratings_total": 3968, "vicinity": "S-Bahnbogen 143, Dircksenstra\u00dfe, Berlin"}, {"business_status": "OPERATIONAL", "geometry": {"location": {"lat": 52.5109207, "lng": 13.4173295}, "viewport": {"northeast": {"lat": 52.51221687989273, "lng": 13.41868177989272}, "southwest": {"lat": 52.50951722010728, "lng": 13.41598212010728}}}, "icon": "https://maps.gstatic.com/mapfiles/place_api/icons/v1/png_71/bar-71.png", "icon_background_color": "#FF9E67", "icon_mask_base_uri": "https://maps.gstatic.com/mapfiles/place_api/icons/v2/bar_pinlet", "name": "Republic Berlin", "opening_hours": {"open_now": true}, "photos": [{"height": 3024, "html_attributions": ["<a href=\"https://maps.google.com/maps/contrib/111465021924746991194\">Joerg Diker</a>"], "photo_reference": "AUGGfZkdmekJWrfm-RcOOEMnd5rm2DKfBjdYvCiXOgkoFZMjTBKiVxSz5xp_ZGdS8D_VRlu6WMXiSRrtTHj--k50I4UaUZTgNVg2E7eJ66n4T70dBZppG4aImPZjrMy74y0abLI1KGUgCcc6iUc1b6wIea08_14D4l8yzENM5_mGWojnbt65", "width": 4032}], "place_id": "ChIJhWs_fjdOqEcR-vSlhm7PR_g", "plus_code": {"compound_code": "GC68+9W Berlin, Germany", "global_code": "9F4MGC68+9W"}, "price_level": 2, "rating": 4.4, "reference": "ChIJhWs_fjdOqEcR-vSlhm7PR_g", "scope": "GOOGLE", "types": ["meal_takeaway", "bar", "restaurant", "food", "point_of_interest", "establishment"], "user_ratings_total": 889, "vicinity": "K\u00f6penicker Str. 74, Berlin"}, {"business_status": "OPERATIONAL", "geometry": {"location": {"lat": 52.5102081, "lng": 13.3728722}, "viewport": {"northeast": {"lat": 52.51176337989272, "lng": 13.37441967989272}, "southwest": {"lat": 52.50906372010727, "lng": 13.37172002010728}}}, "icon": "https://maps.gstatic.com/mapfiles/place_api/icons/v1/png_71/restaurant-71.png", "icon_background_color": "#FF9E67", "icon_mask_base_uri": "https://maps.gstatic.com/mapfiles/place_api/icons/v2/restaurant_pinlet", "name": "Lindenbr\u00e4u am Potsdamer Platz", "opening_hours": {"open_now": true}, "photos": [{"height": 1080, "html_attributions": ["<a href=\"https://maps.google.com/maps/contrib/112776974280332131587\">Jens Moser</a>"], "photo_reference": "AUGGfZl06kWDkFsWPX4GH6-Cj-bBpHv7LCdWgBFEV8AoYGwWNbtVqun7vxJxuUX2KbXSZvqkSwwv-FXsiCsWJiD0myXH51RefNIX5IOd1gtxzRIVBWCVmc6al-pE5Gn9MTYZG-N1mKifMNOvmD0nfIi2lBpCgGliKdhoJ72dTv0AuVRRzvSH", "width": 1620}], "place_id": "ChIJZ4C9pMlRqEcRObDROnomoDg", "plus_code": {"compound_code": "G96F+34 Berlin, Germany", "global_code": "9F4MG96F+34"}, "price_level": 3, "rating": 4.1, "reference": "ChIJZ4C9pMlRqEcRObDROnomoDg", "scope": "GOOGLE", "types": ["bar", "restaurant", "food", "point_of_interest", "establishment"], "user_ratings_total": 3939, "vicinity": "Bellevuestra\u00dfe 3-5, Berlin"}, {"business_status": "OPERATIONAL", "geometry": {"location": {"lat": 52.5230114, "lng": 13.4016676}, "viewport": {"northeast": {"lat": 52.52452157989272, "lng": 13.40354472989272}, "southwest": {"lat": 52.52182192010728, "lng": 13.40084507010728}}}, "icon": "https://maps.gstatic.com/mapfiles/place_api/icons/v1/png_71/bar-71.png", "icon_background_color": "#FF9E67", "icon_mask_base_uri": "https://maps.gstatic.com/mapfiles/place_api/icons/v2/bar_pinlet", "name": "Weihenstephaner Berlin", "opening_hours": {"open_now": true}, "photos": [{"height": 3024, "html_attributions": ["<a href=\"https://maps.google.com/maps/contrib/117070361442962920588\">Fredrik Knoph</a>"], "photo_reference": "AUGGfZkbxJmcMdq6q-71i3sXPh0t-KHcQLlqnNPeItD-22tgScMq35rOSMLSPnGmW9J5BmT1360NZAhNIcArjdYhpxxNQi8vBKukXjEeiKkSxRXa-yN3HM7SPONkcQtey4UyUgPxwbme-9sH43pWz3r0-1b-8dII3JS6SSIasrLgFX3sIEc", "width": 4032}], "place_id": "ChIJ0y5rv-BRqEcR5FHe-yaniQk", "plus_code": {"compound_code": "GCF2+6M Berlin, Germany", "global_code": "9F4MGCF2+6M"}, "price_level": 2, "rating": 4, "reference": "ChIJ0y5rv-BRqEcR5FHe-yaniQk", "scope": "GOOGLE", "types": ["bar", "restaurant", "food", "point_of_interest", "establishment"], "user_ratings_total": 2591, "vicinity": "Neue Promenade 5, Berlin"}, {"business_status": "OPERATIONAL", "geometry": {"location": {"lat": 52.525911, "lng": 13.390299}, "viewport": {"northeast": {"lat": 52.52722772989272, "lng": 13.39169117989272}, "southwest": {"lat": 52.52452807010728, "lng": 13.38899152010728}}}, "icon": "https://maps.gstatic.com/mapfiles/place_api/icons/v1/png_71/bar-71.png", "icon_background_color": "#FF9E67", "icon_mask_base_uri": "https://maps.gstatic.com/mapfiles/place_api/icons/v2/bar_pinlet", "name": "Denk - Mal - Lounge Pub", "opening_hours": {"open_now": true}, "photos": [{"height": 1289, "html_attributions": ["<a href=\"https://maps.google.com/maps/contrib/112630316593954005041\">J\u00fcrgen Villwock</a>"], "photo_reference": "AUGGfZmXdccsUtfB-oDM16MNsc5V0jHvmOijQZ5CJPVUfUZl14TY89wWXU3SFwV0jnF3v5qX2eIHfLTDnVTkQJwo3TXkJY4isqAex04Du42LwIlN1CuNmvqRbz6DrCDMwo4nknITN9_K1BpmtZsKLaFpGo7FUY05yxiY8I2WhoTEm7GPoO-n", "width": 2047}], "place_id": "ChIJz1l18cVRqEcRKrfa2y2tHAo", "plus_code": {"compound_code": "G9GR+94 Berlin, Germany", "global_code": "9F4MG9GR+94"}, "price_level": 2, "rating": 4.5, "reference": "ChIJz1l18cVRqEcRKrfa2y2tHAo", "scope": "GOOGLE", "types": ["bar", "restaurant", "food", "point_of_interest", "establishment"], "user_ratings_total": 706, "vicinity": "Auguststra\u00dfe 92, Berlin"}, {"business_status": "OPERATIONAL", "geometry": {"location": {"lat": 52.518452, "lng": 13.3883197}, "viewport": {"northeast": {"lat": 52.51983807989272, "lng": 13.38979622989272}, "southwest": {"lat": 52.51713842010728, "lng": 13.38709657010728}}}, "icon": "https://maps.gstatic.com/mapfiles/place_api/icons/v1/png_71/restaurant-71.png", "icon_background_color": "#FF9E67", "icon_mask_base_uri": "https://maps.gstatic.com/mapfiles/place_api/icons/v2/restaurant_pinlet", "name": "Checkpoint Restaurant & Bar", "opening_hours": {"open_now": true}, "photos": [{"height": 1192, "html_attributions": ["<a href=\"https://maps.google.com/maps/contrib/112056134447211435271\">Checkpoint Bar</a>"], "photo_reference": "AUGGfZkLVgRNE5MaP6lQ_W69IuJBGpDZqHFAMc5RtnVM8fh2QgyR-WcZAfhL_pw2soSB3YbGHNyUPoZS7MB6Eg-5yvBzBisGXWIcow7eO5QK0TjpB1aPW07usKbiOPeXRMLSs-EskhAmcHMbPEVdKM3IduR9k3pHhdC5jfuWO9_5bJM22Sgz", "width": 2119}], "place_id": "ChIJ5VSYQsNRqEcRY1TXQ5Pa2vE", "plus_code": {"compound_code": "G99Q+98 Berlin, Germany", "global_code": "9F4MG99Q+98"}, "rating": 3.1, "reference": "ChIJ5VSYQsNRqEcRY1TXQ5Pa2vE", "scope": "GOOGLE", "types": ["restaurant", "night_club", "bar", "food", "point_of_interest", "establishment"], "user_ratings_total": 29, "vicinity": "Friedrichstra\u00dfe 151, Berlin"}, {"business_status": "OPERATIONAL", "geometry": {"location": {"lat": 52.50905479999999, "lng": 13.3739018}, "viewport": {"northeast": {"lat": 52.51046762989272, "lng": 13.37503132989272}, "southwest": {"lat": 52.50776797010728, "lng": 13.37233167010728}}}, "icon": "https://maps.gstatic.com/mapfiles/place_api/icons/v1/png_71/bar-71.png", "icon_background_color": "#FF9E67", "icon_mask_base_uri": "https://maps.gstatic.com/mapfiles/place_api/icons/v2/bar_pinlet", "name": "QIU - Bar & Restaurant", "opening_hours": {"open_now": true}, "photos": [{"height": 1365, "html_attributions": ["<a href=\"https://maps.google.com/maps/contrib/107958724964993644836\">QIU</a>"], "photo_reference": "AUGGfZmZXn9KmjDaGXn18AeSLOy8jZzeP6-u52xN2U3Zhq5oe90dk1a12hPjmqiCMF5Mh4Z_qRdY20TA5HFIJrVFxKTB_Qd8VOUz-RvSiHQIc7-sOt7G7RQwF0QB2RHG5GH0WDAfabxdNFWrovwKVdBg8a_eBS8Fo3Q9scpbgB76Ub_kc-KL", "width": 2048}], "place_id": "ChIJKSv1gslRqEcRno1jZOCFm_8", "plus_code": {"compound_code": "G95F+JH Berlin, Germany", "global_code": "9F4MG95F+JH"}, "rating": 4.5, "reference": "ChIJKSv1gslRqEcRno1jZOCFm_8", "scope": "GOOGLE", "types": ["bar", "night_club", "restaurant", "food", "point_of_interest", "establishment"], "user_ratings_total": 183, "vicinity": "Potsdamer Str. 3, Berlin"}, {"business_status": "OPERATIONAL", "geometry": {"location": {"lat": 52.5215415, "lng": 13.3860048}, "viewport": {"northeast": {"lat": 52.52285112989272, "lng": 13.38740552989272}, "southwest": {"lat": 52.52015147010727, "lng": 13.38470587010728}}}, "icon": "https://maps.gstatic.com/mapfiles/place_api/icons/v1/png_71/bar-71.png", "icon_background_color": "#FF9E67", "icon_mask_base_uri": "https://maps.gstatic.com/mapfiles/place_api/icons/v2/bar_pinlet", "name": "Vincent Piano Bar", "opening_hours": {"open_now": true}, "photos": [{"height": 1080, "html_attributions": ["<a href=\"https://maps.google.com/maps/contrib/113123933529488818352\">A Google User</a>"], "photo_reference": "AUGGfZki2nWthLCA0X05eFNUk9bvUBJl1eC3QPXpfG2A9L0aMxySOOr2AzVNocnst0dcUtqw6MojKeZWO6m6ncoOxgXSaYb2XqMy9CzJZPA30d08xyNoiZ0ibv7MF_PFv3GxMylhmobkbVMdZ85HL9iSa9wJjlvjbc1nl61d5UMY6B7hJzQt", "width": 1620}], "place_id": "ChIJyYAwRsJRqEcRcK8EDIZxgTA", "plus_code": {"compound_code": "G9CP+JC Berlin, Germany", "global_code": "9F4MG9CP+JC"}, "price_level": 2, "rating": 4.3, "reference": "ChIJyYAwRsJRqEcRcK8EDIZxgTA", "scope": "GOOGLE", "types": ["bar", "restaurant", "food", "point_of_interest", "establishment"], "user_ratings_total": 1023, "vicinity": "Schiffbauerdamm 6/7, Berlin"}, {"business_status": "OPERATIONAL", "geometry": {"location": {"lat": 52.503105, "lng": 13.4169763}, "viewport": {"northeast": {"lat": 52.50448747989272, "lng": 13.41820837989272}, "southwest": {"lat": 52.50178782010727, "lng": 13.41550872010728}}}, "icon": "https://maps.gstatic.com/mapfiles/place_api/icons/v1/png_71/bar-71.png", "icon_background_color": "#FF9E67", "icon_mask_base_uri": "https://maps.gstatic.com/mapfiles/place_api/icons/v2/bar_pinlet", "name": "Misfit Bar Berlin", "opening_hours": {"open_now": true}, "photos": [{"height": 640, "html_attributions": ["<a href=\"https://maps.google.com/maps/contrib/111949412926349832918\">Misfit Bar</a>"], "photo_reference": "AUGGfZkxTOmIz4NRENUN4inz6mNgX0WUx-MzFswkuwAmRjqBrLEGQbh2dE8eGxbODp6HvHT0hUo7GTgnl3CXLqn7BG2FevpQvz0iatGzzy2Icgigj3Mr3E0h7RX87OowDhzOaJmSAIDylHmcY5Z5-Sx6wJ7DvLa-lz_JGs_6OZTlA3bH9HmO", "width": 1352}], "place_id": "ChIJcer9LTJOqEcRdMomkDoZepA", "plus_code": {"compound_code": "GC38+6Q Berlin, Germany", "global_code": "9F4MGC38+6Q"}, "price_level": 1, "rating": 4.5, "reference": "ChIJcer9LTJOqEcRdMomkDoZepA", "scope": "GOOGLE", "types": ["bar", "restaurant", "food", "point_of_interest", "establishment"], "user_ratings_total": 447, "vicinity": "Leuschnerdamm 41, Berlin"}, {"business_status": "OPERATIONAL", "geometry": {"location": {"lat": 52.52108, "lng": 13.4085502}, "viewport": {"northeast": {"lat": 52.52252882989272, "lng": 13.41037142989272}, "southwest": {"lat": 52.51982917010728, "lng": 13.40767177010728}}}, "icon": "https://maps.gstatic.com/mapfiles/place_api/icons/v1/png_71/bar-71.png", "icon_background_color": "#FF9E67", "icon_mask_base_uri": "https://maps.gstatic.com/mapfiles/place_api/icons/v2/bar_pinlet", "name": "Knutschfleck Berlin", "opening_hours": {"open_now": true}, "photos": [{"height": 3024, "html_attributions": ["<a href=\"https://maps.google.com/maps/contrib/102087557245145926469\">Silke Jonelat</a>"], "photo_reference": "AUGGfZk8VUuyn-eGv8lF3bLs-EYYrFfEv0cKovClPmMqcrn_LUGcLh1-ZLIKSaJw4qftuly7oe49hAV1231yHgKclcsemK_1quQzgy3y0fk_sbi1bT0flb3GVG8R5S3yq4EnCjnIwOzTf_0E_cOURpD4ZeGOzWTS2yk2vinTbAt6YKwb9qBr", "width": 4032}], "place_id": "ChIJGYVr6SJOqEcRqIOmT6w6YZ8", "plus_code": {"compound_code": "GCC5+CC Berlin, Germany", "global_code": "9F4MGCC5+CC"}, "price_level": 2, "rating": 3.8, "reference": "ChIJGYVr6SJOqEcRqIOmT6w6YZ8", "scope": "GOOGLE", "types": ["bar", "restaurant", "food", "point_of_interest", "establishment"], "user_ratings_total": 2248, "vicinity": "1 Panoramastra\u00dfe 1 A, Berlin"}, {"business_status": "OPERATIONAL", "geometry": {"location": {"lat": 52.52668019999999, "lng": 13.4106126}, "viewport": {"northeast": {"lat": 52.52807997989271, "lng": 13.41210357989272}, "southwest": {"lat": 52.52538032010727, "lng": 13.40940392010728}}}, "icon": "https://maps.gstatic.com/mapfiles/place_api/icons/v1/png_71/bar-71.png", "icon_background_color": "#FF9E67", "icon_mask_base_uri": "https://maps.gstatic.com/mapfiles/place_api/icons/v2/bar_pinlet", "name": "Volksbar", "opening_hours": {"open_now": true}, "photos": [{"height": 3024, "html_attributions": ["<a href=\"https://maps.google.com/maps/contrib/113186178614321309070\">VOLKSBAR - Caf\u00e9 Bar Galerie</a>"], "photo_reference": "AUGGfZlSZQzpa5RiXC1vWwGDDgMW9wwE7MQb4tcadx-XSGAqyXH7jGvxmrIGpFuQxQ7RX-xp_BBHYjCauGDNRJP9H6eqMitQwnPsES9wYv-34J83zHDtxVwYpXqrkTLFJLlXytuU9_-9hR6NpPOcuZBx5l0YNEUdhO-NB8G0A9tGRFhhM6Q6", "width": 4032}], "place_id": "ChIJWXgK5R1OqEcRuIG5dkxHUy4", "plus_code": {"compound_code": "GCG6+M6 Berlin, Germany", "global_code": "9F4MGCG6+M6"}, "price_level": 2, "rating": 4, "reference": "ChIJWXgK5R1OqEcRuIG5dkxHUy4", "scope": "GOOGLE", "types": ["bar", "restaurant", "food", "point_of_interest", "establishment"], "user_ratings_total": 967, "vicinity": "Rosa-Luxemburg-Stra\u00dfe 39, Berlin"}, {"business_status": "OPERATIONAL", "geometry": {"location": {"lat": 52.5159711, "lng": 13.388802}, "viewport": {"northeast": {"lat": 52.51728632989272, "lng": 13.39025487989272}, "southwest": {"lat": 52.51458667010728, "lng": 13.38755522010728}}}, "icon": "https://maps.gstatic.com/mapfiles/place_api/icons/v1/png_71/bar-71.png", "icon_background_color": "#FF9E67", "icon_mask_base_uri": "https://maps.gstatic.com/mapfiles/place_api/icons/v2/bar_pinlet", "name": "Relish Restaurant & Bar", "opening_hours": {"open_now": true}, "photos": [{"height": 1357, "html_attributions": ["<a href=\"https://maps.google.com/maps/contrib/109306384174108758421\">A Google User</a>"], "photo_reference": "AUGGfZnY5skfikCamSPQcF_7vrz40N4gZ5szMn2N-67tXI3CP59dTdwTVzp6Dth4yfYvd2x0KwrRBBjO_OlKXz7Ju5fn2LBfKr_ARC9vk4W_eCHBjjVnjxOpTeUj3yqqUuS1LqHWoxJ2EvuD6XEl15JWDntXWT0fWRwEUBtOY_AyvbD1VRWd", "width": 2100}], "place_id": "ChIJ27GN0sRRqEcRhtRjLUVeb4E", "plus_code": {"compound_code": "G98Q+9G Berlin, Germany", "global_code": "9F4MG98Q+9G"}, "rating": 4.2, "reference": "ChIJ27GN0sRRqEcRhtRjLUVeb4E", "scope": "GOOGLE", "types": ["bar", "restaurant", "food", "point_of_interest", "establishment"], "user_ratings_total": 40, "vicinity": "Friedrichstra\u00dfe 158 -164, Berlin"}, {"business_status": "OPERATIONAL", "geometry": {"location": {"lat": 52.514443, "lng": 13.3813895}, "viewport": {"northeast": {"lat": 52.51579872989272, "lng": 13.38296092989272}, "southwest": {"lat": 52.51309907010727, "lng": 13.38026127010728}}}, "icon": "https://maps.gstatic.com/mapfiles/place_api/icons/v1/png_71/restaurant-71.png", "icon_background_color": "#FF9E67", "icon_mask_base_uri": "https://maps.gstatic.com/mapfiles/place_api/icons/v2/restaurant_pinlet", "name": "Alt-Berliner Wirtshaus", "opening_hours": {"open_now": true}, "photos": [{"height": 2736, "html_attributions": ["<a href=\"https://maps.google.com/maps/contrib/101698399542086385743\">Dagmar Stenzel</a>"], "photo_reference": "AUGGfZmRS3efRTXAQgybJoE3SFf6BxgEr45-Kjombwbe96Oz3bSwMGULZABYwhweICtDKJhZWHf_aO37FvZgG3vMdHaaqB58cb1Ng3G-oJNt2YUfEo7nSZeFP6WD0hzSVw5gsE-g1tuHetDjd2W_LiAz8KHg1GHy93Q_oY33yf09xIR2Edz_", "width": 3648}], "place_id": "ChIJ21LM58VRqEcR08JXG7T-b6w", "plus_code": {"compound_code": "G97J+QH Berlin, Germany", "global_code": "9F4MG97J+QH"}, "price_level": 2, "rating": 4.3, "reference": "ChIJ21LM58VRqEcR08JXG7T-b6w", "scope": "GOOGLE", "types": ["restaurant", "food", "point_of_interest", "establishment"], "user_ratings_total": 3427, "vicinity": "Wilhelmstra\u00dfe 77, Berlin"}, {"business_status": "OPERATIONAL", "geometry": {"location": {"lat": 52.5165548, "lng": 13.4055038}, "viewport": {"northeast": {"lat": 52.51818562989272, "lng": 13.40625037989272}, "southwest": {"lat": 52.51548597010727, "lng": 13.40355072010728}}}, "icon": "https://maps.gstatic.com/mapfiles/place_api/icons/v1/png_71/restaurant-71.png", "icon_background_color": "#FF9E67", "icon_mask_base_uri": "https://maps.gstatic.com/mapfiles/place_api/icons/v2/restaurant_pinlet", "name": "Brauhaus GEORGBRAEU", "opening_hours": {"open_now": true}, "photos": [{"height": 2304, "html_attributions": ["<a href=\"https://maps.google.com/maps/contrib/105570057679060577627\">Reiner vT Tottleben</a>"], "photo_reference": "AUGGfZkr5ONHs3aclUSniq4h65gQy60eU1tryJ3LUxwZb8-PNQ5jvrfasbvI--SOStSOIi4dxPapzuKKKdEEkuMUt9mWXQuL2F41APdPEoi1y-3NMY9IR1okqGafPKvbIoJnwI0TOWFC9UtNywnJNGZOQTadnR5qTZQ3FQs292GrIvz0zgdj", "width": 3456}], "place_id": "ChIJg600riBOqEcRzc4UWMI-Ikg", "plus_code": {"compound_code": "GC84+J6 Berlin, Germany", "global_code": "9F4MGC84+J6"}, "price_level": 2, "rating": 4.1, "reference": "ChIJg600riBOqEcRzc4UWMI-Ikg", "scope": "GOOGLE", "types": ["restaurant", "bar", "food", "point_of_interest", "establishment"], "user_ratings_total": 7508, "vicinity": "Spreeufer 4, Berlin"}, {"business_status": "OPERATIONAL", "geometry": {"location": {"lat": 52.5252941, "lng": 13.3982578}, "viewport": {"northeast": {"lat": 52.52668522989272, "lng": 13.39958417989272}, "southwest": {"lat": 52.52398557010728, "lng": 13.39688452010728}}}, "icon": "https://maps.gstatic.com/mapfiles/place_api/icons/v1/png_71/bar-71.png", "icon_background_color": "#FF9E67", "icon_mask_base_uri": "https://maps.gstatic.com/mapfiles/place_api/icons/v2/bar_pinlet", "name": "Anna Koschke", "opening_hours": {"open_now": true}, "photos": [{"height": 3024, "html_attributions": ["<a href=\"https://maps.google.com/maps/contrib/115906748832013677152\">A Google User</a>"], "photo_reference": "AUGGfZmWxkH5enEk_Li4hXmjgFFGHjvn6m0hJKeU6M3V4Hc8739ZH1xq-WFQsApztQfFtO7UkLOenQDyO1Feg6YyAfVK-kpxF20QSolTBsEWCrO9WHForYhsiItVwuTR3tmvVc1GRV27pRRzXLNxIwp2TuCNUSGayDU8-LRv8JlDOf2-DJ1L", "width": 4032}], "place_id": "ChIJN7Iv--ZRqEcR-WPmYoEhzKI", "plus_code": {"compound_code": "G9GX+48 Berlin, Germany", "global_code": "9F4MG9GX+48"}, "price_level": 1, "rating": 4.6, "reference": "ChIJN7Iv--ZRqEcR-WPmYoEhzKI", "scope": "GOOGLE", "types": ["bar", "meal_takeaway", "cafe", "restaurant", "food", "point_of_interest", "establishment"], "user_ratings_total": 310, "vicinity": "Krausnickstra\u00dfe 11, Berlin"}, {"business_status": "OPERATIONAL", "geometry": {"location": {"lat": 52.5222181, "lng": 13.3984601}, "viewport": {"northeast": {"lat": 52.52339992989273, "lng": 13.40173855}, "southwest": {"lat": 52.52070027010728, "lng": 13.39705955}}}, "icon": "https://maps.gstatic.com/mapfiles/place_api/icons/v1/png_71/bar-71.png", "icon_background_color": "#FF9E67", "icon_mask_base_uri": "https://maps.gstatic.com/mapfiles/place_api/icons/v2/bar_pinlet", "name": "Mokka Mitte Bar", "opening_hours": {"open_now": true}, "photos": [{"height": 2988, "html_attributions": ["<a href=\"https://maps.google.com/maps/contrib/116284756742192954040\">Andrea Sievert</a>"], "photo_reference": "AUGGfZna0K5bZJVCgybW9ffqoctziUA60KQz1JAMHORLLtfEgQpS0GU4NO9penRQXgCUe3ZuctGJHTHGaw2YrzyfphOsbzA9yPl5Tk_0gNcL_Yxr-IZWZzO7UQL_JeeFXkqwfDH6MIjXVO2UblNVq2_GwO6Mob85pvl31Sokphhhv-gnIoNd", "width": 5312}], "place_id": "ChIJUw6dWOdRqEcRelO7azxq8CM", "plus_code": {"compound_code": "G9CX+V9 Berlin, Germany", "global_code": "9F4MG9CX+V9"}, "price_level": 2, "rating": 4, "reference": "ChIJUw6dWOdRqEcRelO7azxq8CM", "scope": "GOOGLE", "types": ["bar", "restaurant", "food", "point_of_interest", "establishment"], "user_ratings_total": 1161, "vicinity": "James Simon Park, Stadtbahnbogen 159/160, Berlin"}, {"business_status": "OPERATIONAL", "geometry": {"location": {"lat": 52.540099, "lng": 13.4097855}, "viewport": {"northeast": {"lat": 52.54117947989272, "lng": 13.41161892989272}, "southwest": {"lat": 52.53847982010728, "lng": 13.40891927010728}}}, "icon": "https://maps.gstatic.com/mapfiles/place_api/icons/v1/png_71/bar-71.png", "icon_background_color": "#FF9E67", "icon_mask_base_uri": "https://maps.gstatic.com/mapfiles/place_api/icons/v2/bar_pinlet", "name": "Prater Beer Garden", "opening_hours": {"open_now": true}, "photos": [{"height": 4480, "html_attributions": ["<a href=\"https://maps.google.com/maps/contrib/106588079876422396782\">Filmset@gmx.de</a>"], "photo_reference": "AUGGfZm6a4zYzyXeVdbNVB2UQjIyQZKbsDxJ69tXUaEa1qtByQsjeW6SGz92rCRM4k22cRfXIaBdW9miGEgeBb5QfaGyQj9h7ytUgUFYJN-SgdbTJpjG_Pser94-MR5SBU9hDUY3_wlbA7tmao3na30Z4W8Mqo7UKJr_K4c4UNCHEb7Er_-s", "width": 6720}], "place_id": "ChIJD0vsHf9RqEcR66OXHP3xmXE", "plus_code": {"compound_code": "GCR5+2W Berlin, Germany", "global_code": "9F4MGCR5+2W"}, "price_level": 2, "rating": 4.3, "reference": "ChIJD0vsHf9RqEcR66OXHP3xmXE", "scope": "GOOGLE", "types": ["bar", "restaurant", "food", "point_of_interest", "establishment"], "user_ratings_total": 5469, "vicinity": "Kastanienallee 7-9, Berlin"}, {"business_status": "OPERATIONAL", "geometry": {"location": {"lat": 52.5184794, "lng": 13.3867796}, "viewport": {"northeast": {"lat": 52.51988772989273, "lng": 13.38807142989272}, "southwest": {"lat": 52.51718807010729, "lng": 13.38537177010728}}}, "icon": "https://maps.gstatic.com/mapfiles/place_api/icons/v1/png_71/restaurant-71.png", "icon_background_color": "#FF9E67", "icon_mask_base_uri": "https://maps.gstatic.com/mapfiles/place_api/icons/v2/restaurant_pinlet", "name": "Gaffel Haus Berlin - Das k\u00f6lsche Konsulat in der Hauptstadt", "opening_hours": {"open_now": true}, "photos": [{"height": 3227, "html_attributions": ["<a href=\"https://maps.google.com/maps/contrib/116792550130866841073\">Gaffel-Haus Berlin Deutsche K\u00fcche u. Restaurant</a>"], "photo_reference": "AUGGfZnpfaXNnOFIHyaflJ8_FKcq-sOvRO7BWE2rYs3YclS3_R2-A4MZlYsnGugx2GbeCJJw9eOI6oalYwdyn2HSDDs3seAKWyV8vXTiL_KAYLMDD6kAJGOS3EmZ4Cv8rGGJnBr8FULofXDp5XUHVTs4Z4sI0ZnEhOE2QoZH3fdRifJMndTW", "width": 4840}], "place_id": "ChIJoZBLJNpRqEcRxhWOcmH6RFw", "plus_code": {"compound_code": "G99P+9P Berlin, Germany", "global_code": "9F4MG99P+9P"}, "price_level": 2, "rating": 4.5, "reference": "ChIJoZBLJNpRqEcRxhWOcmH6RFw", "scope": "GOOGLE", "types": ["bar", "restaurant", "food", "point_of_interest", "establishment"], "user_ratings_total": 1788, "vicinity": "Direkt neben dem Maritim proArte Hotel, Dorotheenstra\u00dfe 65, Berlin"}, {"business_status": "OPERATIONAL", "geometry": {"location": {"lat": 52.52454299999999, "lng": 13.3953252}, "viewport": {"northeast": {"lat": 52.52583922989272, "lng": 13.39656847989272}, "southwest": {"lat": 52.52313957010728, "lng": 13.39386882010728}}}, "icon": "https://maps.gstatic.com/mapfiles/place_api/icons/v1/png_71/restaurant-71.png", "icon_background_color": "#FF9E67", "icon_mask_base_uri": "https://maps.gstatic.com/mapfiles/place_api/icons/v2/restaurant_pinlet", "name": "Supreme Burger", "opening_hours": {"open_now": true}, "photos": [{"height": 2252, "html_attributions": ["<a href=\"https://maps.google.com/maps/contrib/110597397095043778696\">Ferenc Sz\u0171cs</a>"], "photo_reference": "AUGGfZm-diMG2XWpB5aqP17e6MyVcfedaIOjRnQUFwPKazkKwxGgGVQesG8MX4dzzjXox3CFoFmotTrDqqKUmHOv6IsUbQEbPRlwI9VQY0uzy8pSsHwXAYeX7msQvLYA0Sd0k0NEDzAYmg8OfdE_JWNl2B8fZ2AKEgt87G4tnZM239atUXik", "width": 4000}], "place_id": "ChIJvYy9t-dRqEcRB8D5coC8Bco", "plus_code": {"compound_code": "G9FW+R4 Berlin, Germany", "global_code": "9F4MG9FW+R4"}, "price_level": 2, "rating": 4.3, "reference": "ChIJvYy9t-dRqEcRB8D5coC8Bco", "scope": "GOOGLE", "types": ["bar", "cafe", "restaurant", "food", "point_of_interest", "establishment"], "user_ratings_total": 4195, "vicinity": "Oranienburger Str. 26, Berlin"}, {"business_status": "OPERATIONAL", "geometry": {"location": {"lat": 52.5297324, "lng": 13.3997225}, "viewport": {"northeast": {"lat": 52.53098897989273, "lng": 13.40106087989273}, "southwest": {"lat": 52.52828932010728, "lng": 13.39836122010728}}}, "icon": "https://maps.gstatic.com/mapfiles/place_api/icons/v1/png_71/bar-71.png", "icon_background_color": "#FF9E67", "icon_mask_base_uri": "https://maps.gstatic.com/mapfiles/place_api/icons/v2/bar_pinlet", "name": "Sportsbar Tor 133", "opening_hours": {"open_now": true}, "photos": [{"height": 810, "html_attributions": ["<a href=\"https://maps.google.com/maps/contrib/103833459355469655917\">A Google User</a>"], "photo_reference": "AUGGfZlisxxA2V_c_XsVBtZIHMFmljvvNjar6_aYXxxjhn4iVW1k-lft0XJPRNMJZ00InwwLGtHMWrvd1NV9C-HcNdZt5WCXuKSSidg3Hdl3kA-N4uXwIQlsQS74vXKGQGkGI9j_mCwkmzCsFgZl44WUmKCvDIf49VaWx2ZWNStyLKCT0pND", "width": 1440}], "place_id": "ChIJsT-CVORRqEcRKLKYgXF6iC4", "plus_code": {"compound_code": "G9HX+VV Berlin, Germany", "global_code": "9F4MG9HX+VV"}, "price_level": 1, "rating": 4.1, "reference": "ChIJsT-CVORRqEcRKLKYgXF6iC4", "scope": "GOOGLE", "types": ["casino", "bar", "restaurant", "food", "point_of_interest", "establishment"], "user_ratings_total": 496, "vicinity": "Torstra\u00dfe 133, Berlin"}, {"business_status": "OPERATIONAL", "geometry": {"location": {"lat": 52.5114055, "lng": 13.3892688}, "viewport": {"northeast": {"lat": 52.51265512989272, "lng": 13.39063972989272}, "southwest": {"lat": 52.50995547010728, "lng": 13.38794007010728}}}, "icon": "https://maps.gstatic.com/mapfiles/place_api/icons/v1/png_71/restaurant-71.png", "icon_background_color": "#FF9E67", "icon_mask_base_uri": "https://maps.gstatic.com/mapfiles/place_api/icons/v2/restaurant_pinlet", "name": "Restaurant Maximilians Berlin", "opening_hours": {"open_now": true}, "photos": [{"height": 3024, "html_attributions": ["<a href=\"https://maps.google.com/maps/contrib/109721952039087475327\">\u307e\u305a\u3044\u304a\u306b\u304e\u308a</a>"], "photo_reference": "AUGGfZniAOYgxEL0XaSrapPGxvw63hV1vwuBSz1ith3RStUDZQpwXitLYleAboGCtwD3XjGgJEKsA5hKzfpedAL10LiHpqQZEgtQT4KwSnysoSpUq-BQH_X3wyrCWqwG-r6XNHK08myYtQNTZyL8_bqOUAdWl-VHVuG2Xbs-s-eAecPazAYi", "width": 4032}], "place_id": "ChIJzfw4cNBRqEcR7fwXfYYScu4", "plus_code": {"compound_code": "G96Q+HP Berlin, Germany", "global_code": "9F4MG96Q+HP"}, "price_level": 2, "rating": 4.4, "reference": "ChIJzfw4cNBRqEcR7fwXfYYScu4", "scope": "GOOGLE", "types": ["bar", "restaurant", "food", "point_of_interest", "establishment"], "user_ratings_total": 9856, "vicinity": "Friedrichstra\u00dfe 185-190, Berlin"}, {"business_status": "OPERATIONAL", "geometry": {"location": {"lat": 52.5276396, "lng": 13.3885855}, "viewport": {"northeast": {"lat": 52.52889622989272, "lng": 13.38996637989272}, "southwest": {"lat": 52.52619657010727, "lng": 13.38726672010728}}}, "icon": "https://maps.gstatic.com/mapfiles/place_api/icons/v1/png_71/bar-71.png", "icon_background_color": "#FF9E67", "icon_mask_base_uri": "https://maps.gstatic.com/mapfiles/place_api/icons/v2/bar_pinlet", "name": "Anna Hirsch Bar", "opening_hours": {"open_now": true}, "photos": [{"height": 3456, "html_attributions": ["<a href=\"https://maps.google.com/maps/contrib/110697516615999357495\">Konrad Piercey</a>"], "photo_reference": "AUGGfZmVVVVXBQYsiU-_dKBK-StrOyW-1H6zSVJzBXW2ERCgCQlrjFcqNKDJIhSHN9gjVy5Ufrkq9IlYl1qrPa2TVSidjTIoOOI-WafX0oqgmu9aX4H6zr9J-Z4P6VJTm5su72qGiIfdZoV5_M_pk9IFTdUu-o2ZYbEWwWD-yzbOdym7thvC", "width": 4608}], "place_id": "ChIJsU0lR-lRqEcRGZBvCtO51RU", "plus_code": {"compound_code": "G9HQ+3C Berlin, Germany", "global_code": "9F4MG9HQ+3C"}, "price_level": 2, "rating": 4.5, "reference": "ChIJsU0lR-lRqEcRGZBvCtO51RU", "scope": "GOOGLE", "types": ["bar", "restaurant", "food", "point_of_interest", "establishment"], "user_ratings_total": 286, "vicinity": "Torstra\u00dfe 221, Berlin"}, {"business_status": "OPERATIONAL", "geometry": {"location": {"lat": 52.5212721, "lng": 13.3855171}, "viewport": {"northeast": {"lat": 52.52253462989271, "lng": 13.38682297989272}, "southwest": {"lat": 52.51983497010727, "lng": 13.38412332010728}}}, "icon": "https://maps.gstatic.com/mapfiles/place_api/icons/v1/png_71/restaurant-71.png", "icon_background_color": "#FF9E67", "icon_mask_base_uri": "https://maps.gstatic.com/mapfiles/place_api/icons/v2/restaurant_pinlet", "name": "St\u00e4ndige Vertretung", "opening_hours": {"open_now": true}, "photos": [{"height": 3456, "html_attributions": ["<a href=\"https://maps.google.com/maps/contrib/104584714886265908968\">Manfred Amkreutz</a>"], "photo_reference": "AUGGfZnK7wL5J5ZY7FEQzOoOzPxyIe5jNj-koWu9_3aVDfYbBeeXbs8K4BZw7tsiApIQni91AS14KMQhjoKdCQ6_8CfEsjucPpMFdvT7sufY8GFarWuJqd0nO98rTOLV3UVILUVDy47IhoENQJOkAkumeHW_TjNwddz4SIc6EwL1PkS_XPXm", "width": 4608}], "place_id": "ChIJ221FNsJRqEcRfgoq7pYtPmw", "plus_code": {"compound_code": "G9CP+G6 Berlin, Germany", "global_code": "9F4MG9CP+G6"}, "price_level": 2, "rating": 4.4, "reference": "ChIJ221FNsJRqEcRfgoq7pYtPmw", "scope": "GOOGLE", "types": ["bar", "restaurant", "food", "point_of_interest", "establishment"], "user_ratings_total": 5534, "vicinity": "Schiffbauerdamm 8, Berlin"}, {"business_status": "OPERATIONAL", "geometry": {"location": {"lat": 52.5271221, "lng": 13.3856259}, "viewport": {"northeast": {"lat": 52.52843127989271, "lng": 13.38694787989272}, "southwest": {"lat": 52.52573162010727, "lng": 13.38424822010728}}}, "icon": "https://maps.gstatic.com/mapfiles/place_api/icons/v1/png_71/bar-71.png", "icon_background_color": "#FF9E67", "icon_mask_base_uri": "https://maps.gstatic.com/mapfiles/place_api/icons/v2/bar_pinlet", "name": "Melody Nelson bar", "opening_hours": {"open_now": true}, "photos": [{"height": 1066, "html_attributions": ["<a href=\"https://maps.google.com/maps/contrib/103924873461356299483\">A Google User</a>"], "photo_reference": "AUGGfZne6nudmlWfZleHy92KR3MYQIRwWUq4DeVVN0kp8kD4MDQmA87eqCkQmvwDl-rW78jywVau7evCNI_DGiVCOqSmiKKI2c2lpxYyZXEEPSBv0ErRPzfV7e0wbDpL3KJFJvMRIIqW8YeDMRUEzIE_e8-tkKl0rbdsXvFm1mNLoPH53ROT", "width": 1600}], "place_id": "ChIJwzr8R-lRqEcR5nYgqa3WYrw", "plus_code": {"compound_code": "G9GP+V6 Berlin, Germany", "global_code": "9F4MG9GP+V6"}, "price_level": 2, "rating": 4.6, "reference": "ChIJwzr8R-lRqEcR5nYgqa3WYrw", "scope": "GOOGLE", "types": ["bar", "restaurant", "food", "point_of_interest", "establishment"], "user_ratings_total": 283, "vicinity": "Hannoversche Str. 2, Berlin"}, {"business_status": "OPERATIONAL", "geometry": {"location": {"lat": 52.5207369, "lng": 13.3844524}, "viewport": {"northeast": {"lat": 52.52201702989272, "lng": 13.38578612989272}, "southwest": {"lat": 52.51931737010727, "lng": 13.38308647010728}}}, "icon": "https://maps.gstatic.com/mapfiles/place_api/icons/v1/png_71/bar-71.png", "icon_background_color": "#FF9E67", "icon_mask_base_uri": "https://maps.gstatic.com/mapfiles/place_api/icons/v2/bar_pinlet", "name": "Tausend", "opening_hours": {"open_now": false}, "photos": [{"height": 1331, "html_attributions": ["<a href=\"https://maps.google.com/maps/contrib/115247247057259594315\">A Google User</a>"], "photo_reference": "AUGGfZmxGjtm39y-cuSpZa12CwM3ej5-N7asIL6HL-adju_k4oNZTjcj12cCTZ-lhmEFr_z4thQetvbcu2wNQwkm7KZ_6zbbAVRt3NjtjPhM2cGBIBikKgf2kNFPpswdfr08ya0WeF3Cnq8ovXMoVFb2Kl0aKqcy5a7zXqqGo9MLoH_Z-LBQ", "width": 2000}], "place_id": "ChIJI8NDzcNRqEcReDAkOOA6Big", "plus_code": {"compound_code": "G9CM+7Q Berlin, Germany", "global_code": "9F4MG9CM+7Q"}, "price_level": 3, "rating": 4.2, "reference": "ChIJI8NDzcNRqEcReDAkOOA6Big", "scope": "GOOGLE", "types": ["bar", "restaurant", "point_of_interest", "food", "establishment"], "user_ratings_total": 738, "vicinity": "Schiffbauerdamm 11, Berlin"}, {"business_status": "OPERATIONAL", "geometry": {"location": {"lat": 52.53996309999999, "lng": 13.4115024}, "viewport": {"northeast": {"lat": 52.54137547989272, "lng": 13.41275642989272}, "southwest": {"lat": 52.53867582010727, "lng": 13.41005677010728}}}, "icon": "https://maps.gstatic.com/mapfiles/place_api/icons/v1/png_71/bar-71.png", "icon_background_color": "#FF9E67", "icon_mask_base_uri": "https://maps.gstatic.com/mapfiles/place_api/icons/v2/bar_pinlet", "name": "An einem Sonntag im August", "opening_hours": {"open_now": true}, "photos": [{"height": 3008, "html_attributions": ["<a href=\"https://maps.google.com/maps/contrib/102070242440868558827\">Wayne</a>"], "photo_reference": "AUGGfZnBxxJA2zGItEZ1860oSiXMFYcO9sxp23aM326c5X7TUgnntZmyXioA-bEylI_wWW1mroDLNFz_FrgdGgELM16PXOL1JAGnRiQ58htq6p4Kc9JJqo3QM8inDWnFsiGwkZmeJSAFNviP_R2Sn5DmZm4NcqSio71DAZY4vBlN8oWCjlE7", "width": 4000}], "place_id": "ChIJt5AxG_9RqEcR4P2Ricm8tv8", "plus_code": {"compound_code": "GCQ6+XJ Berlin, Germany", "global_code": "9F4MGCQ6+XJ"}, "rating": 4.1, "reference": "ChIJt5AxG_9RqEcR4P2Ricm8tv8", "scope": "GOOGLE", "types": ["bar", "cafe", "lodging", "restaurant", "point_of_interest", "food", "establishment"], "user_ratings_total": 1771, "vicinity": "Kastanienallee 103, Berlin"}, {"business_status": "OPERATIONAL", "geometry": {"location": {"lat": 52.52294759999999, "lng": 13.4033944}, "viewport": {"northeast": {"lat": 52.52440647989273, "lng": 13.40470617989272}, "southwest": {"lat": 52.52170682010728, "lng": 13.40200652010728}}}, "icon": "https://maps.gstatic.com/mapfiles/place_api/icons/v1/png_71/bar-71.png", "icon_background_color": "#FF9E67", "icon_mask_base_uri": "https://maps.gstatic.com/mapfiles/place_api/icons/v2/bar_pinlet", "name": "am to pm", "opening_hours": {"open_now": true}, "photos": [{"height": 2268, "html_attributions": ["<a href=\"https://maps.google.com/maps/contrib/113774826022980089879\">Jarle Vines</a>"], "photo_reference": "AUGGfZkJSg-ALNsL4xw2MRqQtWAebOLYprl6kjcBlEI9sOmoImAiOpHgFKxRXkRwMTszzjjqSJqXDzLyUexo8PxzaTJUEKfxYBTmGzbJlxVlLQVcivulG9RhdF-gQjrFHacScT_JXixORHHo6UnIX_xWR11A0ka6bT8pUZxdvpTSGIt5Ak3z", "width": 4032}], "place_id": "ChIJS06G78NRqEcRtM0wmCdW7tk", "plus_code": {"compound_code": "GCF3+59 Berlin, Germany", "global_code": "9F4MGCF3+59"}, "price_level": 2, "rating": 2.9, "reference": "ChIJS06G78NRqEcRtM0wmCdW7tk", "scope": "GOOGLE", "types": ["bar", "restaurant", "point_of_interest", "food", "establishment"], "user_ratings_total": 1297, "vicinity": "Am Zwirngraben 2, Berlin"}, {"business_status": "OPERATIONAL", "geometry": {"location": {"lat": 52.5079406, "lng": 13.3727301}, "viewport": {"northeast": {"lat": 52.50926562989272, "lng": 13.37438032989272}, "southwest": {"lat": 52.50656597010727, "lng": 13.37168067010728}}}, "icon": "https://maps.gstatic.com/mapfiles/place_api/icons/v1/png_71/restaurant-71.png", "icon_background_color": "#FF9E67", "icon_mask_base_uri": "https://maps.gstatic.com/mapfiles/place_api/icons/v2/restaurant_pinlet", "name": "Vox Restaurant & Bar", "opening_hours": {"open_now": true}, "photos": [{"height": 2592, "html_attributions": ["<a href=\"https://maps.google.com/maps/contrib/101579313189596880760\">Greg f</a>"], "photo_reference": "AUGGfZkkzsAxHi4ZGPuqBGKmcKr7chxoL4lNemCA6sHctqJiFfsheCHVaOnSgLggwy40auvVwzDhlWpX93lD_k42e5eqeF-0h8evdidAf6QTkAfuybeTSHtHieQuwxrNW-3jTsaeknO9jMFwKyvWuGtf-dBVCtdLmaZKBzhm7rJrC0OX9rRX", "width": 4608}], "place_id": "ChIJTYcTLspRqEcRM50HDuvMReE", "plus_code": {"compound_code": "G95F+53 Berlin, Germany", "global_code": "9F4MG95F+53"}, "price_level": 4, "rating": 4.4, "reference": "ChIJTYcTLspRqEcRM50HDuvMReE", "scope": "GOOGLE", "types": ["restaurant", "bar", "point_of_interest", "food", "establishment"], "user_ratings_total": 563, "vicinity": "Marlene-Dietrich-Platz 2, Berlin"}, {"business_status": "OPERATIONAL", "geometry": {"location": {"lat": 52.52129249999999, "lng": 13.3855646}, "viewport": {"northeast": {"lat": 52.52265862989272, "lng": 13.38705187989272}, "southwest": {"lat": 52.51995897010727, "lng": 13.38435222010727}}}, "icon": "https://maps.gstatic.com/mapfiles/place_api/icons/v1/png_71/restaurant-71.png", "icon_background_color": "#FF9E67", "icon_mask_base_uri": "https://maps.gstatic.com/mapfiles/place_api/icons/v2/restaurant_pinlet", "name": "Berliner Republik", "opening_hours": {"open_now": true}, "photos": [{"height": 1366, "html_attributions": ["<a href=\"https://maps.google.com/maps/contrib/117958727874002044326\">A Google User</a>"], "photo_reference": "AUGGfZm2E6IZqj8glQNeRDssD6iHoMIiEoh4EUmcbZ7sTfH5nTl13nDG1CUMtFEt0CJaz-F-d60X21_kYiwi7I7uOI-39h4QAPmyVV_J5JbQctyEG0WKeOt3gfOkKIvugpV9PVnJnytQ_1eyj6nPo-3SuWRhtyIpkMREcSQKQM7pn9BorRk", "width": 2048}], "place_id": "ChIJU-UjNsJRqEcRU-VkZMYOGOk", "plus_code": {"compound_code": "G9CP+G6 Berlin, Germany", "global_code": "9F4MG9CP+G6"}, "price_level": 2, "rating": 4.2, "reference": "ChIJU-UjNsJRqEcRU-VkZMYOGOk", "scope": "GOOGLE", "types": ["cafe", "bar", "restaurant", "point_of_interest", "food", "establishment"], "user_ratings_total": 5338, "vicinity": "Schiffbauerdamm 8, Berlin"}, {"business_status": "OPERATIONAL", "geometry": {"location": {"lat": 52.49980859999999, "lng": 13.437552}, "viewport": {"northeast": {"lat": 52.50112872989272, "lng": 13.43898767989272}, "southwest": {"lat": 52.49842907010728, "lng": 13.43628802010728}}}, "icon": "https://maps.gstatic.com/mapfiles/place_api/icons/v1/png_71/bar-71.png", "icon_background_color": "#FF9E67", "icon_mask_base_uri": "https://maps.gstatic.com/mapfiles/place_api/icons/v2/bar_pinlet", "name": "Kvartira 62", "opening_hours": {"open_now": true}, "photos": [{"height": 4032, "html_attributions": ["<a href=\"https://maps.google.com/maps/contrib/112315759813371002556\">Anya Besson</a>"], "photo_reference": "AUGGfZnGBowVfkyW-5219rklCQ0nXt_eCfew8z7Q8s6dg20iAo4tp_bxjpnSZQVPLsFmLicdC1p2tqIPY8jm5JjEybmf523mU9LyqiIrDWPALYJbeHx4PVhsVy6KD_f3FQJbEUJJwW5RSTcdoiFLjXJxgD3sAT4Bgvl8YR0HL5ymrnwHwKsv", "width": 3024}], "place_id": "ChIJBfcxQUxOqEcRpt1d7FzFRuA", "plus_code": {"compound_code": "FCXQ+W2 Berlin, Germany", "global_code": "9F4MFCXQ+W2"}, "price_level": 2, "rating": 4.5, "reference": "ChIJBfcxQUxOqEcRpt1d7FzFRuA", "scope": "GOOGLE", "types": ["bar", "restaurant", "point_of_interest", "food", "establishment"], "user_ratings_total": 471, "vicinity": "L\u00fcbbener Str. 18, Berlin"}, {"business_status": "OPERATIONAL", "geometry": {"location": {"lat": 52.5001966, "lng": 13.3737}, "viewport": {"northeast": {"lat": 52.50174012989272, "lng": 13.37520687989272}, "southwest": {"lat": 52.49904047010727, "lng": 13.37250722010728}}}, "icon": "https://maps.gstatic.com/mapfiles/place_api/icons/v1/png_71/bar-71.png", "icon_background_color": "#FF9E67", "icon_mask_base_uri": "https://maps.gstatic.com/mapfiles/place_api/icons/v2/bar_pinlet", "name": "BRLO Brwhouse", "opening_hours": {"open_now": true}, "photos": [{"height": 3024, "html_attributions": ["<a href=\"https://maps.google.com/maps/contrib/107084104244614494179\">Marco Volpe</a>"], "photo_reference": "AUGGfZnjpgBSWgIca8tKKPRMJRVLP0EVhE5hCD00gl98gVqdRl-Tnt0LPnh9rnTyIdg51dOf98yp0TVKKtBqvl_2ePdxiwa3O_xKxvtiILlorhtHPu_20A_A3f716W1J3nWVCxIGsxc6OdjPyYrCpf8RDKTi1bN8bRwBd206w8Nf6_b-g6ER", "width": 4032}], "place_id": "ChIJU1qJezNQqEcRC6S-QH3btN4", "plus_code": {"compound_code": "G92F+3F Berlin, Germany", "global_code": "9F4MG92F+3F"}, "price_level": 2, "rating": 4.3, "reference": "ChIJU1qJezNQqEcRC6S-QH3btN4", "scope": "GOOGLE", "types": ["bar", "restaurant", "point_of_interest", "food", "establishment"], "user_ratings_total": 3462, "vicinity": "Sch\u00f6neberger Str. 16, Berlin"}, {"business_status": "OPERATIONAL", "geometry": {"location": {"lat": 52.5246392, "lng": 13.3948958}, "viewport": {"northeast": {"lat": 52.52592722989272, "lng": 13.39620157989272}, "southwest": {"lat": 52.52322757010727, "lng": 13.39350192010728}}}, "icon": "https://maps.gstatic.com/mapfiles/place_api/icons/v1/png_71/restaurant-71.png", "icon_background_color": "#FF9E67", "icon_mask_base_uri": "https://maps.gstatic.com/mapfiles/place_api/icons/v2/restaurant_pinlet", "name": "Cantina Mexicana Que Pasa", "opening_hours": {"open_now": true}, "photos": [{"height": 1050, "html_attributions": ["<a href=\"https://maps.google.com/maps/contrib/108079119401901732878\">A Google User</a>"], "photo_reference": "AUGGfZk2SI1xGKefNKlRJy5WXnrIZ2NCJ579GKyL65Q_J4TSfcFJXpfgmRbE6Hh8Cu8Pm5OdSoPZGYkRCqLdVxl_iwab0MH3UajtzgWDxi7chD2EyeTxNsN1Cq8k93SQreYDkC8sh2-vfAv_xi--83YwDHsvY3tVFNaUgbLvkYi2aXXE7ZRv", "width": 1920}], "place_id": "ChIJ-_xMJ81RqEcRA2OXes6MO3s", "plus_code": {"compound_code": "G9FV+VX Berlin, Germany", "global_code": "9F4MG9FV+VX"}, "price_level": 2, "rating": 4.5, "reference": "ChIJ-_xMJ81RqEcRA2OXes6MO3s", "scope": "GOOGLE", "types": ["bar", "restaurant", "point_of_interest", "food", "establishment"], "user_ratings_total": 5223, "vicinity": "Oranienburger Str. 27, Berlin"}, {"business_status": "OPERATIONAL", "geometry": {"location": {"lat": 52.5172494, "lng": 13.4047563}, "viewport": {"northeast": {"lat": 52.51867277989272, "lng": 13.40615547989272}, "southwest": {"lat": 52.51597312010728, "lng": 13.40345582010728}}}, "icon": "https://maps.gstatic.com/mapfiles/place_api/icons/v1/png_71/restaurant-71.png", "icon_background_color": "#FF9E67", "icon_mask_base_uri": "https://maps.gstatic.com/mapfiles/place_api/icons/v2/restaurant_pinlet", "name": "Alt-Berliner Gasthaus Julchen Hoppe", "opening_hours": {"open_now": true}, "photos": [{"height": 3024, "html_attributions": ["<a href=\"https://maps.google.com/maps/contrib/115837776324479659915\">Lutz Reitzig</a>"], "photo_reference": "AUGGfZnFjQqG1wf0N3bj8BZ9fFGSvaf1brO41FcacNGrQsBScz_9LXUY8657mMzL7cd6X0D8rMp7Gz6wj7VYk9zqiQxWW-tOqcan4_INh2MIq8ZuRZiAm3xBY9DX-sQrtU0lfR1Xnzu_F-tm95LS5K3nD--GR5iHAn8FmK5uWXEHUiEuKzht", "width": 4032}], "place_id": "ChIJm_HLX99RqEcRiydKq4B0-a4", "plus_code": {"compound_code": "GC83+VW Berlin, Germany", "global_code": "9F4MGC83+VW"}, "price_level": 2, "rating": 4.3, "reference": "ChIJm_HLX99RqEcRiydKq4B0-a4", "scope": "GOOGLE", "types": ["bar", "restaurant", "point_of_interest", "food", "establishment"], "user_ratings_total": 2667, "vicinity": "Rathausstra\u00dfe 25, Berlin"}, {"business_status": "OPERATIONAL", "geometry": {"location": {"lat": 52.4989548, "lng": 13.4301267}, "viewport": {"northeast": {"lat": 52.50025892989272, "lng": 13.43157897989272}, "southwest": {"lat": 52.49755927010727, "lng": 13.42887932010728}}}, "icon": "https://maps.gstatic.com/mapfiles/place_api/icons/v1/png_71/bar-71.png", "icon_background_color": "#FF9E67", "icon_mask_base_uri": "https://maps.gstatic.com/mapfiles/place_api/icons/v2/bar_pinlet", "name": "repeat", "opening_hours": {"open_now": true}, "photos": [{"height": 548, "html_attributions": ["<a href=\"https://maps.google.com/maps/contrib/100189655986476153348\">repeat</a>"], "photo_reference": "AUGGfZmI7fIUrJRHHyvz99KYOdFN0CwihRuhJCEDoiAWWXPSMFV7PDXPUNQmSbylw8R998CYa9oSSEgW9xiLFFhv5x1TiCuEi59S9KtNdn5u8kjivz4Cx-xhpmCUFRga70H8u73TNLp4hu2hepYL2O8oUs89USLzLU7QD2G4mLs_4Qtj7l7F", "width": 1200}], "place_id": "ChIJSS6A-0pOqEcR3dOcU_pxaFg", "plus_code": {"compound_code": "FCXJ+H3 Berlin, Germany", "global_code": "9F4MFCXJ+H3"}, "price_level": 2, "rating": 4.4, "reference": "ChIJSS6A-0pOqEcR3dOcU_pxaFg", "scope": "GOOGLE", "types": ["bar", "point_of_interest", "establishment"], "user_ratings_total": 263, "vicinity": "Lausitzer Str. 1, Berlin"}, {"business_status": "OPERATIONAL", "geometry": {"location": {"lat": 52.5260034, "lng": 13.3936581}, "viewport": {"northeast": {"lat": 52.52739217989272, "lng": 13.39487987989272}, "southwest": {"lat": 52.52469252010728, "lng": 13.39218022010728}}}, "icon": "https://maps.gstatic.com/mapfiles/place_api/icons/v1/png_71/bar-71.png", "icon_background_color": "#FF9E67", "icon_mask_base_uri": "https://maps.gstatic.com/mapfiles/place_api/icons/v2/bar_pinlet", "name": "Zosch", "opening_hours": {"open_now": true}, "photos": [{"height": 2268, "html_attributions": ["<a href=\"https://maps.google.com/maps/contrib/102089582512159643523\">Marcoci Ion</a>"], "photo_reference": "AUGGfZlSYb89vp1UCtxLnX2-sCI3JG2IFmiEpYlwMhuIE_uE4FNOF7Vxl5uxFumaGQcw4G1XhbUmn9WsOsP-Oxq37hANlhiT3-9pCgGjEdk67LX1ZaFcfkxUu4U2hl-6c7gk4sanmtz8ge_SfUPvbVeZDLVhRdS-uJEMYhHFg5gLh67JnKxe", "width": 4032}], "place_id": "ChIJk0kkg-hRqEcRvzyb8bNYvFI", "plus_code": {"compound_code": "G9GV+CC Berlin, Germany", "global_code": "9F4MG9GV+CC"}, "price_level": 2, "rating": 4.2, "reference": "ChIJk0kkg-hRqEcRvzyb8bNYvFI", "scope": "GOOGLE", "types": ["bar", "restaurant", "point_of_interest", "food", "establishment"], "user_ratings_total": 644, "vicinity": "Tucholskystra\u00dfe 30, Berlin"}, {"business_status": "OPERATIONAL", "geometry": {"location": {"lat": 52.5273205, "lng": 13.3966553}, "viewport": {"northeast": {"lat": 52.52863332989272, "lng": 13.39795757989272}, "southwest": {"lat": 52.52593367010728, "lng": 13.39525792010728}}}, "icon": "https://maps.gstatic.com/mapfiles/place_api/icons/v1/png_71/restaurant-71.png", "icon_background_color": "#FF9E67", "icon_mask_base_uri": "https://maps.gstatic.com/mapfiles/place_api/icons/v2/restaurant_pinlet", "name": "Strandbad Mitte", "opening_hours": {"open_now": true}, "photos": [{"height": 4032, "html_attributions": ["<a href=\"https://maps.google.com/maps/contrib/101079672912110662462\">J\u00fcrg Stuker</a>"], "photo_reference": "AUGGfZkYewiBC9xwtwrHnN8D8yrtOTs_1gzWGGiNJtXQM1ALxpJrEFKXHqKM8ilvcWgl4M_AwZedATHdDAloXEqy6hn6icBzrUus_ii2ivb3PXwsKd5nOIr-p-FBcemnD-VJnRM-lewEst74yfUlOyWcMB7cQZp2148y0bt3HhrWHQGtZCG4", "width": 3024}], "place_id": "ChIJJYnGc-ZRqEcRGhpZjvS7kZs", "plus_code": {"compound_code": "G9GW+WM Berlin, Germany", "global_code": "9F4MG9GW+WM"}, "price_level": 2, "rating": 4.4, "reference": "ChIJJYnGc-ZRqEcRGhpZjvS7kZs", "scope": "GOOGLE", "types": ["restaurant", "bar", "point_of_interest", "food", "establishment"], "user_ratings_total": 837, "vicinity": "Kleine Hamburger Str. 16, Berlin"}, {"business_status": "OPERATIONAL", "geometry": {"location": {"lat": 52.5329778, "lng": 13.3999834}, "viewport": {"northeast": {"lat": 52.53427917989272, "lng": 13.40138742989272}, "southwest": {"lat": 52.53157952010728, "lng": 13.39868777010728}}}, "icon": "https://maps.gstatic.com/mapfiles/place_api/icons/v1/png_71/bar-71.png", "icon_background_color": "#FF9E67", "icon_mask_base_uri": "https://maps.gstatic.com/mapfiles/place_api/icons/v2/bar_pinlet", "name": "FC Magnet Bar", "opening_hours": {"open_now": true}, "photos": [{"height": 2992, "html_attributions": ["<a href=\"https://maps.google.com/maps/contrib/105533379857961174377\">David Legros</a>"], "photo_reference": "AUGGfZnBSYAmDdlyhCvPrWWsKNeg5jc512jBhtRvJqUiFXNoXmRR6lHKO9wxb_NIKJXkoZFCv1zIp1Td-MSoraIieAUNKrEogVfzDbcSXBvEhQ6zlA0cs0WFb2jVuRf5UQLKfku9l0i4kSQKsTmuhs19NYkD6cW0HXVPLNIuY3GY06TTqS2J", "width": 4000}], "place_id": "ChIJIdwBzfpRqEcRSghUGleJnGM", "plus_code": {"compound_code": "G9MX+5X Berlin, Germany", "global_code": "9F4MG9MX+5X"}, "price_level": 1, "rating": 4.3, "reference": "ChIJIdwBzfpRqEcRSghUGleJnGM", "scope": "GOOGLE", "types": ["bar", "restaurant", "point_of_interest", "food", "establishment"], "user_ratings_total": 559, "vicinity": "Veteranenstra\u00dfe 26, Berlin"}, {"business_status": "OPERATIONAL", "geometry": {"location": {"lat": 52.5171608, "lng": 13.4071618}, "viewport": {"northeast": {"lat": 52.51884467989272, "lng": 13.40876862989272}, "southwest": {"lat": 52.51614502010727, "lng": 13.40606897010728}}}, "icon": "https://maps.gstatic.com/mapfiles/place_api/icons/v1/png_71/restaurant-71.png", "icon_background_color": "#FF9E67", "icon_mask_base_uri": "https://maps.gstatic.com/mapfiles/place_api/icons/v2/restaurant_pinlet", "name": "Zum Nu\u00dfbaum", "opening_hours": {"open_now": true}, "photos": [{"height": 2268, "html_attributions": ["<a href=\"https://maps.google.com/maps/contrib/108209024515243442029\">Paola Hawke</a>"], "photo_reference": "AUGGfZl14CuO4ZgTYy9zqKH1m9Vdx9X83HC0ergnEv0LKVniPBhRn1C9Y-4f1Sxww6z9WYZQ-9v5MOwJAGnQL0eo2OTnZKSs6EL2bniJCAPelex9-kWCceZ3lyr2SvipyPCT8mRrOANVbf8ZTIWJ0qWr859oWxuLgRXdfZjfT6qUoJcHHKyB", "width": 4032}], "place_id": "ChIJbbG87CBOqEcR7bME-DQiD5o", "plus_code": {"compound_code": "GC84+VV Berlin, Germany", "global_code": "9F4MGC84+VV"}, "price_level": 2, "rating": 4.3, "reference": "ChIJbbG87CBOqEcR7bME-DQiD5o", "scope": "GOOGLE", "types": ["restaurant", "point_of_interest", "food", "establishment"], "user_ratings_total": 1813, "vicinity": "Am Nu\u00dfbaum 3, Berlin"}, {"business_status": "CLOSED_TEMPORARILY", "geometry": {"location": {"lat": 52.5225889, "lng": 13.4087934}, "viewport": {"northeast": {"lat": 52.52390932989271, "lng": 13.41009422989272}, "southwest": {"lat": 52.52120967010727, "lng": 13.40739457010728}}}, "icon": "https://maps.gstatic.com/mapfiles/place_api/icons/v1/png_71/bar-71.png", "icon_background_color": "#FF9E67", "icon_mask_base_uri": "https://maps.gstatic.com/mapfiles/place_api/icons/v2/bar_pinlet", "name": "Marktschenke", "permanently_closed": true, "photos": [{"height": 3120, "html_attributions": ["<a href=\"https://maps.google.com/maps/contrib/117733203566516786490\">Roberto Palumbo</a>"], "photo_reference": "AUGGfZnKj7RqpU5ZZtOYQE4blC0oPrvh83Ldfn56DLxoVsblV-r6v3X6zA_w5461dzVMxFeRYMlZJkkd1GAVh0YFoD230cDwrzheQJpVdk4vg-mz3f7wlW8TdrEkDO9hnk2KpL-wZhww7DlE1MH7JtlM4l4B0GV8fBMSRTzrI7SBl73jgCas", "width": 4160}], "place_id": "ChIJQ4qSwx9OqEcRO6bHQpHBzzM", "plus_code": {"compound_code": "GCF5+2H Berlin, Germany", "global_code": "9F4MGCF5+2H"}, "rating": 4.1, "reference": "ChIJQ4qSwx9OqEcRO6bHQpHBzzM", "scope": "GOOGLE", "types": ["bar", "restaurant", "point_of_interest", "food", "establishment"], "user_ratings_total": 237, "vicinity": "Haus Ungarn, Karl-Liebknecht-Str. 11, Berlin"}, {"business_status": "OPERATIONAL", "geometry": {"location": {"lat": 52.5422132, "lng": 13.4239177}, "viewport": {"northeast": {"lat": 52.54348532989271, "lng": 13.42521857989272}, "southwest": {"lat": 52.54078567010727, "lng": 13.42251892010728}}}, "icon": "https://maps.gstatic.com/mapfiles/place_api/icons/v1/png_71/bar-71.png", "icon_background_color": "#FF9E67", "icon_mask_base_uri": "https://maps.gstatic.com/mapfiles/place_api/icons/v2/bar_pinlet", "name": "Br\u00e4ugier BrewPub", "opening_hours": {"open_now": true}, "photos": [{"height": 4000, "html_attributions": ["<a href=\"https://maps.google.com/maps/contrib/116047057203664295528\">Tobias Hjeltman</a>"], "photo_reference": "AUGGfZnUBNg0Vfu9N7OgiCcXe8ODlwgjQMoCNj5ceIaoDsm3UOJ1ox0KpPgfZr0X8EfrqTK0YXupqotxIf4dM8wkilcsxcJ-X9DJPiZZnGxQklK4B-5UbCFFnaCdSfamqrXL0Vkvxs60QRAZrsalwzbtYRd_xZNALton7N8VuMoKdRj-WN8D", "width": 3000}], "place_id": "ChIJ-QdxNABSqEcR1dEWW3epKz0", "plus_code": {"compound_code": "GCRF+VH Berlin, Germany", "global_code": "9F4MGCRF+VH"}, "rating": 4.8, "reference": "ChIJ-QdxNABSqEcR1dEWW3epKz0", "scope": "GOOGLE", "types": ["liquor_store", "bar", "store", "restaurant", "point_of_interest", "food", "establishment"], "user_ratings_total": 317, "vicinity": "Stubbenkammerstra\u00dfe 6, Berlin"}, {"business_status": "OPERATIONAL", "geometry": {"location": {"lat": 52.5039419, "lng": 13.41887}, "viewport": {"northeast": {"lat": 52.50521257989272, "lng": 13.42015387989272}, "southwest": {"lat": 52.50251292010728, "lng": 13.41745422010728}}}, "icon": "https://maps.gstatic.com/mapfiles/place_api/icons/v1/png_71/restaurant-71.png", "icon_background_color": "#FF9E67", "icon_mask_base_uri": "https://maps.gstatic.com/mapfiles/place_api/icons/v2/restaurant_pinlet", "name": "cl\u00e1nndestino | Tapasbar & Weinhandel", "opening_hours": {"open_now": true}, "photos": [{"height": 4032, "html_attributions": ["<a href=\"https://maps.google.com/maps/contrib/105719992173493214138\">A Google User</a>"], "photo_reference": "AUGGfZktFC0ZhgPkI7TWYlTTjrKG2UmHed5ra55GqDE0kYncQDwnbpCo8mdPSMzvtcDhPbDoDUO6J7Occ6n0YrZZLBxHsmozrFOPQqUzNPnD63nZF435KX1779IO9NXC37DDGElUlEOy0-6lhovaK7nZ8Rw8sDxAaS0_5K9omuqat1FDUdVQ", "width": 3024}], "place_id": "ChIJQ_XiZDFOqEcRCI9GHmI1uCk", "plus_code": {"compound_code": "GC39+HG Berlin, Germany", "global_code": "9F4MGC39+HG"}, "price_level": 2, "rating": 4.7, "reference": "ChIJQ_XiZDFOqEcRCI9GHmI1uCk", "scope": "GOOGLE", "types": ["liquor_store", "bar", "store", "restaurant", "point_of_interest", "food", "establishment"], "user_ratings_total": 314, "vicinity": "Waldemarstra\u00dfe 29, Berlin"}, {"business_status": "OPERATIONAL", "geometry": {"location": {"lat": 52.5077861, "lng": 13.4205523}, "viewport": {"northeast": {"lat": 52.50907702989272, "lng": 13.42186102989272}, "southwest": {"lat": 52.50637737010728, "lng": 13.41916137010728}}}, "icon": "https://maps.gstatic.com/mapfiles/place_api/icons/v1/png_71/restaurant-71.png", "icon_background_color": "#FF9E67", "icon_mask_base_uri": "https://maps.gstatic.com/mapfiles/place_api/icons/v2/restaurant_pinlet", "name": "Gastst\u00e4tte Berliner Wappen", "opening_hours": {"open_now": true}, "photos": [{"height": 3024, "html_attributions": ["<a href=\"https://maps.google.com/maps/contrib/103247183493566189860\">Christopher Chance</a>"], "photo_reference": "AUGGfZlTS_bVt1Zqo3j8K__I8CF6-ZBs-kC9ft5WnCCkG0kZ5cuhLEqAJeKVwskKuKET_oaflO7TrEUikTkGliRUHKyfVOLYroVkrI964jYV2bonWwyMk0EExaa82d7t-PGrTIVCV9TCxlyLcf6RaY1LC82mCSH3NucytKq4cZfluv-73dAQ", "width": 4032}], "place_id": "ChIJqQygjjBOqEcR8CcHBbBvYpI", "plus_code": {"compound_code": "GC5C+46 Berlin, Germany", "global_code": "9F4MGC5C+46"}, "price_level": 1, "rating": 4.4, "reference": "ChIJqQygjjBOqEcR8CcHBbBvYpI", "scope": "GOOGLE", "types": ["bar", "restaurant", "point_of_interest", "food", "establishment"], "user_ratings_total": 441, "vicinity": "Michaelkirchpl. 11, Berlin"}]