[{"business_status": "OPERATIONAL", "geometry": {"location": {"lat": 38.8005065, "lng": -9.379453}, "viewport": {"northeast": {"lat": 38.80182657989272, "lng": -9.378096620107277}, "southwest": {"lat": 38.79912692010728, "lng": -9.38079627989272}}}, "icon": "https://maps.gstatic.com/mapfiles/place_api/icons/v1/png_71/bar-71.png", "icon_background_color": "#FF9E67", "icon_mask_base_uri": "https://maps.gstatic.com/mapfiles/place_api/icons/v2/bar_pinlet", "name": "Bar Saloon Cintra", "opening_hours": {"open_now": false}, "photos": [{"height": 2736, "html_attributions": ["<a href=\"https://maps.google.com/maps/contrib/102906587096004632456\">Virgilio Sesta</a>"], "photo_reference": "AUGGfZmQu9OSmv8fM3m9G_GQTRC8g0NZ2QT6mdbtXdJ0Zv19FOn3y3dz_rYH7-jO7lN94PxonuYqdT3j69VfQax8Z6_aIMVgZxmEdH3yEEpCVmExGRfELwGKnFrt1wydXqOg52GkhTVSIVXwTUipzEYu7irh1PqlTCrjDkqOj_Y0xptnty5a", "width": 3648}], "place_id": "ChIJBf1wnpfaHg0R9MvXrFr9wMs", "plus_code": {"compound_code": "RJ2C+66 Sintra, Portugal", "global_code": "8CCGRJ2C+66"}, "price_level": 2, "rating": 4.5, "reference": "ChIJBf1wnpfaHg0R9MvXrFr9wMs", "scope": "GOOGLE", "types": ["bar", "restaurant", "point_of_interest", "food", "establishment"], "user_ratings_total": 1636, "vicinity": "2710 436, Av. Movimento das For\u00e7as Armadas 5, Lisboa"}, {"business_status": "OPERATIONAL", "geometry": {"location": {"lat": 38.7962844, "lng": -9.3905443}, "viewport": {"northeast": {"lat": 38.79764442989272, "lng": -9.389252420107278}, "southwest": {"lat": 38.79494477010728, "lng": -9.391952079892722}}}, "icon": "https://maps.gstatic.com/mapfiles/place_api/icons/v1/png_71/bar-71.png", "icon_background_color": "#FF9E67", "icon_mask_base_uri": "https://maps.gstatic.com/mapfiles/place_api/icons/v2/bar_pinlet", "name": "Ferraria Taproom", "opening_hours": {"open_now": true}, "photos": [{"height": 2736, "html_attributions": ["<a href=\"https://maps.google.com/maps/contrib/117788669584793876918\">A Google User</a>"], "photo_reference": "AUGGfZlIzJtGj89zVeDpVlM5O-S6u6BHSD5SvYvUm60GWG_bO5Rti2Wuj_5KGXh1GuLywmaUw_chgudQYgQ2De0PN1JKPToOl2Ug6PChbGOaTf6OZStVVh0wkpQhNu2phPh8SDsr_YnGQywAI4Qii0EVI0M612xdLid-VRPBBKcHiVVGHLgs", "width": 3648}], "place_id": "ChIJUxMompnbHg0RU3xxbY5Pd88", "plus_code": {"compound_code": "QJW5+GQ Sintra, Portugal", "global_code": "8CCGQJW5+GQ"}, "rating": 4.4, "reference": "ChIJUxMompnbHg0RU3xxbY5Pd88", "scope": "GOOGLE", "types": ["bar", "restaurant", "point_of_interest", "food", "establishment"], "user_ratings_total": 129, "vicinity": "R. Ferraria 9, Sintra"}, {"business_status": "OPERATIONAL", "geometry": {"location": {"lat": 38.8033853, "lng": -9.380670199999999}, "viewport": {"northeast": {"lat": 38.80478257989272, "lng": -9.379310120107277}, "southwest": {"lat": 38.80208292010727, "lng": -9.382009779892721}}}, "icon": "https://maps.gstatic.com/mapfiles/place_api/icons/v1/png_71/restaurant-71.png", "icon_background_color": "#FF9E67", "icon_mask_base_uri": "https://maps.gstatic.com/mapfiles/place_api/icons/v2/restaurant_pinlet", "name": "O Caralhinho Bar & Restaurante", "opening_hours": {"open_now": true}, "photos": [{"height": 3024, "html_attributions": ["<a href=\"https://maps.google.com/maps/contrib/108005214910309413238\">A Google User</a>"], "photo_reference": "AUGGfZlEQbVpcBoeuGZ31AlMl0AMRzMIqJtiwH5TDQFEEvHLz_6P3WIdbsdU-xickGEx7YDqcAjs1RPdpLizMjOtste0ZZxoV80XM3QZ0NDvf-sNhELccEwPgGlHcXGMnXAVMBsQZE4dE8N5O1jmSPKm42sZz1AtoP26hsJIpAnYjhlKsw4x", "width": 4032}], "place_id": "ChIJ5TSxP4bbHg0RCba8vhm95bA", "plus_code": {"compound_code": "RJ39+9P Sintra, Portugal", "global_code": "8CCGRJ39+9P"}, "price_level": 2, "rating": 4.5, "reference": "ChIJ5TSxP4bbHg0RCba8vhm95bA", "scope": "GOOGLE", "types": ["restaurant", "point_of_interest", "food", "establishment"], "user_ratings_total": 248, "vicinity": "Zona De Restaura\u00e7\u00e3o. Restaurante O Caralhinho, Rua Tom\u00e9 Barros De Queir\u00f3s, Mercado Da Estefania, Loja 16, Sintra"}, {"business_status": "OPERATIONAL", "geometry": {"location": {"lat": 38.8076039, "lng": -9.3775429}, "viewport": {"northeast": {"lat": 38.80892162989272, "lng": -9.37630892010728}, "southwest": {"lat": 38.80622197010728, "lng": -9.379008579892723}}}, "icon": "https://maps.gstatic.com/mapfiles/place_api/icons/v1/png_71/restaurant-71.png", "icon_background_color": "#FF9E67", "icon_mask_base_uri": "https://maps.gstatic.com/mapfiles/place_api/icons/v2/restaurant_pinlet", "name": "Tasty Bite", "opening_hours": {"open_now": true}, "photos": [{"height": 4032, "html_attributions": ["<a href=\"https://maps.google.com/maps/contrib/117914398217153609541\">A Google User</a>"], "photo_reference": "AUGGfZm4umLo0CTxppnO98RuZC7IQmmUP_9Xe4LilVQezRGnV2Ey8_FljKBipn5quwPjvznzH6r11oxP-tbB8-BXXe1YXxaqEOk6FPb3p5lLlBvFgyFXdOM_uOvIdx6G9y8fiKkC8EWmwXTB_b-FM_whl3WCP4TsI3Bh_WCN0z1Se0_wxqs", "width": 3024}], "place_id": "ChIJ48EYy2HbHg0RzjjA7g_sM7U", "plus_code": {"compound_code": "RJ5C+2X Sintra, Portugal", "global_code": "8CCGRJ5C+2X"}, "rating": 4.6, "reference": "ChIJ48EYy2HbHg0RzjjA7g_sM7U", "scope": "GOOGLE", "types": ["restaurant", "bar", "point_of_interest", "food", "establishment"], "user_ratings_total": 11, "vicinity": "Edif\u00edcio dos Bombeiros Volunt\u00e1rios de Sintra, Av. Avia\u00e7\u00e3o Portuguesa 2\u00ba andar, Sintra"}, {"business_status": "OPERATIONAL", "geometry": {"location": {"lat": 38.7992749, "lng": -9.3880888}, "viewport": {"northeast": {"lat": 38.80061242989272, "lng": -9.386752320107279}, "southwest": {"lat": 38.79791277010727, "lng": -9.389451979892723}}}, "icon": "https://maps.gstatic.com/mapfiles/place_api/icons/v1/png_71/restaurant-71.png", "icon_background_color": "#FF9E67", "icon_mask_base_uri": "https://maps.gstatic.com/mapfiles/place_api/icons/v2/restaurant_pinlet", "name": "Taverna do Munic\u00edpio", "opening_hours": {"open_now": true}, "photos": [{"height": 768, "html_attributions": ["<a href=\"https://maps.google.com/maps/contrib/103572003000723412038\">A Google User</a>"], "photo_reference": "AUGGfZm8KWEjS0VvrFtULLa7dgfAxJEop8CQpsJf42s1rAa5lIQsk9tRbydgnRs6PHaeLeHptC8f6gVdjpuybo8q5Sq5OIt2e0QjiUbBk7a86r4ECahvjU2cr2ccCHzmYQCZoIaoBzY1QXZnOH2SmkVdcbFi0zIq0VM2C_ok782BElUAOSJF", "width": 1368}], "place_id": "ChIJDRVM3iDbHg0RSNSNNPrWB4o", "plus_code": {"compound_code": "QJX6+PQ Sintra, Portugal", "global_code": "8CCGQJX6+PQ"}, "price_level": 2, "rating": 4.5, "reference": "ChIJDRVM3iDbHg0RSNSNNPrWB4o", "scope": "GOOGLE", "types": ["restaurant", "bar", "point_of_interest", "food", "establishment"], "user_ratings_total": 196, "vicinity": "Tv. do Munic\u00edpio 8, Sintra"}, {"business_status": "OPERATIONAL", "geometry": {"location": {"lat": 38.7997198, "lng": -9.385551999999999}, "viewport": {"northeast": {"lat": 38.80108742989272, "lng": -9.384221970107278}, "southwest": {"lat": 38.79838777010728, "lng": -9.386921629892722}}}, "icon": "https://maps.gstatic.com/mapfiles/place_api/icons/v1/png_71/restaurant-71.png", "icon_background_color": "#FF9E67", "icon_mask_base_uri": "https://maps.gstatic.com/mapfiles/place_api/icons/v2/restaurant_pinlet", "name": "Sabot Lucky Burgers", "opening_hours": {"open_now": true}, "photos": [{"height": 720, "html_attributions": ["<a href=\"https://maps.google.com/maps/contrib/110846293619916422775\">Sabot Bar</a>"], "photo_reference": "AUGGfZlIUpO4QexLXVZIBi-MKiR6yjDy-BTpZSmz-FAkvOdNxIln6JN3Z81_mvMvEStEs0RmpsSRHMtNzmO9EHWPXgveYvhefiLzsTx4k5CU_yIQxvxRt_pexF-BLIohK0MSKUJ_2atPQ6mx_FKJ6t9vI-zxT6oi4JkAfQMDU1KTfP_n46lb", "width": 960}], "place_id": "ChIJ2eLwtpXaHg0RREWVfRtvDh0", "plus_code": {"compound_code": "QJX7+VQ Sintra, Portugal", "global_code": "8CCGQJX7+VQ"}, "price_level": 2, "rating": 4.6, "reference": "ChIJ2eLwtpXaHg0RREWVfRtvDh0", "scope": "GOOGLE", "types": ["cafe", "bar", "restaurant", "point_of_interest", "food", "establishment"], "user_ratings_total": 576, "vicinity": "R. Dr. Alfredo da Costa 74, Sintra"}, {"business_status": "OPERATIONAL", "geometry": {"location": {"lat": 38.7980125, "lng": -9.389915799999999}, "viewport": {"northeast": {"lat": 38.79934602989273, "lng": -9.388593870107279}, "southwest": {"lat": 38.79664637010728, "lng": -9.391293529892723}}}, "icon": "https://maps.gstatic.com/mapfiles/place_api/icons/v1/png_71/restaurant-71.png", "icon_background_color": "#FF9E67", "icon_mask_base_uri": "https://maps.gstatic.com/mapfiles/place_api/icons/v2/restaurant_pinlet", "name": "Botica Saloia", "opening_hours": {"open_now": true}, "photos": [{"height": 3712, "html_attributions": ["<a href=\"https://maps.google.com/maps/contrib/116517602129620114784\">A Google User</a>"], "photo_reference": "AUGGfZk0OnJ1oI6Wsz0DxIRBghY4dt7JY6tmSIkp7ndelXpWQDSwt6WT7VgEi6LihaqSr1Nz6ppDLwq0OFUnN9o8A98AZx6FEb-gs_vlg5gPtDNm0Xps1J7xJsFcU-BsUAfHqfyXgguEuoraQdac90yG5DHW8_4T1JFcLqjE65cE3q5qXfEl", "width": 3024}], "place_id": "ChIJ9aJSrKrbHg0RWG52HpFeoGc", "plus_code": {"compound_code": "QJX6+62 Sintra, Portugal", "global_code": "8CCGQJX6+62"}, "rating": 4.6, "reference": "ChIJ9aJSrKrbHg0RWG52HpFeoGc", "scope": "GOOGLE", "types": ["restaurant", "bar", "point_of_interest", "food", "establishment"], "user_ratings_total": 151, "vicinity": "R. Pa\u00e7o 16, Sintra"}, {"business_status": "OPERATIONAL", "geometry": {"location": {"lat": 38.7962821, "lng": -9.3899317}, "viewport": {"northeast": {"lat": 38.79759012989273, "lng": -9.388614970107277}, "southwest": {"lat": 38.79489047010728, "lng": -9.39131462989272}}}, "icon": "https://maps.gstatic.com/mapfiles/place_api/icons/v1/png_71/restaurant-71.png", "icon_background_color": "#FF9E67", "icon_mask_base_uri": "https://maps.gstatic.com/mapfiles/place_api/icons/v2/restaurant_pinlet", "name": "Sintra Terrace", "opening_hours": {"open_now": true}, "photos": [{"height": 2448, "html_attributions": ["<a href=\"https://maps.google.com/maps/contrib/113831032496717170686\">varinia de esparta</a>"], "photo_reference": "AUGGfZlZRv2XzvRlwNl__cEJKUPUJBN-2rXvoqp8p00zqAWdc1b_ufjFuvNt7sA0isH25sdIV08MwlRT2y7N-7B_OQtEABl---wDu3Q2RxUnQyVvP9tfwt1i35q5Ndpbj9rlndLkEjd9jvTaUyTQZlzs2VCRn2HWT0c7-wsu0QTPbrGisqUt", "width": 3264}], "place_id": "ChIJpzyRDsDaHg0RpDZTru735Zk", "plus_code": {"compound_code": "QJW6+G2 Sintra, Portugal", "global_code": "8CCGQJW6+G2"}, "price_level": 2, "rating": 4.3, "reference": "ChIJpzyRDsDaHg0RpDZTru735Zk", "scope": "GOOGLE", "types": ["restaurant", "point_of_interest", "food", "establishment"], "user_ratings_total": 1288, "vicinity": "Miradouro da Ferraria 3, Sintra"}, {"business_status": "OPERATIONAL", "geometry": {"location": {"lat": 38.786477, "lng": -9.355934}, "viewport": {"northeast": {"lat": 38.78778802989272, "lng": -9.354527570107278}, "southwest": {"lat": 38.78508837010727, "lng": -9.357227229892722}}}, "icon": "https://maps.gstatic.com/mapfiles/place_api/icons/v1/png_71/restaurant-71.png", "icon_background_color": "#FF9E67", "icon_mask_base_uri": "https://maps.gstatic.com/mapfiles/place_api/icons/v2/restaurant_pinlet", "name": "O Bitasco", "opening_hours": {"open_now": true}, "photos": [{"height": 3840, "html_attributions": ["<a href=\"https://maps.google.com/maps/contrib/112712488207933583200\">Pedro Costa</a>"], "photo_reference": "AUGGfZlNjHYzbZtrzFmljsIh-F9gWIlEM2aqjfLocdLMg_tWerJVEFqUcERpLMQnDdphK4BOMkmiwXBQPQvVqrQOVF7wk_gFespaS2fmKY4z5_xl9dTU-5VANExU-I5fR3WZEaRX4o5FLbW9JNeYU3Fpk9fKpdYfZiB_Eq78BV7j9tlaSOVp", "width": 5120}], "place_id": "ChIJORc2pVzQHg0RAoSxbmpCVbE", "plus_code": {"compound_code": "QJPV+HJ Sintra, Portugal", "global_code": "8CCGQJPV+HJ"}, "price_level": 1, "rating": 4.2, "reference": "ChIJORc2pVzQHg0RAoSxbmpCVbE", "scope": "GOOGLE", "types": ["restaurant", "cafe", "store", "point_of_interest", "food", "establishment"], "user_ratings_total": 742, "vicinity": "Av. Fran\u00e7ois Mitterrand 36 Lj.Esq, Sintra"}, {"business_status": "OPERATIONAL", "geometry": {"location": {"lat": 38.8039672, "lng": -9.3811889}, "viewport": {"northeast": {"lat": 38.80529277989272, "lng": -9.379835870107279}, "southwest": {"lat": 38.80259312010728, "lng": -9.382535529892722}}}, "icon": "https://maps.gstatic.com/mapfiles/place_api/icons/v1/png_71/restaurant-71.png", "icon_background_color": "#FF9E67", "icon_mask_base_uri": "https://maps.gstatic.com/mapfiles/place_api/icons/v2/restaurant_pinlet", "name": "Culto da Tasca", "opening_hours": {"open_now": true}, "photos": [{"height": 3024, "html_attributions": ["<a href=\"https://maps.google.com/maps/contrib/111600744142268994513\">malavallon</a>"], "photo_reference": "AUGGfZnprq_3U192d0ecVxO7IR0CHPxo736GJ5b0ls3AFk0AAIYmqEZo9q7MB7C6f9vLGklpnDsmdrqSOf0XEkW1jpdheTaSLY44Ybc_40ZkUyJ5utUboWLZgnYXZrJY_rQJ8lLK2UESAJCVFQIMAbG86nzeHSiUkhU3smisrAC6_fB-lXII", "width": 4032}], "place_id": "ChIJhSF6jnsfd0ARZAzTzh9Jb_8", "plus_code": {"compound_code": "RJ39+HG Sintra, Portugal", "global_code": "8CCGRJ39+HG"}, "price_level": 2, "rating": 4.4, "reference": "ChIJhSF6jnsfd0ARZAzTzh9Jb_8", "scope": "GOOGLE", "types": ["restaurant", "point_of_interest", "food", "establishment"], "user_ratings_total": 1780, "vicinity": "R. Veiga da Cunha, Sintra"}, {"business_status": "OPERATIONAL", "geometry": {"location": {"lat": 38.7959411, "lng": -9.3904654}, "viewport": {"northeast": {"lat": 38.79731152989272, "lng": -9.38909812010728}, "southwest": {"lat": 38.79461187010727, "lng": -9.391797779892723}}}, "icon": "https://maps.gstatic.com/mapfiles/place_api/icons/v1/png_71/restaurant-71.png", "icon_background_color": "#FF9E67", "icon_mask_base_uri": "https://maps.gstatic.com/mapfiles/place_api/icons/v2/restaurant_pinlet", "name": "Dona Maria", "opening_hours": {"open_now": true}, "photos": [{"height": 3472, "html_attributions": ["<a href=\"https://maps.google.com/maps/contrib/115976442104805206527\">Mariola Rychlicka</a>"], "photo_reference": "AUGGfZn56hlF9ifkO0mMzZWgL62dkX7oqzqkxFtWlXbmUiJdLRvmsaTZihEqRfhVwhUV1z32uo--Klqhj2bovRdupHyGI9kxQcueKkZbD0tM1ZVnQwM_SvsH6cGi8E1H_hFYt9xP_1XghsGGb6L-v0_urHHLkvkuVqk1Cfjh8bf51J_7YgnG", "width": 4640}], "place_id": "ChIJVw9bE8DaHg0RxAS_C6zz7cA", "plus_code": {"compound_code": "QJW5+CR Sintra, Portugal", "global_code": "8CCGQJW5+CR"}, "price_level": 2, "rating": 4, "reference": "ChIJVw9bE8DaHg0RxAS_C6zz7cA", "scope": "GOOGLE", "types": ["restaurant", "point_of_interest", "food", "establishment"], "user_ratings_total": 892, "vicinity": "Largo Ferreira de Castro 3, Sintra"}, {"business_status": "OPERATIONAL", "geometry": {"location": {"lat": 38.798907, "lng": -9.38716}, "viewport": {"northeast": {"lat": 38.80028937989272, "lng": -9.385796570107278}, "southwest": {"lat": 38.79758972010728, "lng": -9.388496229892722}}}, "icon": "https://maps.gstatic.com/mapfiles/place_api/icons/v1/png_71/restaurant-71.png", "icon_background_color": "#FF9E67", "icon_mask_base_uri": "https://maps.gstatic.com/mapfiles/place_api/icons/v2/restaurant_pinlet", "name": "Incomum", "opening_hours": {"open_now": true}, "photos": [{"height": 4032, "html_attributions": ["<a href=\"https://maps.google.com/maps/contrib/117832408789555351833\">BradJill HK</a>"], "photo_reference": "AUGGfZkGSJosh9Zmaz5C1w02yqT7W3JMHyEjmhKS692A079mqfW_uByfv4Z87mqW8LK2Mc8PqT1s_HzXd8l6mXAYcQjrI04MJ3yw-K3sTGk52J-TnvfGKl4FeZ69tFY3e3qUlR1-Hq58nOqSHeM47E6AQWHeoTg4sAqyf92ZAEPrfchYlBHo", "width": 3024}], "place_id": "ChIJ-wdoDJXaHg0R75cXMip6ubA", "plus_code": {"compound_code": "QJX7+H4 Sintra, Portugal", "global_code": "8CCGQJX7+H4"}, "price_level": 2, "rating": 4.6, "reference": "ChIJ-wdoDJXaHg0R75cXMip6ubA", "scope": "GOOGLE", "types": ["restaurant", "point_of_interest", "food", "establishment"], "user_ratings_total": 3782, "vicinity": "R. Dr. Alfredo da Costa 22, Sintra"}, {"business_status": "OPERATIONAL", "geometry": {"location": {"lat": 38.7967844, "lng": -9.3903765}, "viewport": {"northeast": {"lat": 38.79812957989272, "lng": -9.389122270107277}, "southwest": {"lat": 38.79542992010727, "lng": -9.391821929892721}}}, "icon": "https://maps.gstatic.com/mapfiles/place_api/icons/v1/png_71/restaurant-71.png", "icon_background_color": "#FF9E67", "icon_mask_base_uri": "https://maps.gstatic.com/mapfiles/place_api/icons/v2/restaurant_pinlet", "name": "Cantinho da Vila", "opening_hours": {"open_now": true}, "photos": [{"height": 2160, "html_attributions": ["<a href=\"https://maps.google.com/maps/contrib/106915924910110544137\">Luiz</a>"], "photo_reference": "AUGGfZnCOs1BXQHP68W9ivTzjMCJPvMiSW5-xwvcekjob-S9S_FkcCuAz_3fzDcXFMttHO1mTFTXpSYQcOOmFiG9blBF0Q46jRRT7wn3RL9Qp8s1246RegWMdj-Kn7Ho94eDdcrl3u2wtMOSlKRMbJnvvCk5HeABGa2Muu5K5AMd8HsDkjf-", "width": 3840}], "place_id": "ChIJ3TDCIZXbHg0Rxs-oln97Ks8", "plus_code": {"compound_code": "QJW5+PR Sintra, Portugal", "global_code": "8CCGQJW5+PR"}, "rating": 4.4, "reference": "ChIJ3TDCIZXbHg0Rxs-oln97Ks8", "scope": "GOOGLE", "types": ["restaurant", "point_of_interest", "food", "establishment"], "user_ratings_total": 945, "vicinity": "R. Arco do Teixeira 15, Sintra"}, {"business_status": "OPERATIONAL", "geometry": {"location": {"lat": 38.799706, "lng": -9.377969499999999}, "viewport": {"northeast": {"lat": 38.80105802989272, "lng": -9.376738470107279}, "southwest": {"lat": 38.79835837010727, "lng": -9.379438129892723}}}, "icon": "https://maps.gstatic.com/mapfiles/place_api/icons/v1/png_71/restaurant-71.png", "icon_background_color": "#FF9E67", "icon_mask_base_uri": "https://maps.gstatic.com/mapfiles/place_api/icons/v2/restaurant_pinlet", "name": "Restaurante Mira Serra", "opening_hours": {"open_now": true}, "photos": [{"height": 1080, "html_attributions": ["<a href=\"https://maps.google.com/maps/contrib/105997559776598351056\">UseYourEars.com</a>"], "photo_reference": "AUGGfZmUbh54S0PbilwZz1GQON_DMGnmlbpl-Prau7LTMSfClkcSUC9ohjuNQXTNA-qnwX-9ERXwXtPpMnicVBAbPgfZmaJ9c3b2HiQs5H6gNt0Pgm80racP3E89fBvnItopAYOw76qI0pyOlO0nWulPbNlH2gNS6iQSHbTZhNiwFDMO-k1S", "width": 1920}], "place_id": "ChIJp8H7I5jaHg0RE3tsSVOwf54", "plus_code": {"compound_code": "QJXC+VR Sintra, Portugal", "global_code": "8CCGQJXC+VR"}, "price_level": 1, "rating": 4.4, "reference": "ChIJp8H7I5jaHg0RE3tsSVOwf54", "scope": "GOOGLE", "types": ["restaurant", "point_of_interest", "food", "establishment"], "user_ratings_total": 794, "vicinity": "R. Pedro de Cintra 21, Sintra"}, {"business_status": "OPERATIONAL", "geometry": {"location": {"lat": 38.8029996, "lng": -9.3807301}, "viewport": {"northeast": {"lat": 38.80425987989272, "lng": -9.379404570107278}, "southwest": {"lat": 38.80156022010728, "lng": -9.382104229892722}}}, "icon": "https://maps.gstatic.com/mapfiles/place_api/icons/v1/png_71/restaurant-71.png", "icon_background_color": "#FF9E67", "icon_mask_base_uri": "https://maps.gstatic.com/mapfiles/place_api/icons/v2/restaurant_pinlet", "name": "Monkys Hamburguers, Petiscos & Gin", "opening_hours": {"open_now": true}, "photos": [{"height": 3840, "html_attributions": ["<a href=\"https://maps.google.com/maps/contrib/106688715623122208230\">Dinarte Brito</a>"], "photo_reference": "AUGGfZmF5tdbP1LboaXY4aEcMVes847k7pSgCOaurRwt14ovK3mWe8dY19Tsx7nB5CUB_OKgGDXa8brWmfBPAYGyAxm5alLmdIisNn-ssbHABxGipoTN7-dI5OCSRr1YNL_mAuL6Q3bQhn2BhODjDiwOOjNMRBtYoDyPl2Z4XKprgM1LObY2", "width": 5120}], "place_id": "ChIJq-BWNGDbHg0RLgJh4xQaypQ", "plus_code": {"compound_code": "RJ39+5P Sintra, Portugal", "global_code": "8CCGRJ39+5P"}, "rating": 4.6, "reference": "ChIJq-BWNGDbHg0RLgJh4xQaypQ", "scope": "GOOGLE", "types": ["restaurant", "point_of_interest", "food", "establishment"], "user_ratings_total": 37, "vicinity": "Mercado da Estef\u00e2nia, R. Cap. M\u00e1rio Alberto Soares Pimentel, Sintra"}, {"business_status": "CLOSED_TEMPORARILY", "geometry": {"location": {"lat": 38.7922142, "lng": -9.3803919}, "viewport": {"northeast": {"lat": 38.79356592989273, "lng": -9.379018270107277}, "southwest": {"lat": 38.79086627010728, "lng": -9.381717929892721}}}, "icon": "https://maps.gstatic.com/mapfiles/place_api/icons/v1/png_71/restaurant-71.png", "icon_background_color": "#FF9E67", "icon_mask_base_uri": "https://maps.gstatic.com/mapfiles/place_api/icons/v2/restaurant_pinlet", "name": "O Santo - Gastro Pub", "permanently_closed": true, "photos": [{"height": 3472, "html_attributions": ["<a href=\"https://maps.google.com/maps/contrib/103416964486502951426\">\u0394\u0397\u039c\u0397\u03a4\u03a1\u0397\u03a3 \u03a1\u039f\u03a5\u039c\u0395\u039b\u0397\u03a3</a>"], "photo_reference": "AUGGfZlAZY5FCJYmcqKXwElhGeh_WAWbauiRSk5NeY2Nv18Tj55QuOe0Tj2tIoFgAKeePjtvILMthANp2dvPmFyCgFBHiRsHbmW57kaTLCt6W7kSYGxH_pOW-4M9CV4Bi6ihrOIT7unLFUeZEMoOM9bGvNvmpG3CTzULzpfByPIZKROHJIdI", "width": 4640}], "place_id": "ChIJBadrZbvaHg0RbhU1-6eOPJE", "plus_code": {"compound_code": "QJR9+VR Sintra, Portugal", "global_code": "8CCGQJR9+VR"}, "rating": 4.5, "reference": "ChIJBadrZbvaHg0RbhU1-6eOPJE", "scope": "GOOGLE", "types": ["restaurant", "point_of_interest", "food", "establishment"], "user_ratings_total": 4, "vicinity": "Cal\u00e7ada de S\u00e3o Pedro, Sintra"}, {"business_status": "OPERATIONAL", "geometry": {"location": {"lat": 38.798636, "lng": -9.3870968}, "viewport": {"northeast": {"lat": 38.79999567989272, "lng": -9.385717020107279}, "southwest": {"lat": 38.79729602010728, "lng": -9.388416679892723}}}, "icon": "https://maps.gstatic.com/mapfiles/place_api/icons/v1/png_71/restaurant-71.png", "icon_background_color": "#FF9E67", "icon_mask_base_uri": "https://maps.gstatic.com/mapfiles/place_api/icons/v2/restaurant_pinlet", "name": "Caf\u00e9 Saudade", "opening_hours": {"open_now": true}, "photos": [{"height": 1900, "html_attributions": ["<a href=\"https://maps.google.com/maps/contrib/109598073969903274565\">Caf\u00e9 Saudade</a>"], "photo_reference": "AUGGfZkPjHhN6K_NeNKWi6vfsVo_GVs_EMPuU7nTzCed0RnxUXvZiaCp4-MQz5Oi_z6mrVUgu4xbHfefCWTA3uGRE-L_DskGd68AyWhkJ5VlUuotJ6i4Wv5D2FkxzBDIBqlpJj8gAncTkgaKSr3UWV4uVGpnZBMVDPvueh-4jSRtK9CIX_8x", "width": 1267}], "place_id": "ChIJQYaSc5XaHg0RMO25geJBkBU", "plus_code": {"compound_code": "QJX7+F5 Sintra, Portugal", "global_code": "8CCGQJX7+F5"}, "price_level": 2, "rating": 4.6, "reference": "ChIJQYaSc5XaHg0RMO25geJBkBU", "scope": "GOOGLE", "types": ["restaurant", "cafe", "point_of_interest", "food", "establishment"], "user_ratings_total": 3345, "vicinity": "Av. Dr. Miguel Bombarda 6, Sintra"}, {"business_status": "OPERATIONAL", "geometry": {"location": {"lat": 38.7919778, "lng": -9.380406299999999}, "viewport": {"northeast": {"lat": 38.79332392989272, "lng": -9.379012820107278}, "southwest": {"lat": 38.79062427010728, "lng": -9.381712479892721}}}, "icon": "https://maps.gstatic.com/mapfiles/place_api/icons/v1/png_71/restaurant-71.png", "icon_background_color": "#FF9E67", "icon_mask_base_uri": "https://maps.gstatic.com/mapfiles/place_api/icons/v2/restaurant_pinlet", "name": "A Mourisca", "opening_hours": {"open_now": true}, "photos": [{"height": 640, "html_attributions": ["<a href=\"https://maps.google.com/maps/contrib/104564353801485612265\">Mourisca Bar</a>"], "photo_reference": "AUGGfZmnJIpbNgeA0VbkrAs5pb8zBpvI-t4vySlB0RKi9F3xmCSJXyujjNIMeyUhXZmd-t2Aua_PAyKjdNHnM4jPWZM9Bwjo_o7_gl9JobE8ye5VspKfXIyySuYcItNcGlie0DZroEZopZx9kgqj1xWXUTeFw1KdTVp7bE7RkPDdjis1jHFY", "width": 1139}], "place_id": "ChIJlRIqcLvaHg0RzIPIFDjVqIE", "plus_code": {"compound_code": "QJR9+QR Sintra, Portugal", "global_code": "8CCGQJR9+QR"}, "price_level": 2, "rating": 4.3, "reference": "ChIJlRIqcLvaHg0RzIPIFDjVqIE", "scope": "GOOGLE", "types": ["bakery", "store", "restaurant", "point_of_interest", "food", "establishment"], "user_ratings_total": 1294, "vicinity": "Cal\u00e7ada de S\u00e3o Pedro 54, Sintra"}, {"business_status": "OPERATIONAL", "geometry": {"location": {"lat": 38.7960411, "lng": -9.3898583}, "viewport": {"northeast": {"lat": 38.79742182989272, "lng": -9.38857642010728}, "southwest": {"lat": 38.79472217010728, "lng": -9.391276079892723}}}, "icon": "https://maps.gstatic.com/mapfiles/place_api/icons/v1/png_71/restaurant-71.png", "icon_background_color": "#FF9E67", "icon_mask_base_uri": "https://maps.gstatic.com/mapfiles/place_api/icons/v2/restaurant_pinlet", "name": "Villa 6", "opening_hours": {"open_now": true}, "photos": [{"height": 3024, "html_attributions": ["<a href=\"https://maps.google.com/maps/contrib/102241747252010857625\">mlorenzo1810</a>"], "photo_reference": "AUGGfZlaMwS4v79egtkeySCjeaaHI0IdOjxcvxxKmxVE50567GeXJiPH0dAXThnOxu5OCnJMnCFpgZfOfj3nTiptW0rlB-Ypm41N7fa-lUH2EGSMI4yd1R18IEjdVN5FlKTfFwroIjReNV-BZ7DbHKRAeaD_Abv2MU1mz3bHVdWyKHFxNonr", "width": 4032}], "place_id": "ChIJYzyqo6vbHg0RUy6z6qSB6h8", "plus_code": {"compound_code": "QJW6+C3 Sintra, Portugal", "global_code": "8CCGQJW6+C3"}, "rating": 4.3, "reference": "ChIJYzyqo6vbHg0RUy6z6qSB6h8", "scope": "GOOGLE", "types": ["restaurant", "point_of_interest", "food", "establishment"], "user_ratings_total": 822, "vicinity": "R. Ferraria n6, Sintra"}, {"business_status": "OPERATIONAL", "geometry": {"location": {"lat": 38.8113081, "lng": -9.3710445}, "viewport": {"northeast": {"lat": 38.81270842989272, "lng": -9.36974782010728}, "southwest": {"lat": 38.81000877010727, "lng": -9.372447479892724}}}, "icon": "https://maps.gstatic.com/mapfiles/place_api/icons/v1/png_71/restaurant-71.png", "icon_background_color": "#FF9E67", "icon_mask_base_uri": "https://maps.gstatic.com/mapfiles/place_api/icons/v2/restaurant_pinlet", "name": "O Petisco", "opening_hours": {"open_now": true}, "photos": [{"height": 3024, "html_attributions": ["<a href=\"https://maps.google.com/maps/contrib/107803783565554370639\">Vasco Pegado</a>"], "photo_reference": "AUGGfZlhAECCoojG5RtyBUOxrbyNv-t1wYq_AoClKaJctjLjfKqIoFl-dUkde8PXJcApcis7U296Vn8iXGqF8c0s5aLxvHKkjB-g_NnGkh3uO-wMrsgxCRNW_zTNPdyhbJU7VNOX5Muk9_5RzpnB4dcTbQDyTkFY1AXODsDU3ONMxiKW-PTM", "width": 4032}], "place_id": "ChIJbTq_DoPaHg0R0WketKad82I", "plus_code": {"compound_code": "RJ6H+GH Sintra, Portugal", "global_code": "8CCGRJ6H+GH"}, "price_level": 1, "rating": 4.1, "reference": "ChIJbTq_DoPaHg0R0WketKad82I", "scope": "GOOGLE", "types": ["restaurant", "point_of_interest", "food", "establishment"], "user_ratings_total": 122, "vicinity": "Av: da, Av. Avia\u00e7\u00e3o Portuguesa 88-90, Lourel"}]