[{"business_status": "OPERATIONAL", "geometry": {"location": {"lat": 52.35363, "lng": -7.701360199999999}, "viewport": {"northeast": {"lat": 52.35494367989272, "lng": -7.700235820107276}, "southwest": {"lat": 52.35224402010728, "lng": -7.70293547989272}}}, "icon": "https://maps.gstatic.com/mapfiles/place_api/icons/v1/png_71/restaurant-71.png", "icon_background_color": "#FF9E67", "icon_mask_base_uri": "https://maps.gstatic.com/mapfiles/place_api/icons/v2/restaurant_pinlet", "name": "Mulcahys", "opening_hours": {"open_now": true}, "photos": [{"height": 1868, "html_attributions": ["<a href=\"https://maps.google.com/maps/contrib/109742118576719996428\">Uwe Wondracek</a>"], "photo_reference": "AUc7tXXrfO7rnGR44wZo1Ya-NLNHmMo24Uz_eBM9-EkE354Rh-FwXXgb904FmXO80HqDYdSk4u9_NnnpEY8Bac1iujmguwttMvU2v25IelciMIXqO4NlHo9GmHG-krf96B4kVdyQDUJ02XLP5PxcB8hrq7_HX2PNTrP5vUj1POOj-tieCJkF", "width": 4000}], "place_id": "ChIJ5UgwDuMxQ0gRdxLZRl9JlHU", "plus_code": {"compound_code": "973X+FF Clonmel, County Tipperary, Ireland", "global_code": "9C4J973X+FF"}, "rating": 4.3, "reference": "ChIJ5UgwDuMxQ0gRdxLZRl9JlHU", "scope": "GOOGLE", "types": ["restaurant", "bar", "lodging", "food", "store", "point_of_interest", "establishment"], "user_ratings_total": 902, "vicinity": "47 Gladstone St, Burgagery-Lands West, Clonmel"}, {"business_status": "OPERATIONAL", "geometry": {"location": {"lat": 52.3535529, "lng": -7.6981392}, "viewport": {"northeast": {"lat": 52.35496117989273, "lng": -7.696817170107277}, "southwest": {"lat": 52.35226152010728, "lng": -7.699516829892721}}}, "icon": "https://maps.gstatic.com/mapfiles/place_api/icons/v1/png_71/bar-71.png", "icon_background_color": "#FF9E67", "icon_mask_base_uri": "https://maps.gstatic.com/mapfiles/place_api/icons/v2/bar_pinlet", "name": "Phil Carrolls Bar", "opening_hours": {"open_now": false}, "photos": [{"height": 757, "html_attributions": ["<a href=\"https://maps.google.com/maps/contrib/108925576774421551635\">Michael Mc Grath</a>"], "photo_reference": "AUc7tXVzpHDg3HZ7OWwh0gLzviZVvYQ9zgv_sAna_N8U6WaT90BFtOSplG1rwqU5Qk1LAoL8T_pAK9EEJ9332FNFrtZuvdWFqTpMdBtuoLPjDhvF03KjhWURwmx0hUgUzIhqXC1sgQhe41Q9h4bae5y0CYCQqYoHkRv5oi4wYGxGVrA0Zxp8", "width": 1136}], "place_id": "ChIJzQTjiOIxQ0gRD3YlKoX0PCU", "plus_code": {"compound_code": "9832+CP Clonmel, County Tipperary, Ireland", "global_code": "9C4J9832+CP"}, "price_level": 1, "rating": 4.7, "reference": "ChIJzQTjiOIxQ0gRD3YlKoX0PCU", "scope": "GOOGLE", "types": ["bar", "restaurant", "food", "point_of_interest", "establishment"], "user_ratings_total": 337, "vicinity": "16 Parnell St, Burgagery-Lands West, Clonmel"}, {"business_status": "OPERATIONAL", "geometry": {"location": {"lat": 52.3487482, "lng": -7.7045624}, "viewport": {"northeast": {"lat": 52.35010562989272, "lng": -7.703212220107278}, "southwest": {"lat": 52.34740597010728, "lng": -7.705911879892722}}}, "icon": "https://maps.gstatic.com/mapfiles/place_api/icons/v1/png_71/bar-71.png", "icon_background_color": "#FF9E67", "icon_mask_base_uri": "https://maps.gstatic.com/mapfiles/place_api/icons/v2/bar_pinlet", "name": "Emigrants Rest", "opening_hours": {"open_now": false}, "photos": [{"height": 3024, "html_attributions": ["<a href=\"https://maps.google.com/maps/contrib/101141424310323815297\">A Google User</a>"], "photo_reference": "AUc7tXVQDIRqE0gIoSXUsbOtwpvaE3aN1RrcLHndJEyE-kjmCILdMid6AnjOMeblH8OQmpsINJuwHtP7gc3UC66bLVsZ6UDH_ULoMYytwaYuDXbwpnTXTogwXG4ZplUIihAoY1C0EV6bXMef_RuzGRD-ZmvO-7dsRN0tg_HQulyCl6-Yu63H", "width": 4032}], "place_id": "ChIJv01FHecxQ0gRGD9eGa1Sg14", "plus_code": {"compound_code": "87XW+F5 Clonmel, County Tipperary, Ireland", "global_code": "9C4J87XW+F5"}, "rating": 4.8, "reference": "ChIJv01FHecxQ0gRGD9eGa1Sg14", "scope": "GOOGLE", "types": ["bar", "restaurant", "food", "point_of_interest", "establishment"], "user_ratings_total": 71, "vicinity": "2 Roaring Springs, Scrothea East, Clonmel"}, {"business_status": "OPERATIONAL", "geometry": {"location": {"lat": 52.3526594, "lng": -7.7028379}, "viewport": {"northeast": {"lat": 52.35405352989272, "lng": -7.701505020107276}, "southwest": {"lat": 52.35135387010727, "lng": -7.70420467989272}}}, "icon": "https://maps.gstatic.com/mapfiles/place_api/icons/v1/png_71/restaurant-71.png", "icon_background_color": "#FF9E67", "icon_mask_base_uri": "https://maps.gstatic.com/mapfiles/place_api/icons/v2/restaurant_pinlet", "name": "Sean Tierneys Bar and Restaurant", "opening_hours": {"open_now": false}, "photos": [{"height": 2268, "html_attributions": ["<a href=\"https://maps.google.com/maps/contrib/113254771395631769853\">A Google User</a>"], "photo_reference": "AUc7tXWyGC3TStzwP9n4qYrGnIYoOrWMYJCIpYK6wlEryj0WpaGs54NrZTNSZZ67rp2rFZjx8PLUcaYHRsq3ha6tGK4aXgbN1JagLl90R_2mzuNPpNuSliZ8UWhb8Zi3yPHjruRu0qklKYqDYBOl2ir8By_oJbfVSlWS2th_uN9TOnAuYD1O", "width": 4032}], "place_id": "ChIJUcSUhOMxQ0gRzkjRtWmBVWQ", "plus_code": {"compound_code": "973W+3V Clonmel, County Tipperary, Ireland", "global_code": "9C4J973W+3V"}, "price_level": 2, "rating": 4.4, "reference": "ChIJUcSUhOMxQ0gRzkjRtWmBVWQ", "scope": "GOOGLE", "types": ["restaurant", "bar", "food", "point_of_interest", "establishment"], "user_ratings_total": 368, "vicinity": "13 O'Connell St, Burgagery-Lands West, Clonmel"}, {"business_status": "OPERATIONAL", "geometry": {"location": {"lat": 52.3554344, "lng": -7.7013168}, "viewport": {"northeast": {"lat": 52.35670667989272, "lng": -7.699916220107279}, "southwest": {"lat": 52.35400702010728, "lng": -7.702615879892723}}}, "icon": "https://maps.gstatic.com/mapfiles/place_api/icons/v1/png_71/restaurant-71.png", "icon_background_color": "#FF9E67", "icon_mask_base_uri": "https://maps.gstatic.com/mapfiles/place_api/icons/v2/restaurant_pinlet", "name": "Mr Bumbles", "opening_hours": {"open_now": false}, "photos": [{"height": 1080, "html_attributions": ["<a href=\"https://maps.google.com/maps/contrib/107764105873511064567\">A Google User</a>"], "photo_reference": "AUc7tXXegWaqo2Q7faqfp1b211UoXcU2NXoEIUirNu98h7RUazAWBRkSQETl0lNlOEd_t_KcwpE3uv_YDJTguTvReP8XC_u-Gl8OtXmZ2f-C9hKY3BS0W1ROYANAUC8bSsdR9bRLD0cf0NK83muPM66DYDsYUkvFVGuGRB4JcJD3qQ2b_ay3", "width": 1080}], "place_id": "ChIJU4RVzeIxQ0gR3OLS84efxSQ", "plus_code": {"compound_code": "974X+5F Clonmel, County Tipperary, Ireland", "global_code": "9C4J974X+5F"}, "price_level": 2, "rating": 4.4, "reference": "ChIJU4RVzeIxQ0gR3OLS84efxSQ", "scope": "GOOGLE", "types": ["restaurant", "food", "point_of_interest", "establishment"], "user_ratings_total": 278, "vicinity": "Richmond Mill, Kickham St, Burgagery-Lands West, Clonmel"}, {"business_status": "OPERATIONAL", "geometry": {"location": {"lat": 52.3547658, "lng": -7.700777299999999}, "viewport": {"northeast": {"lat": 52.35606132989272, "lng": -7.699137520107278}, "southwest": {"lat": 52.35336167010728, "lng": -7.701837179892721}}}, "icon": "https://maps.gstatic.com/mapfiles/place_api/icons/v1/png_71/restaurant-71.png", "icon_background_color": "#FF9E67", "icon_mask_base_uri": "https://maps.gstatic.com/mapfiles/place_api/icons/v2/restaurant_pinlet", "name": "Bodega 1830", "opening_hours": {"open_now": false}, "photos": [{"height": 4000, "html_attributions": ["<a href=\"https://maps.google.com/maps/contrib/113011200027599564472\">Mary Healy</a>"], "photo_reference": "AUc7tXUtzGvoNn8UivapnIaAxhsRTFJWBmfcLFIU0ZPHs0-6oWONGRuv5bUgk_wqrjlno9__gsZlR1u0BtWCURpq56PfGKavejviTLE8dlEe-hf-gC1WvrwHIXRC4HrM1i-XhAsXzrLsJEP4smg0ls_z4UnIKbyfdmguJwWIZ-b04oEAxPra", "width": 3000}], "place_id": "ChIJLyIrTmcxQ0gRkHLetKHHDN0", "plus_code": {"compound_code": "973X+WM Clonmel, County Tipperary, Ireland", "global_code": "9C4J973X+WM"}, "rating": 4.8, "reference": "ChIJLyIrTmcxQ0gRkHLetKHHDN0", "scope": "GOOGLE", "types": ["bar", "restaurant", "food", "point_of_interest", "establishment"], "user_ratings_total": 270, "vicinity": "Richmond Mill, Emmet St, Market St, Burgagery-Lands West, Clonmel"}, {"business_status": "OPERATIONAL", "geometry": {"location": {"lat": 52.3552435, "lng": -7.691607699999999}, "viewport": {"northeast": {"lat": 52.35664582989271, "lng": -7.690299420107277}, "southwest": {"lat": 52.35394617010727, "lng": -7.69299907989272}}}, "icon": "https://maps.gstatic.com/mapfiles/place_api/icons/v1/png_71/restaurant-71.png", "icon_background_color": "#FF9E67", "icon_mask_base_uri": "https://maps.gstatic.com/mapfiles/place_api/icons/v2/restaurant_pinlet", "name": "Shake Dog", "opening_hours": {"open_now": false}, "photos": [{"height": 3096, "html_attributions": ["<a href=\"https://maps.google.com/maps/contrib/117683194599824480524\">Gavin</a>"], "photo_reference": "AUc7tXX-8fYBsNEIg0K0o0yTPmlKuY5KP2xYbdseZmOCD92ykTkPVC5TptcNy6mTq0A2QJRNLCOO90OtHo5xCRfl-_LGBUIxb3wg4EIKI-1FiAEJM0iSHLVnqlGBWWx1fN95UouHOHTkLB9Kc95VRVLMefAyWMugX9UVg58boo78XK6QXMNn", "width": 4128}], "place_id": "ChIJO5zIshouQ0gRdae6rMWen70", "plus_code": {"compound_code": "9845+39 Clonmel, County Tipperary, Ireland", "global_code": "9C4J9845+39"}, "price_level": 2, "rating": 4.1, "reference": "ChIJO5zIshouQ0gRdae6rMWen70", "scope": "GOOGLE", "types": ["restaurant", "food", "point_of_interest", "establishment"], "user_ratings_total": 606, "vicinity": "Unit 24, Showgrounds Shopping Centre, Davis Rd, Burgagery-Lands East, Clonmel"}, {"business_status": "OPERATIONAL", "geometry": {"location": {"lat": 52.3527329, "lng": -7.701329800000001}, "viewport": {"northeast": {"lat": 52.35407402989272, "lng": -7.700045920107279}, "southwest": {"lat": 52.35137437010727, "lng": -7.702745579892722}}}, "icon": "https://maps.gstatic.com/mapfiles/place_api/icons/v1/png_71/restaurant-71.png", "icon_background_color": "#FF9E67", "icon_mask_base_uri": "https://maps.gstatic.com/mapfiles/place_api/icons/v2/restaurant_pinlet", "name": "Befani's", "opening_hours": {"open_now": false}, "photos": [{"height": 4032, "html_attributions": ["<a href=\"https://maps.google.com/maps/contrib/105996770209106246906\">A Google User</a>"], "photo_reference": "AUc7tXUi-s4_LdSINAEdkbLAJWKPmM1RpvZcf3GSuzwamvPhKhkUlYTrW5zaUUESm6CZcsSaJCWJaS391znCZksQ1GC4Ol2N_-730D34GZUD1G2A-j5ewhtBpKCS4WX8AO0LApKj2lT5YaUgCJeP4bD_QTJi2vJjXbyeYfHuqfhVy44w1D6Z", "width": 3024}], "place_id": "ChIJ4adPpOMxQ0gRWrA9MXl110M", "plus_code": {"compound_code": "973X+3F Clonmel, County Tipperary, Ireland", "global_code": "9C4J973X+3F"}, "rating": 4.6, "reference": "ChIJ4adPpOMxQ0gRWrA9MXl110M", "scope": "GOOGLE", "types": ["restaurant", "lodging", "food", "point_of_interest", "establishment"], "user_ratings_total": 457, "vicinity": "6 Sarsfield St, Burgagery-Lands West, Clonmel"}, {"business_status": "OPERATIONAL", "geometry": {"location": {"lat": 52.361472, "lng": -7.6945137}, "viewport": {"northeast": {"lat": 52.36278922989272, "lng": -7.693093220107278}, "southwest": {"lat": 52.36008957010728, "lng": -7.695792879892722}}}, "icon": "https://maps.gstatic.com/mapfiles/place_api/icons/v1/png_71/restaurant-71.png", "icon_background_color": "#FF9E67", "icon_mask_base_uri": "https://maps.gstatic.com/mapfiles/place_api/icons/v2/restaurant_pinlet", "name": "Supermac's & Papa John's Clonmel", "opening_hours": {"open_now": true}, "photos": [{"height": 2060, "html_attributions": ["<a href=\"https://maps.google.com/maps/contrib/100349870101249540399\">Zolt\u00e1n Kulcs\u00e1r</a>"], "photo_reference": "AUc7tXXjjtPgI3waZWcYkP3qlZI2fywMwrMki28brsndokk707qE1c0cUK3O5rOvvD-fWh_cKmgLrEPGuftM9LWLg0RuHEdeXakkzDYFA3nxe12gimHHqdpZ6IcsOhj2mlxPiMnZuOc1GzV_rUR0osM4GF4L8OR_vNymUf4Lzyb55xzyDypU", "width": 4085}], "place_id": "ChIJg9pp2QMuQ0gRzCKutS4cNm0", "plus_code": {"compound_code": "9864+H5 Clonmel, County Tipperary, Ireland", "global_code": "9C4J9864+H5"}, "price_level": 1, "rating": 4.1, "reference": "ChIJg9pp2QMuQ0gRzCKutS4cNm0", "scope": "GOOGLE", "types": ["restaurant", "food", "point_of_interest", "establishment"], "user_ratings_total": 1136, "vicinity": "Powerstown Rd, Burgagery-Lands West, Clonmel"}, {"business_status": "OPERATIONAL", "geometry": {"location": {"lat": 52.3532185, "lng": -7.700117400000001}, "viewport": {"northeast": {"lat": 52.35462742989272, "lng": -7.698701520107278}, "southwest": {"lat": 52.35192777010728, "lng": -7.701401179892722}}}, "icon": "https://maps.gstatic.com/mapfiles/place_api/icons/v1/png_71/generic_business-71.png", "icon_background_color": "#7B9EB0", "icon_mask_base_uri": "https://maps.gstatic.com/mapfiles/place_api/icons/v2/generic_pinlet", "name": "Apache Pizza Clonmel", "opening_hours": {"open_now": true}, "photos": [{"height": 3024, "html_attributions": ["<a href=\"https://maps.google.com/maps/contrib/105237118410220980053\">Apache Pizza Clonmel</a>"], "photo_reference": "AUc7tXWD4s02Yb-4lgM-cLN8_bRcc3EvQJThUm2sZSgNeXjDwOFppb3FCFymH1mEs7cz6k8CpeUWpOWdskQVSpNNZaFKfGCfnoTexxIHSSxa1IdLOS4WRQ5x99aGU39BvswAwe3zDUib0mA81fmiJXcv6-di0F-_clJIctDD-0gmSA1nZNFG", "width": 4032}], "place_id": "ChIJHSAvUgkuQ0gRkBW7ZYAu47w", "plus_code": {"compound_code": "973X+7X Clonmel, County Tipperary, Ireland", "global_code": "9C4J973X+7X"}, "price_level": 2, "rating": 4, "reference": "ChIJHSAvUgkuQ0gRkBW7ZYAu47w", "scope": "GOOGLE", "types": ["meal_delivery", "meal_takeaway", "restaurant", "food", "point_of_interest", "establishment"], "user_ratings_total": 44, "vicinity": "Old Mayfair Cafe, 3 Mitchell St, Burgagery-Lands West, Clonmel"}, {"business_status": "OPERATIONAL", "geometry": {"location": {"lat": 52.3540123, "lng": -7.701106599999999}, "viewport": {"northeast": {"lat": 52.35544392989272, "lng": -7.699862820107279}, "southwest": {"lat": 52.35274427010727, "lng": -7.702562479892722}}}, "icon": "https://maps.gstatic.com/mapfiles/place_api/icons/v1/png_71/restaurant-71.png", "icon_background_color": "#FF9E67", "icon_mask_base_uri": "https://maps.gstatic.com/mapfiles/place_api/icons/v2/restaurant_pinlet", "name": "Tom Skinny's - The Market Cafe", "opening_hours": {"open_now": false}, "photos": [{"height": 1868, "html_attributions": ["<a href=\"https://maps.google.com/maps/contrib/115408364456609710988\">Bernie Markley</a>"], "photo_reference": "AUc7tXVXM2DmNEzzkG0y3UIW6yYU4Nfuslz_fIF2qww9UqrDVNqWNZCEqzI4PwuJSD3XwFE0al6613Jlkcj5BiGFPjIE8QonzFw7TDZv7SQ-AkS9xo86fZaHEPtt90iKw1TteeM_ng-2pUiWD0YE0mETrGNwJjZUbZK3TAnb5UhdpiFr-p--", "width": 4000}], "place_id": "ChIJ2VKAHOMxQ0gRb6xM_izvI4g", "plus_code": {"compound_code": "973X+JH Clonmel, County Tipperary, Ireland", "global_code": "9C4J973X+JH"}, "price_level": 2, "rating": 4, "reference": "ChIJ2VKAHOMxQ0gRb6xM_izvI4g", "scope": "GOOGLE", "types": ["cafe", "restaurant", "food", "point_of_interest", "establishment"], "user_ratings_total": 222, "vicinity": "3 Printers Centre, Market St, Clonmel"}, {"business_status": "OPERATIONAL", "geometry": {"location": {"lat": 52.35326420000001, "lng": -7.7006766}, "viewport": {"northeast": {"lat": 52.35458202989272, "lng": -7.699394670107276}, "southwest": {"lat": 52.35188237010728, "lng": -7.70209432989272}}}, "icon": "https://maps.gstatic.com/mapfiles/place_api/icons/v1/png_71/restaurant-71.png", "icon_background_color": "#FF9E67", "icon_mask_base_uri": "https://maps.gstatic.com/mapfiles/place_api/icons/v2/restaurant_pinlet", "name": "Cibo Fresco", "opening_hours": {"open_now": false}, "photos": [{"height": 1536, "html_attributions": ["<a href=\"https://maps.google.com/maps/contrib/113914690772488045950\">A Google User</a>"], "photo_reference": "AUc7tXUG2naBGdR7dkknLAT-ncIzk_lpi35qYTdrBrCjDqvEbzo4rBdZjuifhFgMjaDrMrRI1Qpz5hqbhpULM7JVNlMfdG8ChTxQ_xd7m6u_7vppNA1EI9ZmMlqfP4G4eBxK_5vK3zjNdf0OjkyCUkCNsV9Z7fHta-0cDDqNHnILNiFFD98f", "width": 2048}], "place_id": "ChIJsdIOAOMxQ0gRpJzfcXmyZtg", "plus_code": {"compound_code": "973X+8P Clonmel, County Tipperary, Ireland", "global_code": "9C4J973X+8P"}, "price_level": 2, "rating": 4.5, "reference": "ChIJsdIOAOMxQ0gRpJzfcXmyZtg", "scope": "GOOGLE", "types": ["restaurant", "food", "point_of_interest", "establishment"], "user_ratings_total": 179, "vicinity": "31 Mitchell St, Burgagery-Lands West, Clonmel"}, {"business_status": "OPERATIONAL", "geometry": {"location": {"lat": 52.3532588, "lng": -7.699837899999999}, "viewport": {"northeast": {"lat": 52.35460227989272, "lng": -7.698515220107277}, "southwest": {"lat": 52.35190262010727, "lng": -7.701214879892721}}}, "icon": "https://maps.gstatic.com/mapfiles/place_api/icons/v1/png_71/shopping-71.png", "icon_background_color": "#4B96F3", "icon_mask_base_uri": "https://maps.gstatic.com/mapfiles/place_api/icons/v2/shopping_pinlet", "name": "Niamh's", "opening_hours": {"open_now": false}, "photos": [{"height": 1520, "html_attributions": ["<a href=\"https://maps.google.com/maps/contrib/101384475410927911040\">Darren McLoughlin</a>"], "photo_reference": "AUc7tXVEEBBFrjCMN5L_X7W6dw61m9nTSPOCcQZe9JvHUKJ1gKThfZPkDiBW2UB21WzVgy_dyKArB70muRwgNyZTL5ASx8DEHIB-4xzbCALPddNt2V1i8fZAsXN4cqKiVEr35ZRk9-qp7ynZFIgvJ85De6fLggSprd_skaY9n3aFS45Kf_mz", "width": 2688}], "place_id": "ChIJpZVU_-IxQ0gR8OJugEFA6VI", "plus_code": {"compound_code": "9832+83 Clonmel, County Tipperary, Ireland", "global_code": "9C4J9832+83"}, "price_level": 2, "rating": 4.4, "reference": "ChIJpZVU_-IxQ0gR8OJugEFA6VI", "scope": "GOOGLE", "types": ["restaurant", "food", "store", "point_of_interest", "establishment"], "user_ratings_total": 300, "vicinity": "1 Mitchell St, Burgagery-Lands West, Clonmel"}, {"business_status": "OPERATIONAL", "geometry": {"location": {"lat": 52.3537125, "lng": -7.697362899999999}, "viewport": {"northeast": {"lat": 52.35510162989272, "lng": -7.696027470107278}, "southwest": {"lat": 52.35240197010728, "lng": -7.698727129892722}}}, "icon": "https://maps.gstatic.com/mapfiles/place_api/icons/v1/png_71/restaurant-71.png", "icon_background_color": "#FF9E67", "icon_mask_base_uri": "https://maps.gstatic.com/mapfiles/place_api/icons/v2/restaurant_pinlet", "name": "Emperor", "opening_hours": {"open_now": false}, "photos": [{"height": 3096, "html_attributions": ["<a href=\"https://maps.google.com/maps/contrib/117683194599824480524\">Gavin</a>"], "photo_reference": "AUc7tXXVlJz8pvw7MHd8JrqkbsYQI9oQdFdPTpPGSurUW3HK0CLXDeUsnmGcjBdXeHs-YSbHmNAfxnyih-DxCL74OsZkTgMODooRDAPNb3qoDSyE29Equ0kAbk26BdfPcoV-eQHEWyIDFyKHLsuumHtAqCjqKcw9i9s8vnAdWb_oF9ZgOiRH", "width": 4128}], "place_id": "ChIJXQL0geIxQ0gRtcIzknsVoZw", "plus_code": {"compound_code": "9833+F3 Clonmel, County Tipperary, Ireland", "global_code": "9C4J9833+F3"}, "price_level": 2, "rating": 4.4, "reference": "ChIJXQL0geIxQ0gRtcIzknsVoZw", "scope": "GOOGLE", "types": ["restaurant", "food", "point_of_interest", "establishment"], "user_ratings_total": 210, "vicinity": "6 Parnell St, Burgagery-Lands West, Clonmel"}, {"business_status": "OPERATIONAL", "geometry": {"location": {"lat": 52.3522052, "lng": -7.7085012}, "viewport": {"northeast": {"lat": 52.35352722989272, "lng": -7.707145170107277}, "southwest": {"lat": 52.35082757010728, "lng": -7.709844829892721}}}, "icon": "https://maps.gstatic.com/mapfiles/place_api/icons/v1/png_71/restaurant-71.png", "icon_background_color": "#FF9E67", "icon_mask_base_uri": "https://maps.gstatic.com/mapfiles/place_api/icons/v2/restaurant_pinlet", "name": "Dragon Palace", "opening_hours": {"open_now": false}, "photos": [{"height": 1456, "html_attributions": ["<a href=\"https://maps.google.com/maps/contrib/117683194599824480524\">Gavin</a>"], "photo_reference": "AUc7tXVHO5lAgD4QJOQebzF1FbUo0XKkuaa0_O1adHhzZFgUik3dq_Fl9mulSGQ7hYWj2nUA311J-RkG4LL35M1zUOB448jc46aDgJGUOL5pFqPpcS2xul_oTLsO0Asz_CsWJq6rDV6CRU4AFb7dMxBZYC2opmDAeCwGkp14tuIUd3V0FOyt", "width": 2712}], "place_id": "ChIJFSyPo-UxQ0gRZmOIBuGpZPs", "plus_code": {"compound_code": "972R+VH Clonmel, County Tipperary, Ireland", "global_code": "9C4J972R+VH"}, "price_level": 2, "rating": 4.6, "reference": "ChIJFSyPo-UxQ0gRZmOIBuGpZPs", "scope": "GOOGLE", "types": ["restaurant", "food", "point_of_interest", "establishment"], "user_ratings_total": 164, "vicinity": "91 Irishtown, Burgagery-Lands West, Clonmel"}, {"business_status": "OPERATIONAL", "geometry": {"location": {"lat": 52.363204, "lng": -7.7095917}, "viewport": {"northeast": {"lat": 52.36456217989272, "lng": -7.708353320107278}, "southwest": {"lat": 52.36186252010728, "lng": -7.711052979892722}}}, "icon": "https://maps.gstatic.com/mapfiles/place_api/icons/v1/png_71/restaurant-71.png", "icon_background_color": "#FF9E67", "icon_mask_base_uri": "https://maps.gstatic.com/mapfiles/place_api/icons/v2/restaurant_pinlet", "name": "Riverside China House", "opening_hours": {"open_now": false}, "photos": [{"height": 1080, "html_attributions": ["<a href=\"https://maps.google.com/maps/contrib/112376477101571611401\">topgold</a>"], "photo_reference": "AUc7tXWYBPb6O8L3iux77TFxkmjpbJW8-4uy3cz9OyBEdQrxazMlZ_O50aAvhmCpnCXAIPmPYwXYgetJ6UafN4qCXdGPJ6pJOa7bRNCGtnI6Igz61AQX8hhkc5eAiLE_rLPVBY7j09wgHGt1Rnv9J9ME0JTq8USt5BXXQdNXIdImwWrHBNmW", "width": 1920}], "place_id": "ChIJ-5Z_7_gxQ0gRx6GGdeZ02hI", "plus_code": {"compound_code": "977R+76 Clonmel, County Tipperary, Ireland", "global_code": "9C4J977R+76"}, "price_level": 1, "rating": 3.9, "reference": "ChIJ-5Z_7_gxQ0gRx6GGdeZ02hI", "scope": "GOOGLE", "types": ["restaurant", "food", "point_of_interest", "establishment"], "user_ratings_total": 69, "vicinity": "Cashel Road Roundabout, Burgagery-Lands West, Clonmel"}, {"business_status": "OPERATIONAL", "geometry": {"location": {"lat": 52.3534906, "lng": -7.6985931}, "viewport": {"northeast": {"lat": 52.35488552989272, "lng": -7.697264870107278}, "southwest": {"lat": 52.35218587010728, "lng": -7.699964529892722}}}, "icon": "https://maps.gstatic.com/mapfiles/place_api/icons/v1/png_71/restaurant-71.png", "icon_background_color": "#FF9E67", "icon_mask_base_uri": "https://maps.gstatic.com/mapfiles/place_api/icons/v2/restaurant_pinlet", "name": "Mani Restaurant", "opening_hours": {"open_now": false}, "photos": [{"height": 719, "html_attributions": ["<a href=\"https://maps.google.com/maps/contrib/111964685481736762101\">A Google User</a>"], "photo_reference": "AUc7tXV74kTtpHv8AvMKJDcsrcfWzAzgwiUgAASDS-2-bVeJIq35cYxuZ-FFqa6U-gviLXO0RSldAVwnTq2Lv-AxM5yKliUIWKduHLD37tHpa00FfnxZjXRxj4U5BRK3v9DLqtfx_wI8iZm3PD7ad6KNG_UVSCgjgmE-hF_m4WST9Ulm82FE", "width": 1280}], "place_id": "ChIJ9yj-iuIxQ0gRWrwEQJa1Bgs", "plus_code": {"compound_code": "9832+9H Clonmel, County Tipperary, Ireland", "global_code": "9C4J9832+9H"}, "rating": 4.7, "reference": "ChIJ9yj-iuIxQ0gRWrwEQJa1Bgs", "scope": "GOOGLE", "types": ["restaurant", "food", "point_of_interest", "establishment"], "user_ratings_total": 324, "vicinity": "20 Parnell St, Burgagery-Lands West, Clonmel"}, {"business_status": "OPERATIONAL", "geometry": {"location": {"lat": 52.35222220000001, "lng": -7.7083333}, "viewport": {"northeast": {"lat": 52.35353342989272, "lng": -7.707058970107279}, "southwest": {"lat": 52.35083377010728, "lng": -7.709758629892723}}}, "icon": "https://maps.gstatic.com/mapfiles/place_api/icons/v1/png_71/restaurant-71.png", "icon_background_color": "#FF9E67", "icon_mask_base_uri": "https://maps.gstatic.com/mapfiles/place_api/icons/v2/restaurant_pinlet", "name": "Babylon Kebab House", "opening_hours": {"open_now": false}, "photos": [{"height": 1848, "html_attributions": ["<a href=\"https://maps.google.com/maps/contrib/117364921130666354051\">A Google User</a>"], "photo_reference": "AUc7tXXoAwAUxiz87zphISvscJaPCah1LLSk8XKjbyzKWT_LRD9kDU8VykMeuz2YD4el17tsLNyV2Afjq0WchxZiFBe4x3iRP0EoYLvZ8Grkj2zNaWiE13B9t92VD0L5C6C5YF5DrsdZDSWJ1V0beZVrjYA7Vgo4lYimn432EKovZyO1pqNS", "width": 2784}], "place_id": "ChIJEfVlpOUxQ0gRI3hJd-tx8_8", "plus_code": {"compound_code": "972R+VM Clonmel, County Tipperary, Ireland", "global_code": "9C4J972R+VM"}, "price_level": 1, "rating": 4.1, "reference": "ChIJEfVlpOUxQ0gRI3hJd-tx8_8", "scope": "GOOGLE", "types": ["restaurant", "food", "point_of_interest", "establishment"], "user_ratings_total": 218, "vicinity": "93 Irishtown, Burgagery-Lands West, Clonmel"}, {"business_status": "OPERATIONAL", "geometry": {"location": {"lat": 52.35277869999999, "lng": -7.7020215}, "viewport": {"northeast": {"lat": 52.35413987989271, "lng": -7.700816320107277}, "southwest": {"lat": 52.35144022010727, "lng": -7.703515979892721}}}, "icon": "https://maps.gstatic.com/mapfiles/place_api/icons/v1/png_71/restaurant-71.png", "icon_background_color": "#FF9E67", "icon_mask_base_uri": "https://maps.gstatic.com/mapfiles/place_api/icons/v2/restaurant_pinlet", "name": "Galileo Cafe", "opening_hours": {"open_now": false}, "photos": [{"height": 3000, "html_attributions": ["<a href=\"https://maps.google.com/maps/contrib/115408364456609710988\">Bernie Markley</a>"], "photo_reference": "AUc7tXXpLzxlPrtvhNv15qPzwBV9mzxJ_ajGrzF8T6WsS8TBizV2TLT1sJkWzbWUAc2Xz67ElB8wD8QURXZDybdEUzMWrBAT_TQmj2Vuzq7mR8s5f5576MIXYEmr75OSjs9wOVxgSM5St-Mxqxlbfzk95DlDmbqOgRAvyLGjEYwefRn6qxEO", "width": 4000}], "place_id": "ChIJWzg8p-MxQ0gRvPRkpC2Zwe0", "plus_code": {"compound_code": "973X+45 Clonmel, County Tipperary, Ireland", "global_code": "9C4J973X+45"}, "price_level": 2, "rating": 4.4, "reference": "ChIJWzg8p-MxQ0gRvPRkpC2Zwe0", "scope": "GOOGLE", "types": ["restaurant", "food", "point_of_interest", "establishment"], "user_ratings_total": 472, "vicinity": "5/6 O'Connell St, Burgagery-Lands West, Clonmel"}, {"business_status": "OPERATIONAL", "geometry": {"location": {"lat": 52.35401659999999, "lng": -7.7017739}, "viewport": {"northeast": {"lat": 52.35534437989272, "lng": -7.700543120107277}, "southwest": {"lat": 52.35264472010728, "lng": -7.703242779892721}}}, "icon": "https://maps.gstatic.com/mapfiles/place_api/icons/v1/png_71/restaurant-71.png", "icon_background_color": "#FF9E67", "icon_mask_base_uri": "https://maps.gstatic.com/mapfiles/place_api/icons/v2/restaurant_pinlet", "name": "Pearls Chinese Restaurant", "opening_hours": {"open_now": false}, "photos": [{"height": 2610, "html_attributions": ["<a href=\"https://maps.google.com/maps/contrib/100349870101249540399\">Zolt\u00e1n Kulcs\u00e1r</a>"], "photo_reference": "AUc7tXXKhYGRt73RIhVS1UJCLNmqTO77hPizyGHRS23geZ5ciBibSe3qn8lq437b8vDl5Z7UwwA9MHGM1EV38ZtWt2w7qw0z2wLTbs6ZI836ozZelmwMsSYL9KMYMhB99bS-v2pntXCpBHb8Wh9bSAjl9LULdgbw9RSAXs_B6mno_0VdXAxt", "width": 4640}], "place_id": "ChIJ8QgrEeMxQ0gRKvRfFWsGGAc", "plus_code": {"compound_code": "973X+J7 Clonmel, County Tipperary, Ireland", "global_code": "9C4J973X+J7"}, "rating": 4.1, "reference": "ChIJ8QgrEeMxQ0gRKvRfFWsGGAc", "scope": "GOOGLE", "types": ["restaurant", "food", "point_of_interest", "establishment"], "user_ratings_total": 193, "vicinity": "39 Gladstone St, Burgagery-Lands West, Clonmel"}, {"business_status": "OPERATIONAL", "geometry": {"location": {"lat": 52.3540573, "lng": -7.7014618}, "viewport": {"northeast": {"lat": 52.35533587989273, "lng": -7.700090570107276}, "southwest": {"lat": 52.35263622010728, "lng": -7.70279022989272}}}, "icon": "https://maps.gstatic.com/mapfiles/place_api/icons/v1/png_71/restaurant-71.png", "icon_background_color": "#FF9E67", "icon_mask_base_uri": "https://maps.gstatic.com/mapfiles/place_api/icons/v2/restaurant_pinlet", "name": "Lemongrass Restaurant", "opening_hours": {"open_now": false}, "photos": [{"height": 3000, "html_attributions": ["<a href=\"https://maps.google.com/maps/contrib/105365778765319358188\">Laarni Venus Marie G.</a>"], "photo_reference": "AUc7tXUhpjzqA5HE5oYl5zLnsak94Hg2p9EF6Exp6iT9k4OYZIazd9ymDXbGJkXezMCu6bNqjDhc4gwCzsYOZq-fHNEtWejZkHRy664MdaFdeYJ_sRc_8lcicYCMVDA-mYjSY11icXrA7aRG2Q3Lv5muHNP7t4GuYNqq_ZHSJgszu43Dm6jB", "width": 4000}], "place_id": "ChIJ-0y-HOMxQ0gRfcQpMR_ipEs", "plus_code": {"compound_code": "973X+JC Clonmel, County Tipperary, Ireland", "global_code": "9C4J973X+JC"}, "price_level": 2, "rating": 4.5, "reference": "ChIJ-0y-HOMxQ0gRfcQpMR_ipEs", "scope": "GOOGLE", "types": ["restaurant", "food", "point_of_interest", "establishment"], "user_ratings_total": 286, "vicinity": "Butter Market, Market St, Clonmel"}, {"business_status": "OPERATIONAL", "geometry": {"location": {"lat": 52.3523012, "lng": -7.7071429}, "viewport": {"northeast": {"lat": 52.35361052989272, "lng": -7.705787870107278}, "southwest": {"lat": 52.35091087010728, "lng": -7.708487529892722}}}, "icon": "https://maps.gstatic.com/mapfiles/place_api/icons/v1/png_71/restaurant-71.png", "icon_background_color": "#FF9E67", "icon_mask_base_uri": "https://maps.gstatic.com/mapfiles/place_api/icons/v2/restaurant_pinlet", "name": "Prego Pizza", "opening_hours": {"open_now": false}, "photos": [{"height": 3456, "html_attributions": ["<a href=\"https://maps.google.com/maps/contrib/103921884744475952556\">santa gabella</a>"], "photo_reference": "AUc7tXW6wOeqBc0XOTWlYwysELiLGw4yhqTntGOZOjW6jDpeMeYsqu4kwRDzSmOdO_IAb0GkF5JjVfFnogaOmk3lyyn5yDJtN405YVuL3zDuNp6rEGHasDfNBuf5wT673ajgYcaZnJwZ_6i3k25npW-NeVrEwIJC-xSE2kzxM5EVWHT-LNIm", "width": 4608}], "place_id": "ChIJodesvOUxQ0gRRPhR-qbomac", "plus_code": {"compound_code": "972V+W4 Clonmel, County Tipperary, Ireland", "global_code": "9C4J972V+W4"}, "price_level": 1, "rating": 4.8, "reference": "ChIJodesvOUxQ0gRRPhR-qbomac", "scope": "GOOGLE", "types": ["restaurant", "food", "point_of_interest", "establishment"], "user_ratings_total": 380, "vicinity": "107 Irishtown, Burgagery-Lands West, Clonmel"}, {"business_status": "OPERATIONAL", "geometry": {"location": {"lat": 52.3532175, "lng": -7.7018358}, "viewport": {"northeast": {"lat": 52.35458082989273, "lng": -7.700404870107278}, "southwest": {"lat": 52.35188117010728, "lng": -7.703104529892721}}}, "icon": "https://maps.gstatic.com/mapfiles/place_api/icons/v1/png_71/restaurant-71.png", "icon_background_color": "#FF9E67", "icon_mask_base_uri": "https://maps.gstatic.com/mapfiles/place_api/icons/v2/restaurant_pinlet", "name": "Lana Clonmel Asian Street Food", "opening_hours": {"open_now": false}, "photos": [{"height": 750, "html_attributions": ["<a href=\"https://maps.google.com/maps/contrib/108983719629496249180\">Ailbhe O&#39;Shea</a>"], "photo_reference": "AUc7tXX0CdiFvO12waLdCPaZ6Hpau_5xX83p8FtOM-Bl16oy_7FBOBDM8Xhr8IQ7Y26bGQuaCgai2ZMCjiNyxs3lqbzgwpbseyjsWuqbKqmIM9iko9GGCRappQqsjuYCCAQPqCiSmYXtCzFN632jAL3HvHxJoWuggCRTT2Snz89Ze86U6FGo", "width": 997}], "place_id": "ChIJZyUN9B4xQ0gRdLout75cFgg", "plus_code": {"compound_code": "973X+77 Clonmel, County Tipperary, Ireland", "global_code": "9C4J973X+77"}, "price_level": 1, "rating": 4.3, "reference": "ChIJZyUN9B4xQ0gRdLout75cFgg", "scope": "GOOGLE", "types": ["restaurant", "food", "point_of_interest", "establishment"], "user_ratings_total": 199, "vicinity": "4 Gladstone St, Burgagery-Lands West, Clonmel"}, {"business_status": "OPERATIONAL", "geometry": {"location": {"lat": 52.35360780000001, "lng": -7.7049726}, "viewport": {"northeast": {"lat": 52.35496807989271, "lng": -7.703559470107277}, "southwest": {"lat": 52.35226842010727, "lng": -7.706259129892721}}}, "icon": "https://maps.gstatic.com/mapfiles/place_api/icons/v1/png_71/restaurant-71.png", "icon_background_color": "#FF9E67", "icon_mask_base_uri": "https://maps.gstatic.com/mapfiles/place_api/icons/v2/restaurant_pinlet", "name": "Planet Spice", "opening_hours": {"open_now": false}, "photos": [{"height": 2750, "html_attributions": ["<a href=\"https://maps.google.com/maps/contrib/112437187407426179367\">John Minchin Photography</a>"], "photo_reference": "AUc7tXX9q1zBNCBIGlUqRRzTJjxfRzLLHbvt2lMVHGhnSpwuClLEuklOg7g-mklxK9melDjTv5jw3RvSR3xiu9SbZ8jQ6mTsKuPNQW3WjAIS3OaRE57lLdGhc_qQGaA2bEFfRm3iiX49D8hmC0kJuyk9CoM6iI0QtynNt-eBQLQ0QwjNncGL", "width": 4647}], "place_id": "ChIJMz-rmuQxQ0gRp4q5JGuehZI", "plus_code": {"compound_code": "973V+CX Clonmel, County Tipperary, Ireland", "global_code": "9C4J973V+CX"}, "price_level": 2, "rating": 4.3, "reference": "ChIJMz-rmuQxQ0gRp4q5JGuehZI", "scope": "GOOGLE", "types": ["restaurant", "food", "point_of_interest", "establishment"], "user_ratings_total": 195, "vicinity": "8 Mary St, Burgagery-Lands West, Clonmel"}, {"business_status": "OPERATIONAL", "geometry": {"location": {"lat": 52.3522291, "lng": -7.7009707}, "viewport": {"northeast": {"lat": 52.35356212989272, "lng": -7.699760120107277}, "southwest": {"lat": 52.35086247010728, "lng": -7.702459779892721}}}, "icon": "https://maps.gstatic.com/mapfiles/place_api/icons/v1/png_71/restaurant-71.png", "icon_background_color": "#FF9E67", "icon_mask_base_uri": "https://maps.gstatic.com/mapfiles/place_api/icons/v2/restaurant_pinlet", "name": "Indian Ocean Restaurant Clonmel", "opening_hours": {"open_now": false}, "photos": [{"height": 1000, "html_attributions": ["<a href=\"https://maps.google.com/maps/contrib/104807780639300211625\">A Google User</a>"], "photo_reference": "AUc7tXVMDb0jK6tBxFhzda38_5EoddTVTtTHc6q3KtHZ6D2xge5bgEWSZEswJHBXdPzm2I-HHG2MPURHgmE77HnGHmuT_BZdTBDMCT5eE_epQAjoTaYqqOP3DO4t7jykoujqIOCnzadVdNLhfld_Mex3TreM58CgmqrnGf6d2WpvTkhZAORB", "width": 1500}], "place_id": "ChIJvR73EPsxQ0gR6XtCv3Hxjxg", "plus_code": {"compound_code": "972X+VJ Clonmel, County Tipperary, Ireland", "global_code": "9C4J972X+VJ"}, "price_level": 2, "rating": 4.5, "reference": "ChIJvR73EPsxQ0gR6XtCv3Hxjxg", "scope": "GOOGLE", "types": ["meal_takeaway", "meal_delivery", "restaurant", "food", "point_of_interest", "establishment"], "user_ratings_total": 220, "vicinity": "Sarsfield Court, Sarsfield St, Burgagery-Lands West, Clonmel"}, {"business_status": "OPERATIONAL", "geometry": {"location": {"lat": 52.3632417, "lng": -7.7094904}, "viewport": {"northeast": {"lat": 52.36466492989272, "lng": -7.708352120107277}, "southwest": {"lat": 52.36196527010728, "lng": -7.711051779892721}}}, "icon": "https://maps.gstatic.com/mapfiles/place_api/icons/v1/png_71/restaurant-71.png", "icon_background_color": "#FF9E67", "icon_mask_base_uri": "https://maps.gstatic.com/mapfiles/place_api/icons/v2/restaurant_pinlet", "name": "Domino's Pizza - Clonmel", "opening_hours": {"open_now": false}, "photos": [{"height": 3024, "html_attributions": ["<a href=\"https://maps.google.com/maps/contrib/111233747087004196239\">Andrew Butler</a>"], "photo_reference": "AUc7tXUPwYDCln58oMUUvvQRkTPlTmdTFgVDnEsiVPYZOUMFSr-_l5bzHdOoS5T2MvJw0N2YQkiT28yIm2E8R19SgWBO7ujOqtvAWMYrG-ZhZDCl1AFcVD1j6ERJGYCgYqYtkPIwIkNZTJjYV2X9ayrF1kovnhQ8dRn9htECz0C0_cqtJTqQ", "width": 4032}], "place_id": "ChIJC2gy7foyQ0gRg4edUF4w3GA", "plus_code": {"compound_code": "977R+76 Clonmel, County Tipperary, Ireland", "global_code": "9C4J977R+76"}, "price_level": 2, "rating": 3.9, "reference": "ChIJC2gy7foyQ0gRg4edUF4w3GA", "scope": "GOOGLE", "types": ["meal_takeaway", "restaurant", "food", "point_of_interest", "establishment"], "user_ratings_total": 111, "vicinity": "Unit 2 Cashel Rd, Burgagery-Lands West, Clonmel"}, {"business_status": "OPERATIONAL", "geometry": {"location": {"lat": 52.3538194, "lng": -7.700794200000001}, "viewport": {"northeast": {"lat": 52.35522747989272, "lng": -7.699465020107279}, "southwest": {"lat": 52.35252782010728, "lng": -7.702164679892722}}}, "icon": "https://maps.gstatic.com/mapfiles/place_api/icons/v1/png_71/restaurant-71.png", "icon_background_color": "#FF9E67", "icon_mask_base_uri": "https://maps.gstatic.com/mapfiles/place_api/icons/v2/restaurant_pinlet", "name": "Hometown Cuisine Chinese Takeaway", "opening_hours": {"open_now": false}, "photos": [{"height": 720, "html_attributions": ["<a href=\"https://maps.google.com/maps/contrib/113470769029039047403\">A Google User</a>"], "photo_reference": "AUc7tXV6Mf-KgTiXQvJtlKJr8Xe32uBzmKjuuHA4is9c-CkqdFvtPd3ZokXtNmGm56qPBTH7yflUtUf6Tm2xgYhZvRzSXiSYO64eU4FOdkjVBUJ-rN4_TChtQk7OhJw2P1u0oJpEkUY_RodDSxAdta2Nt2PHccE2Lr_YisDfluaLC0-mNAU5", "width": 960}], "place_id": "ChIJJ09X-G0xQ0gRx6zq1xDlWy4", "plus_code": {"compound_code": "973X+GM Clonmel, County Tipperary, Ireland", "global_code": "9C4J973X+GM"}, "rating": 4.7, "reference": "ChIJJ09X-G0xQ0gRx6zq1xDlWy4", "scope": "GOOGLE", "types": ["meal_takeaway", "restaurant", "food", "point_of_interest", "establishment"], "user_ratings_total": 49, "vicinity": "14 Market St, Burgagery-Lands West, Clonmel"}, {"business_status": "OPERATIONAL", "geometry": {"location": {"lat": 52.3523376, "lng": -7.706189200000001}, "viewport": {"northeast": {"lat": 52.35365742989271, "lng": -7.704834420107278}, "southwest": {"lat": 52.35095777010727, "lng": -7.707534079892722}}}, "icon": "https://maps.gstatic.com/mapfiles/place_api/icons/v1/png_71/restaurant-71.png", "icon_background_color": "#FF9E67", "icon_mask_base_uri": "https://maps.gstatic.com/mapfiles/place_api/icons/v2/restaurant_pinlet", "name": "Hickeys Bakery", "opening_hours": {"open_now": false}, "photos": [{"height": 3264, "html_attributions": ["<a href=\"https://maps.google.com/maps/contrib/112941984317632725467\">Hickeys Bakery &amp; Cafe</a>"], "photo_reference": "AUc7tXWWBzft1Xy-gwKHeGKtwuac60CXPSCMeoaSIPzydz_YhPsjx3io3J0hacnLtse_56i7Rt6ZSnOF7ytdxE-rWEuydU5uIyEb7XZlVTgtL9Pf4szlqQ2bptVnexfCj6rpyp2urj3-6WeNGO6OMZWVt6H0hThkv60o6m1DTRY2wDegvyH-", "width": 4928}], "place_id": "ChIJBR7lUuQxQ0gRIFNCale4bUo", "plus_code": {"compound_code": "972V+WG Clonmel, County Tipperary, Ireland", "global_code": "9C4J972V+WG"}, "price_level": 2, "rating": 4.5, "reference": "ChIJBR7lUuQxQ0gRIFNCale4bUo", "scope": "GOOGLE", "types": ["bakery", "store", "restaurant", "food", "point_of_interest", "establishment"], "user_ratings_total": 229, "vicinity": "Westgate, 117 Irishtown, Burgagery-Lands West, Clonmel"}]