[{"business_status": "OPERATIONAL", "geometry": {"location": {"lat": 51.8504912, "lng": -8.294708199999999}, "viewport": {"northeast": {"lat": 51.85185647989272, "lng": -8.293240970107275}, "southwest": {"lat": 51.84915682010728, "lng": -8.29594062989272}}}, "icon": "https://maps.gstatic.com/mapfiles/place_api/icons/v1/png_71/bar-71.png", "icon_background_color": "#FF9E67", "icon_mask_base_uri": "https://maps.gstatic.com/mapfiles/place_api/icons/v2/bar_pinlet", "name": "The Rob Roy", "opening_hours": {"open_now": true}, "photos": [{"height": 3024, "html_attributions": ["<a href=\"https://maps.google.com/maps/contrib/103135930569831190731\">kathriona bannon</a>"], "photo_reference": "AUc7tXXhBAxugVYolfWa1-2eOPO41JeoCKFUFWFdHJab_foUe4EwW04LSsy58GDsZeHjsgacrtdyXteobvl1p6O7tW6lQQBjEYyY-M5-MZfPE0jg7itOxyoF3Nz7HmL9u53XE57JwVW1zpOx_nU9R30aCw892pTgK2CphzCq4bABtAll76Yi", "width": 4032}], "place_id": "ChIJqYDeF6SDREgRdKj06JyVZHo", "plus_code": {"compound_code": "VP24+54 Cobh, County Cork, Ireland", "global_code": "9C3HVP24+54"}, "price_level": 2, "rating": 4.7, "reference": "ChIJqYDeF6SDREgRdKj06JyVZHo", "scope": "GOOGLE", "types": ["bar", "restaurant", "food", "point_of_interest", "establishment"], "user_ratings_total": 370, "vicinity": "2, 3 Pearse Square, Ballyvoloon, Cobh"}, {"business_status": "OPERATIONAL", "geometry": {"location": {"lat": 51.8504947, "lng": -8.2949475}, "viewport": {"northeast": {"lat": 51.85181732989273, "lng": -8.293668370107278}, "southwest": {"lat": 51.84911767010728, "lng": -8.296368029892722}}}, "icon": "https://maps.gstatic.com/mapfiles/place_api/icons/v1/png_71/bar-71.png", "icon_background_color": "#FF9E67", "icon_mask_base_uri": "https://maps.gstatic.com/mapfiles/place_api/icons/v2/bar_pinlet", "name": "Ryans Pub Cobh", "opening_hours": {"open_now": true}, "photos": [{"height": 1875, "html_attributions": ["<a href=\"https://maps.google.com/maps/contrib/117952315205991949272\">Brigitta Rametta</a>"], "photo_reference": "AUc7tXXB97EZd3xGEdUscFhZALeXleehZHMmlm_byZIOoxYquxYrSTRJhm9ecZDObcg2Mf1PUnwV5_V1gtJNk7ApXmKwyGpEAXq6f6k5wYp5tiUwtUVRI_4HC6bUia2G7QOMH-XXpRvrWgcc15bGAefTOiBLHCp4lNVH7U7IAwyz4gbaVq6I", "width": 2500}], "place_id": "ChIJcVR4EKSDREgRpW2ncux65kk", "plus_code": {"compound_code": "VP24+52 Cobh, County Cork, Ireland", "global_code": "9C3HVP24+52"}, "price_level": 1, "rating": 4.6, "reference": "ChIJcVR4EKSDREgRpW2ncux65kk", "scope": "GOOGLE", "types": ["bar", "restaurant", "food", "point_of_interest", "establishment"], "user_ratings_total": 173, "vicinity": "Casement Square, Ballyvoloon, Cobh"}, {"business_status": "OPERATIONAL", "geometry": {"location": {"lat": 51.8521775, "lng": -8.2820845}, "viewport": {"northeast": {"lat": 51.85352092989273, "lng": -8.28073282010728}, "southwest": {"lat": 51.85082127010728, "lng": -8.283432479892724}}}, "icon": "https://maps.gstatic.com/mapfiles/place_api/icons/v1/png_71/bar-71.png", "icon_background_color": "#FF9E67", "icon_mask_base_uri": "https://maps.gstatic.com/mapfiles/place_api/icons/v2/bar_pinlet", "name": "The Anchor Bar", "opening_hours": {"open_now": true}, "photos": [{"height": 4000, "html_attributions": ["<a href=\"https://maps.google.com/maps/contrib/115577972375575808388\">West Cork Weekends</a>"], "photo_reference": "AUc7tXUOelGxWhG9OxkSdk5mhqs_0V2oZEnDcHgevC1DcApnFxzyHWvdg1LRU4cjl52u7Npu8t9qfvZFvHsD-UjNfK4cV-_EGB4-80i6GGTMdS1jDktEtguwN8FHZe5f2ttZA__ORJSQu3jDVlW9_7hnWDNKsEMqAWDcXu9uwcwLOApvfs6r", "width": 6000}], "place_id": "ChIJaV80-KuDREgRmnXxhTy59yQ", "plus_code": {"compound_code": "VP29+V5 Cobh, County Cork, Ireland", "global_code": "9C3HVP29+V5"}, "price_level": 1, "rating": 4.5, "reference": "ChIJaV80-KuDREgRmnXxhTy59yQ", "scope": "GOOGLE", "types": ["bar", "restaurant", "food", "point_of_interest", "establishment"], "user_ratings_total": 70, "vicinity": "14 East Hill, Carrignafoy, Cobh"}, {"business_status": "OPERATIONAL", "geometry": {"location": {"lat": 51.85042379999999, "lng": -8.2918064}, "viewport": {"northeast": {"lat": 51.85172312989272, "lng": -8.290415770107277}, "southwest": {"lat": 51.84902347010728, "lng": -8.29311542989272}}}, "icon": "https://maps.gstatic.com/mapfiles/place_api/icons/v1/png_71/bar-71.png", "icon_background_color": "#FF9E67", "icon_mask_base_uri": "https://maps.gstatic.com/mapfiles/place_api/icons/v2/bar_pinlet", "name": "Connie Doolans Bar", "opening_hours": {"open_now": true}, "photos": [{"height": 3000, "html_attributions": ["<a href=\"https://maps.google.com/maps/contrib/117991320346567282310\">Dean Besler</a>"], "photo_reference": "AUc7tXVO9WuydKVTLGuCCIXwpephlh8D7JooanLmaweIHSbTllaHi2LpGIkjP6EsbXcP8c69e44a8edf9fGgGXsqaCXLX4qCQIuOsYhd1EoPy-sNRXMOtI0ZyBQiaBNRHiX4Y4CFiYRxh8rMWXaCd5CyOTprYmP8d4SNr0B_55SLtm6q_XPX", "width": 4000}], "place_id": "ChIJ-UzUxaWDREgRki6rDVAP16w", "plus_code": {"compound_code": "VP25+57 Cobh, County Cork, Ireland", "global_code": "9C3HVP25+57"}, "rating": 4.6, "reference": "ChIJ-UzUxaWDREgRki6rDVAP16w", "scope": "GOOGLE", "types": ["bar", "restaurant", "food", "point_of_interest", "establishment"], "user_ratings_total": 129, "vicinity": "26 West Beach, Kilgarvan, Cobh"}, {"business_status": "OPERATIONAL", "geometry": {"location": {"lat": 51.8543154, "lng": -8.311999799999999}, "viewport": {"northeast": {"lat": 51.85567642989272, "lng": -8.310605370107279}, "southwest": {"lat": 51.85297677010728, "lng": -8.313305029892723}}}, "icon": "https://maps.gstatic.com/mapfiles/place_api/icons/v1/png_71/bar-71.png", "icon_background_color": "#FF9E67", "icon_mask_base_uri": "https://maps.gstatic.com/mapfiles/place_api/icons/v2/bar_pinlet", "name": "The Village Inn", "opening_hours": {"open_now": true}, "photos": [{"height": 720, "html_attributions": ["<a href=\"https://maps.google.com/maps/contrib/113330161638863901715\">mick</a>"], "photo_reference": "AUc7tXW_YhtqIrYgZ_L1JQ1EZR2gR3idCTCG6jyJqOOSWsH6yC1gAjGOu_pCPlMrbCjcEW1Ox7QjyrhTSi8ePUeHez_Jj2VUeNdlyaXNCPgJTOyeiLL97lSpPgJ4iBACOrP0IthQL-ZERdYM0ECVCfLXVsWfJhbXRPPHwED_yR4NYXWBeyO2", "width": 1280}], "place_id": "ChIJC6UZ2Z2DREgRsWGIFXJ5tCc", "plus_code": {"compound_code": "VM3Q+P5 Cobh, County Cork, Ireland", "global_code": "9C3HVM3Q+P5"}, "price_level": 2, "rating": 4.3, "reference": "ChIJC6UZ2Z2DREgRsWGIFXJ5tCc", "scope": "GOOGLE", "types": ["bar", "restaurant", "food", "point_of_interest", "establishment"], "user_ratings_total": 86, "vicinity": "15 Newtown Rd, Ringmeen, Cobh"}, {"business_status": "OPERATIONAL", "geometry": {"location": {"lat": 51.853751, "lng": -8.295590299999999}, "viewport": {"northeast": {"lat": 51.85511592989273, "lng": -8.294145220107277}, "southwest": {"lat": 51.85241627010728, "lng": -8.29684487989272}}}, "icon": "https://maps.gstatic.com/mapfiles/place_api/icons/v1/png_71/bar-71.png", "icon_background_color": "#FF9E67", "icon_mask_base_uri": "https://maps.gstatic.com/mapfiles/place_api/icons/v2/bar_pinlet", "name": "The Roaring Donkey", "opening_hours": {"open_now": false}, "photos": [{"height": 3648, "html_attributions": ["<a href=\"https://maps.google.com/maps/contrib/116376356929155791219\">\u041d\u0435\u0434\u044f\u043b\u043a\u043e \u0413\u0435\u043d\u043a\u043e\u0432</a>"], "photo_reference": "AUc7tXUsskLhBR61w1zTiW2XnSr9L5KNNJKX87dZ_hEqFhCAvryRt7NNlrjRLpaOaJJ-O9xKpMlENcNBVW5e5dnO5FaGpQROyNRb_9w9dBT-MD1cEgyeVBEk8YAr1H4rMs8wThVZknOYRH7U0cmjhxUCAOmetpUvIIlAdl4bY7NPyzcRl3tw", "width": 2736}], "place_id": "ChIJI24BIKeDREgRmj96e3B2h0E", "plus_code": {"compound_code": "VP33+GQ Cobh, County Cork, Ireland", "global_code": "9C3HVP33+GQ"}, "price_level": 1, "rating": 4.8, "reference": "ChIJI24BIKeDREgRmj96e3B2h0E", "scope": "GOOGLE", "types": ["bar", "restaurant", "food", "point_of_interest", "establishment"], "user_ratings_total": 426, "vicinity": "6 Orilia Terrace, Kilgarvan, Cobh"}, {"business_status": "OPERATIONAL", "geometry": {"location": {"lat": 51.8497993, "lng": -8.2961143}, "viewport": {"northeast": {"lat": 51.85110572989272, "lng": -8.29472902010728}, "southwest": {"lat": 51.84840607010728, "lng": -8.297428679892723}}}, "icon": "https://maps.gstatic.com/mapfiles/place_api/icons/v1/png_71/bar-71.png", "icon_background_color": "#FF9E67", "icon_mask_base_uri": "https://maps.gstatic.com/mapfiles/place_api/icons/v2/bar_pinlet", "name": "O'Shea's Bar", "photos": [{"height": 2268, "html_attributions": ["<a href=\"https://maps.google.com/maps/contrib/116514399856364603059\">David Chin</a>"], "photo_reference": "AUc7tXXu5HWC1aGRLxUTH8ujzF4GOxIwOV6fI5_nuL_m1r0U_g5zZraFY9KHUBZEI3vReESJ3mxaj3Ba9PDHmyzk1CLmiNpDMzenWxdvU-tVwhHBHaQzGjsI6s39kIag3WGS5SINiuztyIachDSv26SIJbRt5WiRhy5x6xGYeYoEsjvxTrvp", "width": 4032}], "place_id": "ChIJ6-OgEYKDREgRkpL6Qnb4OQM", "plus_code": {"compound_code": "RPX3+WH Cobh, County Cork, Ireland", "global_code": "9C3HRPX3+WH"}, "rating": 4.1, "reference": "ChIJ6-OgEYKDREgRkpL6Qnb4OQM", "scope": "GOOGLE", "types": ["bar", "restaurant", "food", "point_of_interest", "establishment"], "user_ratings_total": 139, "vicinity": "4 Westbourne Pl, Ballyvoloon, Cobh"}, {"business_status": "OPERATIONAL", "geometry": {"location": {"lat": 51.857418, "lng": -8.3182882}, "viewport": {"northeast": {"lat": 51.85872332989273, "lng": -8.317012270107277}, "southwest": {"lat": 51.85602367010728, "lng": -8.319711929892721}}}, "icon": "https://maps.gstatic.com/mapfiles/place_api/icons/v1/png_71/bar-71.png", "icon_background_color": "#FF9E67", "icon_mask_base_uri": "https://maps.gstatic.com/mapfiles/place_api/icons/v2/bar_pinlet", "name": "The Ballynoe Inn", "opening_hours": {"open_now": false}, "photos": [{"height": 5504, "html_attributions": ["<a href=\"https://maps.google.com/maps/contrib/108072910311351463447\">Brian Donovan</a>"], "photo_reference": "AUc7tXVO_rMLKzgrFk4f60VM-X6qqs0JI4W4gQaFyoUXK7cAI0rRzxBRT-84eUTBeSN_oYlNwxRez4CwzrjedbyJhDlkhbMd43bYUaQxJRY-1y4HGENyTSKYW9SxuLo9Xso0oc602SQiyFmACFcz075Ym9A3UdCTckdg-c_2yGXlDWK_kWMO", "width": 4128}], "place_id": "ChIJg44dvKODREgRt-bKkWpP-ow", "plus_code": {"compound_code": "VM4J+XM Cobh, Kilgarvan, County Cork, Ireland", "global_code": "9C3HVM4J+XM"}, "price_level": 2, "rating": 4.5, "reference": "ChIJg44dvKODREgRt-bKkWpP-ow", "scope": "GOOGLE", "types": ["bar", "restaurant", "food", "point_of_interest", "establishment"], "user_ratings_total": 184, "vicinity": "Rushbrook Centre, Rushbrook Links, Cobh"}, {"business_status": "OPERATIONAL", "geometry": {"location": {"lat": 51.8505416, "lng": -8.2949623}, "viewport": {"northeast": {"lat": 51.85185547989272, "lng": -8.293692970107278}, "southwest": {"lat": 51.84915582010728, "lng": -8.296392629892722}}}, "icon": "https://maps.gstatic.com/mapfiles/place_api/icons/v1/png_71/bar-71.png", "icon_background_color": "#FF9E67", "icon_mask_base_uri": "https://maps.gstatic.com/mapfiles/place_api/icons/v2/bar_pinlet", "name": "Tarrants Bar / Off Licence", "opening_hours": {"open_now": false}, "photos": [{"height": 2976, "html_attributions": ["<a href=\"https://maps.google.com/maps/contrib/111790460587524292594\">Tarrants Bar</a>"], "photo_reference": "AUc7tXXqRZEw23xa_XTlY3mPd1d3r1GKYZbd5Bw6x7QsGBjc-UjFYGJ3pFEuort5jyQLChSmLtdR15Ap4lKERgRbR__TDq4QqGaIrg5x3tXd3CmGFA0n_u19_TPFtkYmFcKmYPQwFeR85RP5B7Bl_SQ6MJeBjUgnoO2dOHMZUW3K9KTaJ47Y", "width": 3968}], "place_id": "ChIJ_-gfGqSDREgRYJzmIYbXLBc", "plus_code": {"compound_code": "VP24+62 Cobh, County Cork, Ireland", "global_code": "9C3HVP24+62"}, "rating": 4.4, "reference": "ChIJ_-gfGqSDREgRYJzmIYbXLBc", "scope": "GOOGLE", "types": ["liquor_store", "bar", "restaurant", "food", "store", "point_of_interest", "establishment"], "user_ratings_total": 91, "vicinity": "11 Casement Square, Ballyvoloon, Cobh"}, {"business_status": "OPERATIONAL", "geometry": {"location": {"lat": 51.8499086, "lng": -8.2944993}, "viewport": {"northeast": {"lat": 51.85143257989272, "lng": -8.293257170107278}, "southwest": {"lat": 51.84873292010728, "lng": -8.295956829892722}}}, "icon": "https://maps.gstatic.com/mapfiles/place_api/icons/v1/png_71/bar-71.png", "icon_background_color": "#FF9E67", "icon_mask_base_uri": "https://maps.gstatic.com/mapfiles/place_api/icons/v2/bar_pinlet", "name": "Titanic Bar and Grill", "opening_hours": {"open_now": false}, "photos": [{"height": 670, "html_attributions": ["<a href=\"https://maps.google.com/maps/contrib/107196478597141714895\">Titanic Bar and Grill</a>"], "photo_reference": "AUc7tXXeOmq1ZMpdjfOZ68jRXQukr2fbAa1N2P48Xah1wuG0Cib66AiwbH2I6Snh__UVI0rEqJjOQNta7QzvJQeJHqEGA5NaM0UL6Dkram7CSMGpdvV8Hemmii3gDJSBvIwbDyVQhPfKvjcV5xknzBpqdtZgeje_XVKqRw8HM7Y1EjJt1Mk7", "width": 1200}], "place_id": "ChIJuduOEaSDREgRNll3i0iIq_w", "plus_code": {"compound_code": "RPX4+X6 Cobh, County Cork, Ireland", "global_code": "9C3HRPX4+X6"}, "price_level": 2, "rating": 4.4, "reference": "ChIJuduOEaSDREgRNll3i0iIq_w", "scope": "GOOGLE", "types": ["bar", "restaurant", "food", "point_of_interest", "establishment"], "user_ratings_total": 1315, "vicinity": "20 Casement Square, Cobh"}, {"business_status": "OPERATIONAL", "geometry": {"location": {"lat": 51.8490741, "lng": -8.297525799999999}, "viewport": {"northeast": {"lat": 51.85048397989272, "lng": -8.296192670107278}, "southwest": {"lat": 51.84778432010727, "lng": -8.298892329892722}}}, "icon": "https://maps.gstatic.com/mapfiles/place_api/icons/v1/png_71/restaurant-71.png", "icon_background_color": "#FF9E67", "icon_mask_base_uri": "https://maps.gstatic.com/mapfiles/place_api/icons/v2/restaurant_pinlet", "name": "The Quays Bar & Restaurant", "opening_hours": {"open_now": false}, "photos": [{"height": 3024, "html_attributions": ["<a href=\"https://maps.google.com/maps/contrib/109368579726869469038\">Kyle Burriss</a>"], "photo_reference": "AUc7tXVBpOi6pPuIvnJloCwyQpCUWzps5oqyOmNRsFeH70mbRh60QdFZvLD4JN0JmzN2ho9SjXDQ567pvTzNbvHHtlMkRpYKGz9r6saZ653klgkgJnVvuixHevMq5XZo4gH637iXfnCnjG8RhJna1Y7Mkj1vBkI6ICh09WVFeMhnK659cnBU", "width": 4032}], "place_id": "ChIJ05XPl6ODREgRH5pYsavmmaY", "plus_code": {"compound_code": "RPX2+JX Cobh, County Cork, Ireland", "global_code": "9C3HRPX2+JX"}, "price_level": 2, "rating": 4.3, "reference": "ChIJ05XPl6ODREgRH5pYsavmmaY", "scope": "GOOGLE", "types": ["restaurant", "food", "point_of_interest", "establishment"], "user_ratings_total": 974, "vicinity": "Westbourne Pl, Ballyvoloon, Cobh"}, {"business_status": "OPERATIONAL", "geometry": {"location": {"lat": 51.8504786, "lng": -8.295349}, "viewport": {"northeast": {"lat": 51.85182077989272, "lng": -8.29392417010728}, "southwest": {"lat": 51.84912112010728, "lng": -8.296623829892724}}}, "icon": "https://maps.gstatic.com/mapfiles/place_api/icons/v1/png_71/cafe-71.png", "icon_background_color": "#FF9E67", "icon_mask_base_uri": "https://maps.gstatic.com/mapfiles/place_api/icons/v2/cafe_pinlet", "name": "The Arch - Cafe & Wine Bar", "opening_hours": {"open_now": true}, "photos": [{"height": 3024, "html_attributions": ["<a href=\"https://maps.google.com/maps/contrib/109368579726869469038\">Kyle Burriss</a>"], "photo_reference": "AUc7tXUZdYWT0oIl_JOqF9gasLeXDO7t3XSchOrJCAufnvoeGDVMnlPzBgB2ynr_GK9Zqbo1rrSD-I4PsUP7ihhf2OYjq812Ki3Z9tua5PpK448xO46gqwrJ4j7Qbo9IMx7ANag_1tj6RZl_6U9rvuATszvWP389L3lSxQVEJ0BI_PslZI9I", "width": 4032}], "place_id": "ChIJXzu-LvmDREgRwiD5t6Krwj0", "plus_code": {"compound_code": "VP23+5V Cobh, County Cork, Ireland", "global_code": "9C3HVP23+5V"}, "rating": 4.8, "reference": "ChIJXzu-LvmDREgRwiD5t6Krwj0", "scope": "GOOGLE", "types": ["cafe", "bar", "restaurant", "food", "store", "point_of_interest", "establishment"], "user_ratings_total": 93, "vicinity": "5 Casement Square, Ballyvoloon, Cobh"}, {"business_status": "OPERATIONAL", "geometry": {"location": {"lat": 51.8506379, "lng": -8.2942922}, "viewport": {"northeast": {"lat": 51.85197277989273, "lng": -8.29304862010728}, "southwest": {"lat": 51.84927312010728, "lng": -8.295748279892724}}}, "icon": "https://maps.gstatic.com/mapfiles/place_api/icons/v1/png_71/restaurant-71.png", "icon_background_color": "#FF9E67", "icon_mask_base_uri": "https://maps.gstatic.com/mapfiles/place_api/icons/v2/restaurant_pinlet", "name": "The Mex", "opening_hours": {"open_now": true}, "photos": [{"height": 4000, "html_attributions": ["<a href=\"https://maps.google.com/maps/contrib/116973510147622187367\">5am</a>"], "photo_reference": "AUc7tXW-cUSvdSA6-YOKjS__6fE9vllz56GjFYGfIOjB0ZmVbvrgHYdZMN2MK6b0i1QafaKrQG8yODJF3pSZq7zPb0WXACjrlJ8inMVBo52W9lFA-yG8pMh0MMrpP2OnnnViRXhu7WRtHmJJvNHgTwrO97SH4p2wFH43PObP1O_JSrtWbNtp", "width": 3000}], "place_id": "ChIJb8ljlUGDREgRq_5wWg_wElI", "plus_code": {"compound_code": "VP24+77 Cobh, County Cork, Ireland", "global_code": "9C3HVP24+77"}, "rating": 4.7, "reference": "ChIJb8ljlUGDREgRq_5wWg_wElI", "scope": "GOOGLE", "types": ["restaurant", "food", "point_of_interest", "establishment"], "user_ratings_total": 58, "vicinity": "14 Pearse Square, Kilgarvan, Cobh"}, {"business_status": "OPERATIONAL", "geometry": {"location": {"lat": 51.8501805, "lng": -8.295363}, "viewport": {"northeast": {"lat": 51.85154692989272, "lng": -8.293901570107279}, "southwest": {"lat": 51.84884727010728, "lng": -8.296601229892723}}}, "icon": "https://maps.gstatic.com/mapfiles/place_api/icons/v1/png_71/restaurant-71.png", "icon_background_color": "#FF9E67", "icon_mask_base_uri": "https://maps.gstatic.com/mapfiles/place_api/icons/v2/restaurant_pinlet", "name": "Supermac's & Papa John's", "opening_hours": {"open_now": true}, "photos": [{"height": 4000, "html_attributions": ["<a href=\"https://maps.google.com/maps/contrib/115577972375575808388\">West Cork Weekends</a>"], "photo_reference": "AUc7tXUiJ0K6c7iPDiMcpmeKE-mOpVsZ1BtLl_PqYBB0sPAAHsfeW1yeV0_awe2Uc5BQOI38J4F4gpcyt6pJKe1aNQRj6iLce7CKsTlBWSNQYS9fWYTvwnU6wVYIetHxFN10cpasufldSDQCFvhe-XWXTQ0dV9zsS4MweXU9hDXgOKvyUa2r", "width": 6000}], "place_id": "ChIJA4MyDqSDREgRT8PKZJq8twQ", "plus_code": {"compound_code": "VP23+3V Cobh, County Cork, Ireland", "global_code": "9C3HVP23+3V"}, "price_level": 1, "rating": 3.7, "reference": "ChIJA4MyDqSDREgRT8PKZJq8twQ", "scope": "GOOGLE", "types": ["meal_delivery", "restaurant", "food", "point_of_interest", "establishment"], "user_ratings_total": 435, "vicinity": "2 Casement Square, Ballyvoloon, Cobh"}, {"business_status": "CLOSED_TEMPORARILY", "geometry": {"location": {"lat": 51.8507575, "lng": -8.2943449}, "viewport": {"northeast": {"lat": 51.85209222989272, "lng": -8.293097670107278}, "southwest": {"lat": 51.84939257010728, "lng": -8.295797329892721}}}, "icon": "https://maps.gstatic.com/mapfiles/place_api/icons/v1/png_71/restaurant-71.png", "icon_background_color": "#FF9E67", "icon_mask_base_uri": "https://maps.gstatic.com/mapfiles/place_api/icons/v2/restaurant_pinlet", "name": "Gilbert's Bistro in the Square", "permanently_closed": true, "photos": [{"height": 3456, "html_attributions": ["<a href=\"https://maps.google.com/maps/contrib/113164696041785989339\">Kim Long Wong</a>"], "photo_reference": "AUc7tXUo7RlEg_0j_w6jZNzifDrAGUvEsGfZ5BTSvD3c3pAi_hmcr_E53Ox8I7Ro162WvzvQn0T_5sp1o_8LS0AiXfiBrGAJkxOql7wyQRLR_20-V7j-HR7LKj9VdjjBFAwdEquLndpAS_V2abSGFCT2nEGTJ89l5gBTTDt2b5O_iYS8ug1P", "width": 4608}], "place_id": "ChIJpa8HIqSDREgR-ExdEYS566g", "plus_code": {"compound_code": "VP24+87 Cobh, County Cork, Ireland", "global_code": "9C3HVP24+87"}, "price_level": 2, "rating": 4.2, "reference": "ChIJpa8HIqSDREgR-ExdEYS566g", "scope": "GOOGLE", "types": ["restaurant", "food", "point_of_interest", "establishment"], "user_ratings_total": 161, "vicinity": "11 Pearse Square, Kilgarvan, Cobh"}, {"business_status": "OPERATIONAL", "geometry": {"location": {"lat": 51.8504692, "lng": -8.292934899999999}, "viewport": {"northeast": {"lat": 51.85175902989272, "lng": -8.291625670107276}, "southwest": {"lat": 51.84905937010728, "lng": -8.29432532989272}}}, "icon": "https://maps.gstatic.com/mapfiles/place_api/icons/v1/png_71/cafe-71.png", "icon_background_color": "#FF9E67", "icon_mask_base_uri": "https://maps.gstatic.com/mapfiles/place_api/icons/v2/cafe_pinlet", "name": "Coffee Cove", "opening_hours": {"open_now": true}, "photos": [{"height": 3024, "html_attributions": ["<a href=\"https://maps.google.com/maps/contrib/109368579726869469038\">Kyle Burriss</a>"], "photo_reference": "AUc7tXWW7lI2P4TmxNnKaLXWGM9cB3rCCsDxfA5cXJ606KSzUC-6v6X_ghwQNAthI07uE4G1C3CI4y95e6p2AVRIQEll48lPwQEqBWeYv6SFZ7jZeiD1Q3Hf7BJSW2U4mC12eLMfE7TDBRlycWjkcuOECP4zNTZcd9dzFGskTK8ntNR-YxAT", "width": 4032}], "place_id": "ChIJGe75MqSDREgR4QK56gtTSY0", "plus_code": {"compound_code": "VP24+5R Cobh, County Cork, Ireland", "global_code": "9C3HVP24+5R"}, "price_level": 1, "rating": 4.6, "reference": "ChIJGe75MqSDREgR4QK56gtTSY0", "scope": "GOOGLE", "types": ["cafe", "bakery", "restaurant", "food", "store", "point_of_interest", "establishment"], "user_ratings_total": 193, "vicinity": "w, 15 West Beach, Cobh"}, {"business_status": "OPERATIONAL", "geometry": {"location": {"lat": 51.8505998, "lng": -8.2950137}, "viewport": {"northeast": {"lat": 51.85193377989273, "lng": -8.29375967010728}, "southwest": {"lat": 51.84923412010728, "lng": -8.296459329892723}}}, "icon": "https://maps.gstatic.com/mapfiles/place_api/icons/v1/png_71/restaurant-71.png", "icon_background_color": "#FF9E67", "icon_mask_base_uri": "https://maps.gstatic.com/mapfiles/place_api/icons/v2/restaurant_pinlet", "name": "Cafe Vega", "opening_hours": {"open_now": false}, "photos": [{"height": 4000, "html_attributions": ["<a href=\"https://maps.google.com/maps/contrib/115577972375575808388\">West Cork Weekends</a>"], "photo_reference": "AUc7tXVpY6J8h0pYq2VjWUoF51vIoJ5eU0zx5mVF8ZKxGpxb6tAdc88Np1Wyils5anl2YIEE4At2KP5ER_IVsBk2_Bq6M3_fS4oaJB2_EMq9lK7OutWlBX7imv5MtlKAwBgIRcdWaTuu3uCfTjB7SejQ5mJtef6eVV9T8_SwnznvZitPx31j", "width": 6000}], "place_id": "ChIJ5bqHiCWDREgR_lKtE0eW3jM", "plus_code": {"compound_code": "VP23+6X Cobh, County Cork, Ireland", "global_code": "9C3HVP23+6X"}, "rating": 4.7, "reference": "ChIJ5bqHiCWDREgR_lKtE0eW3jM", "scope": "GOOGLE", "types": ["restaurant", "food", "point_of_interest", "establishment"], "user_ratings_total": 83, "vicinity": "6 Casement Square, Ballyvoloon, Cobh"}]