[{"business_status": "OPERATIONAL", "geometry": {"location": {"lat": 44.43469830000001, "lng": 26.1001268}, "viewport": {"northeast": {"lat": 44.43610757989273, "lng": 26.10148212989272}, "southwest": {"lat": 44.43340792010729, "lng": 26.09878247010727}}}, "icon": "https://maps.gstatic.com/mapfiles/place_api/icons/v1/png_71/bar-71.png", "icon_background_color": "#FF9E67", "icon_mask_base_uri": "https://maps.gstatic.com/mapfiles/place_api/icons/v2/bar_pinlet", "name": "The PUB Bucharest", "opening_hours": {"open_now": true}, "photos": [{"height": 2160, "html_attributions": ["<a href=\"https://maps.google.com/maps/contrib/111872600661113077920\">A Google User</a>"], "photo_reference": "AUGGfZn648IHHnHBtWnY1sTgKrxN9VFM065ns9JmCl_Z8UZwJOJ9H4KwvLj4SJRQWwXsmVs1S46f-1t5dfMuJIuY-oN54FruWek3-pCTkfS7iLWNAaXAvUwZRZIpLoP-QYx2CU30vR8pdY8J-wlM2IlA4qQ6QqTRBFNfIqQV28flo_MKFGbj", "width": 3840}], "place_id": "ChIJRfDHy0D_sUAR5K0Q17mMaDQ", "plus_code": {"compound_code": "C4M2+V3 Bucharest, Romania", "global_code": "8GP8C4M2+V3"}, "price_level": 2, "rating": 4.3, "reference": "ChIJRfDHy0D_sUAR5K0Q17mMaDQ", "scope": "GOOGLE", "types": ["bar", "point_of_interest", "establishment"], "user_ratings_total": 3419, "vicinity": "Bulevardul Regina Elisabeta 9, Bucure\u0219ti"}, {"business_status": "OPERATIONAL", "geometry": {"location": {"lat": 44.4438466, "lng": 26.0948713}, "viewport": {"northeast": {"lat": 44.44510012989272, "lng": 26.09622567989272}, "southwest": {"lat": 44.44240047010728, "lng": 26.09352602010727}}}, "icon": "https://maps.gstatic.com/mapfiles/place_api/icons/v1/png_71/bar-71.png", "icon_background_color": "#FF9E67", "icon_mask_base_uri": "https://maps.gstatic.com/mapfiles/place_api/icons/v2/bar_pinlet", "name": "Ryan's Pub", "opening_hours": {"open_now": true}, "photos": [{"height": 3024, "html_attributions": ["<a href=\"https://maps.google.com/maps/contrib/114585766569384512825\">Ovidiu B</a>"], "photo_reference": "AUGGfZm6g2Zm_0lYYgP0eJmex5k3nqJclI3U_lShFiMLQ1vKKCsj8WY7t9xMKn_VL-M7Cd0GEEMiZ1o7xGiHeiMkwUhTxIIkQdc4wl9AvPN4UHBPABF8C-E0xzNzeYqhku-v3vsBvKNnp2WZP5Sfl1xmYETN83WDVO_R_DDIJDTUF_pNVdep", "width": 4032}], "place_id": "ChIJjW3g01H_sUAROimaVrK7248", "plus_code": {"compound_code": "C3VV+GW Bucharest, Romania", "global_code": "8GP8C3VV+GW"}, "price_level": 2, "rating": 4.3, "reference": "ChIJjW3g01H_sUAROimaVrK7248", "scope": "GOOGLE", "types": ["bar", "restaurant", "food", "point_of_interest", "establishment"], "user_ratings_total": 1350, "vicinity": "Strada Pia\u021ba Amzei 13, Bucure\u0219ti"}, {"business_status": "OPERATIONAL", "geometry": {"location": {"lat": 44.4312402, "lng": 26.1022899}, "viewport": {"northeast": {"lat": 44.43297017989271, "lng": 26.10380112989272}, "southwest": {"lat": 44.43027052010726, "lng": 26.10110147010728}}}, "icon": "https://maps.gstatic.com/mapfiles/place_api/icons/v1/png_71/bar-71.png", "icon_background_color": "#FF9E67", "icon_mask_base_uri": "https://maps.gstatic.com/mapfiles/place_api/icons/v2/bar_pinlet", "name": "Halftime Pub", "opening_hours": {"open_now": true}, "photos": [{"height": 4000, "html_attributions": ["<a href=\"https://maps.google.com/maps/contrib/115828250580707761780\">Octavian-Petru Jascu</a>"], "photo_reference": "AUGGfZkdJVcS4sZ75SszwD3hmUGnJ8fBB3uS-EzSk4CyoTgN8SjUE4SC4wU1wdJdRat6dRkZs_xr7ng1GuSbzU1jun7r_eC01TVzCqMSj9_JZ7fvrXzJ1wq4o3f3mmEYYN5OuAQhjSMd0BReJlxQAYRBITkdeGmHhnpGih3HYLhLjlTQohxX", "width": 3000}], "place_id": "ChIJpf6IrT__sUARv0j5X56xmJU", "plus_code": {"compound_code": "C4J2+FW Bucharest, Romania", "global_code": "8GP8C4J2+FW"}, "price_level": 2, "rating": 4.5, "reference": "ChIJpf6IrT__sUARv0j5X56xmJU", "scope": "GOOGLE", "types": ["bar", "restaurant", "food", "point_of_interest", "establishment"], "user_ratings_total": 746, "vicinity": "Strada Gabroveni 14, Bucure\u0219ti"}, {"business_status": "OPERATIONAL", "geometry": {"location": {"lat": 44.4309325, "lng": 26.101254}, "viewport": {"northeast": {"lat": 44.43229147989273, "lng": 26.10259382989272}, "southwest": {"lat": 44.42959182010728, "lng": 26.09989417010728}}}, "icon": "https://maps.gstatic.com/mapfiles/place_api/icons/v1/png_71/bar-71.png", "icon_background_color": "#FF9E67", "icon_mask_base_uri": "https://maps.gstatic.com/mapfiles/place_api/icons/v2/bar_pinlet", "name": "Boulevard Pub", "opening_hours": {"open_now": true}, "photos": [{"height": 640, "html_attributions": ["<a href=\"https://maps.google.com/maps/contrib/118174182820731740297\">Boulevard Pub</a>"], "photo_reference": "AUGGfZn27m8HhlXW7SFPX9jQxe4rjqsR5wiwpAbVZ6BG1hoARIx95OVJxZDPZaxleCBWDUxiO5O7E_uvaLkwA8gOwGXrW3OTMUD5nRwWBq2_rxOxtOmAmMzBDYko1nQAhEh8atRKXvlgzBAQRXGTN7NIfvUOIAKOCeqaqiaDB6mSI1yhlxJl", "width": 960}], "place_id": "ChIJIRf1uD__sUARRU95HMV7W60", "plus_code": {"compound_code": "C4J2+9G Bucharest, Romania", "global_code": "8GP8C4J2+9G"}, "price_level": 2, "rating": 4.6, "reference": "ChIJIRf1uD__sUARRU95HMV7W60", "scope": "GOOGLE", "types": ["bar", "restaurant", "food", "point_of_interest", "establishment"], "user_ratings_total": 686, "vicinity": "Strada Covaci 4, Bucure\u0219ti"}, {"business_status": "OPERATIONAL", "geometry": {"location": {"lat": 44.4296145, "lng": 26.100499}, "viewport": {"northeast": {"lat": 44.43093822989272, "lng": 26.10175257989272}, "southwest": {"lat": 44.42823857010728, "lng": 26.09905292010728}}}, "icon": "https://maps.gstatic.com/mapfiles/place_api/icons/v1/png_71/bar-71.png", "icon_background_color": "#FF9E67", "icon_mask_base_uri": "https://maps.gstatic.com/mapfiles/place_api/icons/v2/bar_pinlet", "name": "Big Ben Pub", "opening_hours": {"open_now": true}, "photos": [{"height": 3024, "html_attributions": ["<a href=\"https://maps.google.com/maps/contrib/116863892713276471891\">Cristian Bacanu</a>"], "photo_reference": "AUGGfZkndZUVaoEdyb4XTJCpjkQUkuQgwk9JF1RgUjIqU70hz_leOyKjPzkL1RNXiQpyKPviahXlWUeHUUelhiMjOrdP53grbWixlLJL99xkj_tSZbDpxQdlXJ8gVbT7D9tkmM1sCQPxOmK2pMprT0ZKjTbxdifp8bpF3nsDWKa793chK_9N", "width": 4032}], "place_id": "ChIJ_Q2AfBX_sUARp4pELWAtgn4", "plus_code": {"compound_code": "C4H2+R5 Bucharest, Romania", "global_code": "8GP8C4H2+R5"}, "price_level": 2, "rating": 4.1, "reference": "ChIJ_Q2AfBX_sUARp4pELWAtgn4", "scope": "GOOGLE", "types": ["bar", "point_of_interest", "establishment"], "user_ratings_total": 2751, "vicinity": "Strada Halelor 1, Bucure\u0219ti"}, {"business_status": "OPERATIONAL", "geometry": {"location": {"lat": 44.43195069999999, "lng": 26.101052}, "viewport": {"northeast": {"lat": 44.43354177989272, "lng": 26.10238867989272}, "southwest": {"lat": 44.43084212010728, "lng": 26.09968902010727}}}, "icon": "https://maps.gstatic.com/mapfiles/place_api/icons/v1/png_71/bar-71.png", "icon_background_color": "#FF9E67", "icon_mask_base_uri": "https://maps.gstatic.com/mapfiles/place_api/icons/v2/bar_pinlet", "name": "Jack's Pub", "opening_hours": {"open_now": true}, "photos": [{"height": 4032, "html_attributions": ["<a href=\"https://maps.google.com/maps/contrib/118088044931392709214\">A Google User</a>"], "photo_reference": "AUGGfZlBSRrXGIk4mkzYf7w3gsBTmT9y91odORuP7xVOcl2bJJFmjMdxeJuZqw7tx220PSIHprfovOfZVLmys3Bf33NHzcncymBqbNB3M2MTy352-FmbJKusc0lsKbcG-OqDrzAenN-y4m1GJ4uiLtbOFlV_w-lLH_10ZSEAiThECpvUeBqL", "width": 3024}], "place_id": "ChIJLzzknj__sUARhbf_M0PQL4c", "plus_code": {"compound_code": "C4J2+QC Bucharest, Romania", "global_code": "8GP8C4J2+QC"}, "price_level": 2, "rating": 4.1, "reference": "ChIJLzzknj__sUARhbf_M0PQL4c", "scope": "GOOGLE", "types": ["bar", "point_of_interest", "establishment"], "user_ratings_total": 1958, "vicinity": "Strada Lipscani 45, Bucure\u0219ti"}, {"business_status": "OPERATIONAL", "geometry": {"location": {"lat": 44.4299252, "lng": 26.1000566}, "viewport": {"northeast": {"lat": 44.43111282989272, "lng": 26.10148442989272}, "southwest": {"lat": 44.42841317010728, "lng": 26.09878477010728}}}, "icon": "https://maps.gstatic.com/mapfiles/place_api/icons/v1/png_71/restaurant-71.png", "icon_background_color": "#FF9E67", "icon_mask_base_uri": "https://maps.gstatic.com/mapfiles/place_api/icons/v2/restaurant_pinlet", "name": "Kilkenny Irish Pub", "opening_hours": {"open_now": true}, "photos": [{"height": 3024, "html_attributions": ["<a href=\"https://maps.google.com/maps/contrib/109164666681560045695\">A Google User</a>"], "photo_reference": "AUGGfZl9qVeq9CW7wxzQmTAVB74E7rhmHtRJ5tI4KW6onU5J8OMNkCgNE4rJUgcwTY3HUrVXq-oXIjLtlp5PoYdIwzQ58C7PQ8MiDz1qVS5f_u74Sa_zGFSLygXyivdd8oxHBm0pZ9eQcZJOk7aYUm0tUmziOIzvMWyhhC_Ih-s33iph6GVf", "width": 4032}], "place_id": "ChIJlR_o2D__sUARgZkJ6KWK08Y", "plus_code": {"compound_code": "C4H2+X2 Bucharest, Romania", "global_code": "8GP8C4H2+X2"}, "price_level": 2, "rating": 4.1, "reference": "ChIJlR_o2D__sUARgZkJ6KWK08Y", "scope": "GOOGLE", "types": ["bar", "restaurant", "food", "point_of_interest", "establishment"], "user_ratings_total": 1661, "vicinity": "Str. Francez\u0103 46, Bucure\u0219ti"}, {"business_status": "OPERATIONAL", "geometry": {"location": {"lat": 44.4256322, "lng": 26.103062}, "viewport": {"northeast": {"lat": 44.42699722989272, "lng": 26.10444927989272}, "southwest": {"lat": 44.42429757010727, "lng": 26.10174962010727}}}, "icon": "https://maps.gstatic.com/mapfiles/place_api/icons/v1/png_71/bar-71.png", "icon_background_color": "#FF9E67", "icon_mask_base_uri": "https://maps.gstatic.com/mapfiles/place_api/icons/v2/bar_pinlet", "name": "The Harp Irish Pub", "opening_hours": {"open_now": true}, "photos": [{"height": 1365, "html_attributions": ["<a href=\"https://maps.google.com/maps/contrib/101519758364630536664\">Irish Pub &quot;The Harp&quot;</a>"], "photo_reference": "AUGGfZnGUCQ3vgL67XpAcyfNYIdSHs15m1TF2Kb4PILKXEJWxywjjzCQy_pTPnmgwZQcloAkZmKfiiDd0tWygt1_oVPnbAjduw4XUD2u-daXQpCGhT1_3mdmCEWv4KNhFCjN1tkpTgM0Sf7r-errqmaDH8tdUlymoTgfbwWb-QGAdNjnc0gA", "width": 2048}], "place_id": "ChIJKXTX6xb_sUARsT8JRpZ145g", "plus_code": {"compound_code": "C4G3+76 Bucharest, Romania", "global_code": "8GP8C4G3+76"}, "price_level": 2, "rating": 4.3, "reference": "ChIJKXTX6xb_sUARsT8JRpZ145g", "scope": "GOOGLE", "types": ["bar", "restaurant", "food", "point_of_interest", "establishment"], "user_ratings_total": 4300, "vicinity": "Strada Bibescu Vod\u0103 1, Bucure\u0219ti"}, {"business_status": "OPERATIONAL", "geometry": {"location": {"lat": 44.4395611, "lng": 26.1039157}, "viewport": {"northeast": {"lat": 44.44092532989273, "lng": 26.10531827989272}, "southwest": {"lat": 44.43822567010728, "lng": 26.10261862010728}}}, "icon": "https://maps.gstatic.com/mapfiles/place_api/icons/v1/png_71/bar-71.png", "icon_background_color": "#FF9E67", "icon_mask_base_uri": "https://maps.gstatic.com/mapfiles/place_api/icons/v2/bar_pinlet", "name": "QP Pub", "opening_hours": {"open_now": true}, "photos": [{"height": 3664, "html_attributions": ["<a href=\"https://maps.google.com/maps/contrib/115051806259895036857\">A Google User</a>"], "photo_reference": "AUGGfZnKNkhxYkmLHxkKjGjvGo7gAr8bHh5UczyXeKnsFFxvly9rYDRnyQi4yiX49Upxh9MAIBmBtDbHmgdvEkJR3qfkD0Cy9PIi5ftQqwt5Koz_-Yx4r4MV-S-HR-TQvGFEwCXN2nvXCFYQoreVBA78F7YCFDmeUtrdUufouGLsD9pBuw7g", "width": 5496}], "place_id": "ChIJE4yXZUj_sUARnaNfx0WjgvM", "plus_code": {"compound_code": "C4Q3+RH Bucharest, Romania", "global_code": "8GP8C4Q3+RH"}, "price_level": 2, "rating": 4.7, "reference": "ChIJE4yXZUj_sUARnaNfx0WjgvM", "scope": "GOOGLE", "types": ["bar", "restaurant", "food", "point_of_interest", "establishment"], "user_ratings_total": 1194, "vicinity": "Str. Praporgescu David,Gen., 13, Bucuresti-Sector 2, Bucuresti, 20968, Bucure\u0219ti"}, {"business_status": "OPERATIONAL", "geometry": {"location": {"lat": 44.4306411, "lng": 26.1007813}, "viewport": {"northeast": {"lat": 44.43142587989272, "lng": 26.10183332989272}, "southwest": {"lat": 44.42872622010727, "lng": 26.09913367010728}}}, "icon": "https://maps.gstatic.com/mapfiles/place_api/icons/v1/png_71/bar-71.png", "icon_background_color": "#FF9E67", "icon_mask_base_uri": "https://maps.gstatic.com/mapfiles/place_api/icons/v2/bar_pinlet", "name": "Trinity College Pub", "opening_hours": {"open_now": true}, "photos": [{"height": 1536, "html_attributions": ["<a href=\"https://maps.google.com/maps/contrib/107754188409924368523\">Marco Coaccioli</a>"], "photo_reference": "AUGGfZkbCXXT9Wcqw7wKCFwMf2-5cy61QD9G8J1QouLyNvtd74RlrpKcdMUVHmblO3PFhf6FRlesVv7ubcSh3upIVG8BT5XTEOUwbJ7MxhUYXnhGRLM7PQ0pQexguvfftL-BAEBa_aQEBkporbie4_VrvbJEVk0BcCgGzG-Jcc9EvRAMavWO", "width": 2048}], "place_id": "ChIJP74exT__sUARynzA4Tkee5k", "plus_code": {"compound_code": "C4J2+78 Bucharest, Romania", "global_code": "8GP8C4J2+78"}, "price_level": 2, "rating": 3.9, "reference": "ChIJP74exT__sUARynzA4Tkee5k", "scope": "GOOGLE", "types": ["night_club", "bar", "point_of_interest", "establishment"], "user_ratings_total": 744, "vicinity": "Strada \u0218elari 9-11, Bucure\u0219ti"}, {"business_status": "OPERATIONAL", "geometry": {"location": {"lat": 44.444899, "lng": 26.1016331}, "viewport": {"northeast": {"lat": 44.44629477989272, "lng": 26.10302872989272}, "southwest": {"lat": 44.44359512010728, "lng": 26.10032907010728}}}, "icon": "https://maps.gstatic.com/mapfiles/place_api/icons/v1/png_71/bar-71.png", "icon_background_color": "#FF9E67", "icon_mask_base_uri": "https://maps.gstatic.com/mapfiles/place_api/icons/v2/bar_pinlet", "name": "Shift", "opening_hours": {"open_now": true}, "photos": [{"height": 3448, "html_attributions": ["<a href=\"https://maps.google.com/maps/contrib/110760171720061955842\">Mondan Andreea</a>"], "photo_reference": "AUGGfZlYupQlNHUFnuoBPGOvHYdwvukC1TZ1vrjUrZBIFhooGqvDhxTJnLpIDkIS8c_TVYkPhDDa8U_72ZT5nssYFdF1btqHIEOHFzeTBmh8GcfgoG47mrYOCkULQ_v3mdZnKLgkE1jSIOnSHCE33BHJVORQc_4FDg5GHW_aFLUGZe3ZA0H7", "width": 4592}], "place_id": "ChIJmXZCGEz_sUARnpzkDgw9PF0", "plus_code": {"compound_code": "C4V2+XM Bucharest, Romania", "global_code": "8GP8C4V2+XM"}, "price_level": 2, "rating": 4.5, "reference": "ChIJmXZCGEz_sUARnpzkDgw9PF0", "scope": "GOOGLE", "types": ["park", "bar", "restaurant", "food", "point_of_interest", "establishment"], "user_ratings_total": 4595, "vicinity": "Avenue, Strada General Eremia Grigorescu 17, Bucure\u0219ti"}, {"business_status": "OPERATIONAL", "geometry": {"location": {"lat": 44.4463871, "lng": 26.1255783}, "viewport": {"northeast": {"lat": 44.44776017989272, "lng": 26.12700487989272}, "southwest": {"lat": 44.44506052010728, "lng": 26.12430522010728}}}, "icon": "https://maps.gstatic.com/mapfiles/place_api/icons/v1/png_71/restaurant-71.png", "icon_background_color": "#FF9E67", "icon_mask_base_uri": "https://maps.gstatic.com/mapfiles/place_api/icons/v2/restaurant_pinlet", "name": "Hashtag Pub", "opening_hours": {"open_now": true}, "photos": [{"height": 640, "html_attributions": ["<a href=\"https://maps.google.com/maps/contrib/111436754025921900383\">Preodisteanu Marius</a>"], "photo_reference": "AUGGfZma3PemHQ12CITxabUcQ7B99FoQGe-BuEchCIAymKiY3eirEvDBb6_wlvOJsYqSw5dXBiDBaIE7RNX2eoI57bnNqy6Yd2ZhRN17By43jYA1bVjAFyG013BnWHVUbG1ZZ_CmEggpgt-SqNQSEpKLK8u2tlC13xEElIRmoeidnwFadM1c", "width": 853}], "place_id": "ChIJp-gOrc34sUARquv11oyLq_Y", "plus_code": {"compound_code": "C4WG+H6 Bucharest, Romania", "global_code": "8GP8C4WG+H6"}, "price_level": 2, "rating": 4.3, "reference": "ChIJp-gOrc34sUARquv11oyLq_Y", "scope": "GOOGLE", "types": ["bar", "restaurant", "food", "point_of_interest", "establishment"], "user_ratings_total": 2670, "vicinity": "\u0218oseaua Mihai Bravu 32, Bucure\u0219ti"}, {"business_status": "OPERATIONAL", "geometry": {"location": {"lat": 44.420758, "lng": 26.1021075}, "viewport": {"northeast": {"lat": 44.42208532989272, "lng": 26.10356382989272}, "southwest": {"lat": 44.41938567010727, "lng": 26.10086417010728}}}, "icon": "https://maps.gstatic.com/mapfiles/place_api/icons/v1/png_71/bar-71.png", "icon_background_color": "#FF9E67", "icon_mask_base_uri": "https://maps.gstatic.com/mapfiles/place_api/icons/v2/bar_pinlet", "name": "The Temple", "opening_hours": {"open_now": true}, "photos": [{"height": 1067, "html_attributions": ["<a href=\"https://maps.google.com/maps/contrib/106356445489637654241\">The Temple</a>"], "photo_reference": "AUGGfZkGVIOMMJ5eQEEEBXspIoxj6MURxAB1GGX_Gy_OYYBdiyEyym04eCAnQS72zZGeY2Epg448fegOPkvy--7kz1pJf0xMd6dFC7mMfMVib2yTN4dZAxeV4WxjzM9gSaqQHXH4mgkUSFtxnyrv8zACsgQKCyarPpSQL8S-Df5c8j2diQMV", "width": 1600}], "place_id": "ChIJW1LSFBD_sUAR2Ml2Atr5Cjc", "plus_code": {"compound_code": "C4C2+8R Bucharest, Romania", "global_code": "8GP8C4C2+8R"}, "price_level": 2, "rating": 4.4, "reference": "ChIJW1LSFBD_sUAR2Ml2Atr5Cjc", "scope": "GOOGLE", "types": ["night_club", "bar", "restaurant", "food", "point_of_interest", "establishment"], "user_ratings_total": 2935, "vicinity": "Bulevardul M\u0103r\u0103\u0219e\u0219ti 71-73, Bucure\u0219ti"}, {"business_status": "OPERATIONAL", "geometry": {"location": {"lat": 44.4303244, "lng": 26.1004609}, "viewport": {"northeast": {"lat": 44.43126262989272, "lng": 26.10166697989272}, "southwest": {"lat": 44.42856297010728, "lng": 26.09896732010728}}}, "icon": "https://maps.gstatic.com/mapfiles/place_api/icons/v1/png_71/bar-71.png", "icon_background_color": "#FF9E67", "icon_mask_base_uri": "https://maps.gstatic.com/mapfiles/place_api/icons/v2/bar_pinlet", "name": "The Vintage Pub", "opening_hours": {"open_now": true}, "photos": [{"height": 2988, "html_attributions": ["<a href=\"https://maps.google.com/maps/contrib/116038713796581325916\">Carnaru Alin</a>"], "photo_reference": "AUGGfZm4M-UE897fEU_DNCOn-CpILWTbu1yC0jsLYIPRkwNdCuQOKiD_Sen3AIoLMh_O_aWQu2ydPW8KFIMfnDxULvDURyqsvaIAutbEol1lwA7mkIUhpPpRPd6zgWe3zeV9VeI6oo3NjNlxpwupM6sf7ozNOQDXZsRhNWJc3o8tYimMMyCn", "width": 5312}], "place_id": "ChIJ8yFk2z__sUARGBiTtwjd3fE", "plus_code": {"compound_code": "C4J2+45 Bucharest, Romania", "global_code": "8GP8C4J2+45"}, "price_level": 2, "rating": 4.1, "reference": "ChIJ8yFk2z__sUARGBiTtwjd3fE", "scope": "GOOGLE", "types": ["night_club", "bar", "point_of_interest", "establishment"], "user_ratings_total": 1994, "vicinity": "Strada Sm\u00e2rdan 43, Bucure\u0219ti"}, {"business_status": "OPERATIONAL", "geometry": {"location": {"lat": 44.4317143, "lng": 26.1024369}, "viewport": {"northeast": {"lat": 44.43321232989273, "lng": 26.10387882989272}, "southwest": {"lat": 44.43051267010728, "lng": 26.10117917010727}}}, "icon": "https://maps.gstatic.com/mapfiles/place_api/icons/v1/png_71/bar-71.png", "icon_background_color": "#FF9E67", "icon_mask_base_uri": "https://maps.gstatic.com/mapfiles/place_api/icons/v2/bar_pinlet", "name": "Extra Time Pub", "opening_hours": {"open_now": true}, "photos": [{"height": 381, "html_attributions": ["<a href=\"https://maps.google.com/maps/contrib/111050470688790720015\">A Google User</a>"], "photo_reference": "AUGGfZlYrgcrGCJfgDBC4-JLeO1KGibMTQPPq88pRVi0MbV_MqWAoBNvGyu_y1M_Kpo6Ylw1GmY766p1Z_SlF0lQk_d-x75yzxxueCbulxt2--ZWnokwsciqs2zq5pXe80WZunHFLTwEot5uF6SKVs47Gt7dvQAWecn9uwEzg2xUChK1kFYb", "width": 720}], "place_id": "ChIJP70SB3T_sUARiQ8vl0SHlwc", "plus_code": {"compound_code": "C4J2+MX Bucharest, Romania", "global_code": "8GP8C4J2+MX"}, "rating": 4.3, "reference": "ChIJP70SB3T_sUARiQ8vl0SHlwc", "scope": "GOOGLE", "types": ["bar", "point_of_interest", "establishment"], "user_ratings_total": 297, "vicinity": "Strada Lipscani 82, Bucure\u0219ti"}, {"business_status": "OPERATIONAL", "geometry": {"location": {"lat": 44.43144239999999, "lng": 26.1013887}, "viewport": {"northeast": {"lat": 44.43332692989272, "lng": 26.10256732989272}, "southwest": {"lat": 44.43062727010728, "lng": 26.09986767010728}}}, "icon": "https://maps.gstatic.com/mapfiles/place_api/icons/v1/png_71/bar-71.png", "icon_background_color": "#FF9E67", "icon_mask_base_uri": "https://maps.gstatic.com/mapfiles/place_api/icons/v2/bar_pinlet", "name": "Beer O'Clock", "opening_hours": {"open_now": true}, "photos": [{"height": 2736, "html_attributions": ["<a href=\"https://maps.google.com/maps/contrib/103119079364410513367\">Carlos Momo</a>"], "photo_reference": "AUGGfZkX3b6qipqYIbCAAcNYJwfsYRstalgNfJ9DD2I3VEVaSzhjdpWTbyG8xNlpNMyAUleUgL4SgXTmwOZ0ohCalATOLa7UtiJTvE6qGZdMoYXRO8FG2w_M8ZKp60Bk_bqL0dZAqyupBgM91OfGWyp5h0baf8vlBcQc0SaKIC5W4OxtIQ4S", "width": 3648}], "place_id": "ChIJIZKhvD__sUAR38V7N-Dns7o", "plus_code": {"compound_code": "C4J2+HH Bucharest, Romania", "global_code": "8GP8C4J2+HH"}, "price_level": 2, "rating": 4.5, "reference": "ChIJIZKhvD__sUAR38V7N-Dns7o", "scope": "GOOGLE", "types": ["bar", "point_of_interest", "establishment"], "user_ratings_total": 1928, "vicinity": "Strada Gabroveni 4, Bucure\u0219ti"}, {"business_status": "OPERATIONAL", "geometry": {"location": {"lat": 44.4378168, "lng": 26.1123495}, "viewport": {"northeast": {"lat": 44.43919422989273, "lng": 26.11362672989272}, "southwest": {"lat": 44.43649457010729, "lng": 26.11092707010728}}}, "icon": "https://maps.gstatic.com/mapfiles/place_api/icons/v1/png_71/bar-71.png", "icon_background_color": "#FF9E67", "icon_mask_base_uri": "https://maps.gstatic.com/mapfiles/place_api/icons/v2/bar_pinlet", "name": "Wicked Bar", "opening_hours": {"open_now": true}, "photos": [{"height": 1066, "html_attributions": ["<a href=\"https://maps.google.com/maps/contrib/118346992660293666294\">A Google User</a>"], "photo_reference": "AUGGfZmXifFLsgzB8A3FAzxIAWJZI8zbLADyHVGmy2TU44_b_rq6YD8X20FN6K85jIlJziah-QZw5OVL5EhrvYRs6IOcGQ12eApYQ83L5L497w8Z6Sk9miZdjjEHg3Y9XkNYhGeKM6Tn2hXeI83xTMjoHz__lSeUQrXkBlCJHsp8hwxs2UE7", "width": 1599}], "place_id": "ChIJnzptfVj_sUARbtnjvd5J9qE", "plus_code": {"compound_code": "C4Q6+4W Bucharest, Romania", "global_code": "8GP8C4Q6+4W"}, "price_level": 2, "rating": 4.8, "reference": "ChIJnzptfVj_sUARbtnjvd5J9qE", "scope": "GOOGLE", "types": ["bar", "point_of_interest", "establishment"], "user_ratings_total": 824, "vicinity": "Strada Sp\u0103tarului 4, Bucure\u0219ti"}, {"business_status": "OPERATIONAL", "geometry": {"location": {"lat": 44.440394, "lng": 26.098472}, "viewport": {"northeast": {"lat": 44.44177492989272, "lng": 26.09980062989272}, "southwest": {"lat": 44.43907527010728, "lng": 26.09710097010728}}}, "icon": "https://maps.gstatic.com/mapfiles/place_api/icons/v1/png_71/bar-71.png", "icon_background_color": "#FF9E67", "icon_mask_base_uri": "https://maps.gstatic.com/mapfiles/place_api/icons/v2/bar_pinlet", "name": "Pardon Pub & More", "opening_hours": {"open_now": true}, "photos": [{"height": 1219, "html_attributions": ["<a href=\"https://maps.google.com/maps/contrib/105599592893857429161\">Victor Cozmei</a>"], "photo_reference": "AUGGfZmXxFC5dg3-kOeQFquFwY2zA0mOYV1nHY9Z_3TRwdBMevDr9t9EfDCBp1hTgkEqTzEohSqPHNn3dtetRhA7cy9A5QL8hZ_-WPXiBZa0YPwGLU8a-gAzLgIGYtibEVeUjQdqLguYd301bHt2IesNMM50Vn1cF5wprHQYAxjQMfTDQdtH", "width": 1619}], "place_id": "ChIJo0x9Kkj_sUAR4uR3WFtGJGw", "plus_code": {"compound_code": "C3RX+59 Bucharest, Romania", "global_code": "8GP8C3RX+59"}, "price_level": 2, "rating": 4.7, "reference": "ChIJo0x9Kkj_sUAR4uR3WFtGJGw", "scope": "GOOGLE", "types": ["bar", "point_of_interest", "establishment"], "user_ratings_total": 123, "vicinity": "Strada C. A. Rosetti 10, Bucure\u0219ti"}, {"business_status": "OPERATIONAL", "geometry": {"location": {"lat": 44.4305883, "lng": 26.099015}, "viewport": {"northeast": {"lat": 44.43142977989272, "lng": 26.10087162989272}, "southwest": {"lat": 44.42873012010728, "lng": 26.09817197010728}}}, "icon": "https://maps.gstatic.com/mapfiles/place_api/icons/v1/png_71/bar-71.png", "icon_background_color": "#FF9E67", "icon_mask_base_uri": "https://maps.gstatic.com/mapfiles/place_api/icons/v2/bar_pinlet", "name": "Oktoberfest Pub", "opening_hours": {"open_now": true}, "photos": [{"height": 1664, "html_attributions": ["<a href=\"https://maps.google.com/maps/contrib/106825313586733854828\">Catalin Berbece</a>"], "photo_reference": "AUGGfZlZacuXUW0IdOFlzajbtns0I1yn57gpzIYIEX0lYXl8unswEqW1V7U9qUaDyUNOuWCbLFLghyXUFXwGJ0h0Z9gZq6S3fZ91Hpgkg1rw0QNjy32TSNv7p9al6TMO9rHoOQxqOxxnRKqNvRjryYQ2SMKAiOJZUjW3KA6iBszZsIZnazxY", "width": 2440}], "place_id": "ChIJqx82-z__sUARkwEoNJfYcio", "plus_code": {"compound_code": "C3JX+6J Bucharest, Romania", "global_code": "8GP8C3JX+6J"}, "price_level": 2, "rating": 4.3, "reference": "ChIJqx82-z__sUARkwEoNJfYcio", "scope": "GOOGLE", "types": ["bar", "restaurant", "food", "point_of_interest", "establishment"], "user_ratings_total": 4809, "vicinity": "Str. Francez\u0103 3, Bucure\u0219ti"}, {"business_status": "OPERATIONAL", "geometry": {"location": {"lat": 44.4422095, "lng": 26.0946548}, "viewport": {"northeast": {"lat": 44.44354232989271, "lng": 26.09601832989272}, "southwest": {"lat": 44.44084267010727, "lng": 26.09331867010728}}}, "icon": "https://maps.gstatic.com/mapfiles/place_api/icons/v1/png_71/restaurant-71.png", "icon_background_color": "#FF9E67", "icon_mask_base_uri": "https://maps.gstatic.com/mapfiles/place_api/icons/v2/restaurant_pinlet", "name": "Primus", "opening_hours": {"open_now": true}, "photos": [{"height": 3024, "html_attributions": ["<a href=\"https://maps.google.com/maps/contrib/105802698423227437834\">Martin A.</a>"], "photo_reference": "AUGGfZn9Ijb1A9DzPAsDgGFuO7NwN27GdM8beLZ59lEZrhqqFDiUjSWHc09bGxLi4Wjia1r9vqD19Vfavti0MYSgtrwWZKwTdD7YZtRprivn3spCNHtxm6B_o7q_OZcwYCwIIhLQyTcC5gdMib84wlyjnx5VPeqa05CT85qHoIpEuAFdJceI", "width": 4032}], "place_id": "ChIJ3c_z5k__sUARO8loIyBwmG4", "plus_code": {"compound_code": "C3RV+VR Bucharest, Romania", "global_code": "8GP8C3RV+VR"}, "price_level": 2, "rating": 4.4, "reference": "ChIJ3c_z5k__sUARO8loIyBwmG4", "scope": "GOOGLE", "types": ["restaurant", "bar", "food", "point_of_interest", "establishment"], "user_ratings_total": 2711, "vicinity": "Strada George Enescu 3, Bucure\u0219ti"}]