[{"business_status": "OPERATIONAL", "geometry": {"location": {"lat": 44.5133042, "lng": 11.3579043}, "viewport": {"northeast": {"lat": 44.51467437989272, "lng": 11.35932777989272}, "southwest": {"lat": 44.51197472010728, "lng": 11.35662812010727}}}, "icon": "https://maps.gstatic.com/mapfiles/place_api/icons/v1/png_71/restaurant-71.png", "icon_background_color": "#FF9E67", "icon_mask_base_uri": "https://maps.gstatic.com/mapfiles/place_api/icons/v2/restaurant_pinlet", "name": "Doppio Malto", "opening_hours": {"open_now": true}, "photos": [{"height": 2268, "html_attributions": ["<a href=\"https://maps.google.com/maps/contrib/114282748998136404604\">Antonio Strazzullo</a>"], "photo_reference": "AUGGfZnBXxZA_Hv-L_hZ27dbdg83eoSn7V-jviImwrKr2fmBOzqcc9WrdihNUT4N4B1WfU73qqlF7DyQsz8jSYin6czsnr4pc17m3y6OFPlPC_p0_ZQewAd7Vp97kiiIJktN5qRTs-6H6vIG4usgsAj2x00HwxgXq7tm1mbh2JVmLCSaM8g9", "width": 4032}], "place_id": "ChIJY5KW5VvTf0cRwUCdMdi0X7I", "plus_code": {"compound_code": "G975+84 Bologna, Metropolitan City of Bologna, Italy", "global_code": "8FPHG975+84"}, "price_level": 2, "rating": 4.1, "reference": "ChIJY5KW5VvTf0cRwUCdMdi0X7I", "scope": "GOOGLE", "types": ["restaurant", "bar", "food", "point_of_interest", "establishment"], "user_ratings_total": 3572, "vicinity": "Via Stalingrado, 42, Bologna"}, {"business_status": "OPERATIONAL", "geometry": {"location": {"lat": 44.4932755, "lng": 11.3448437}, "viewport": {"northeast": {"lat": 44.49460807989272, "lng": 11.34615882989272}, "southwest": {"lat": 44.49190842010728, "lng": 11.34345917010728}}}, "icon": "https://maps.gstatic.com/mapfiles/place_api/icons/v1/png_71/bar-71.png", "icon_background_color": "#FF9E67", "icon_mask_base_uri": "https://maps.gstatic.com/mapfiles/place_api/icons/v2/bar_pinlet", "name": "Baladin Bologna", "opening_hours": {"open_now": true}, "photos": [{"height": 8250, "html_attributions": ["<a href=\"https://maps.google.com/maps/contrib/116613145388163818802\">Baladin Cafe&#39; S.R.L.</a>"], "photo_reference": "AUGGfZmnpUwK_8__KiRfOpiPOOWDimIYAdnFVX_b4_OIXOKeYhDB-njHIE_8RdAMJfzbAe4-F111mEBaTvvHZSgtYaHvnamdUAe83SQTntOuagUOhq5Q9zPSvPZHrRMK1qL9Z9aveV78hYHzVBwV5K5brXCu9NApl82mQfpbJcIfbbHQAnrP", "width": 6838}], "place_id": "ChIJI_2kS77Uf0cRODIlp_io74Y", "plus_code": {"compound_code": "F8VV+8W Bologna, Metropolitan City of Bologna, Italy", "global_code": "8FPHF8VV+8W"}, "price_level": 2, "rating": 4.5, "reference": "ChIJI_2kS77Uf0cRODIlp_io74Y", "scope": "GOOGLE", "types": ["bar", "restaurant", "food", "point_of_interest", "establishment"], "user_ratings_total": 439, "vicinity": "Via Clavature, 12, Bologna"}, {"business_status": "OPERATIONAL", "geometry": {"location": {"lat": 44.50276270000001, "lng": 11.3392199}, "viewport": {"northeast": {"lat": 44.50415002989272, "lng": 11.34068377989272}, "southwest": {"lat": 44.50145037010728, "lng": 11.33798412010728}}}, "icon": "https://maps.gstatic.com/mapfiles/place_api/icons/v1/png_71/bar-71.png", "icon_background_color": "#FF9E67", "icon_mask_base_uri": "https://maps.gstatic.com/mapfiles/place_api/icons/v2/bar_pinlet", "name": "Ein Prosit", "opening_hours": {"open_now": true}, "photos": [{"height": 3468, "html_attributions": ["<a href=\"https://maps.google.com/maps/contrib/101040662980172949362\">A Google User</a>"], "photo_reference": "AUGGfZnFZCQN_BbzczKWGA6bAmy9soli408aRN9lrcuMdAQn_6vSwqCJNAv_k6_uVDgzqAu3OxaLmpC0i1O2WHMXtuhIw4IAF11KscfFW15JUcWLVutPfEhWogrGEHz9JY7r36puFAjQXPBJxVTUZU9MRGbvFNFYE6No8l3r83DsCp9cR5ae", "width": 4624}], "place_id": "ChIJ5ZIrUIYrfkcRIrLgW93aoOo", "plus_code": {"compound_code": "G83Q+4M Bologna, Metropolitan City of Bologna, Italy", "global_code": "8FPHG83Q+4M"}, "price_level": 2, "rating": 4.2, "reference": "ChIJ5ZIrUIYrfkcRIrLgW93aoOo", "scope": "GOOGLE", "types": ["bar", "restaurant", "food", "point_of_interest", "establishment"], "user_ratings_total": 1542, "vicinity": "Via Cairoli, 2c, Bologna"}, {"business_status": "OPERATIONAL", "geometry": {"location": {"lat": 44.4950432, "lng": 11.3443001}, "viewport": {"northeast": {"lat": 44.49641752989272, "lng": 11.34561397989272}, "southwest": {"lat": 44.49371787010728, "lng": 11.34291432010728}}}, "icon": "https://maps.gstatic.com/mapfiles/place_api/icons/v1/png_71/bar-71.png", "icon_background_color": "#FF9E67", "icon_mask_base_uri": "https://maps.gstatic.com/mapfiles/place_api/icons/v2/bar_pinlet", "name": "Celtic Druid Irish Pub", "opening_hours": {"open_now": false}, "photos": [{"height": 1473, "html_attributions": ["<a href=\"https://maps.google.com/maps/contrib/103515291369195851581\">A Google User</a>"], "photo_reference": "AUGGfZlV0cvOmrnALfpCQS3tWtEGWWXyCSEvkGqH6xAYYRHMCuosuWvXNiLJ0vBBM5KdjbNAUkDVdpPSkO00Z55dGddBC2NeN4LwTv7grEUftdOlkQLb0pI_bixo9POPmZUEDrC60ePsRRQ08LjmCZE8_Yxddn3TjC-KIXEAHqqgFtdX0ZhL", "width": 2048}], "place_id": "ChIJZ7tHBb7Uf0cRkkFguefPLG0", "plus_code": {"compound_code": "F8WV+2P Bologna, Metropolitan City of Bologna, Italy", "global_code": "8FPHF8WV+2P"}, "price_level": 2, "rating": 4.5, "reference": "ChIJZ7tHBb7Uf0cRkkFguefPLG0", "scope": "GOOGLE", "types": ["bar", "restaurant", "food", "point_of_interest", "establishment"], "user_ratings_total": 3110, "vicinity": "Via Caduti di Cefalonia, 5c, Bologna"}, {"business_status": "OPERATIONAL", "geometry": {"location": {"lat": 44.4967577, "lng": 11.3334772}, "viewport": {"northeast": {"lat": 44.49810382989272, "lng": 11.33483607989272}, "southwest": {"lat": 44.49540417010728, "lng": 11.33213642010728}}}, "icon": "https://maps.gstatic.com/mapfiles/place_api/icons/v1/png_71/bar-71.png", "icon_background_color": "#FF9E67", "icon_mask_base_uri": "https://maps.gstatic.com/mapfiles/place_api/icons/v2/bar_pinlet", "name": "The Irish Times Pub", "opening_hours": {"open_now": false}, "photos": [{"height": 2848, "html_attributions": ["<a href=\"https://maps.google.com/maps/contrib/105456413247053267808\">A Google User</a>"], "photo_reference": "AUGGfZkYQP0xzqcC0bArFwS0jvFmUGpf6WwAEnPHWtWDtJtB76aMPBfZSZdz9GYQ3Fuv7xS9Al4ni_IEYLncVS9kfYbFVTPY6XT4tJ0UP3uIY2S-M3WmN5U-IZZTbdxHA4nFjMmoi1uMDM9SYFMIdkIsXuQVOAqiv3_QTRs5pWoQj2QxarTf", "width": 4288}], "place_id": "ChIJJZjx85HUf0cRLpnmVJnFaIo", "plus_code": {"compound_code": "F8WM+P9 Bologna, Metropolitan City of Bologna, Italy", "global_code": "8FPHF8WM+P9"}, "price_level": 1, "rating": 4.5, "reference": "ChIJJZjx85HUf0cRLpnmVJnFaIo", "scope": "GOOGLE", "types": ["bar", "restaurant", "food", "point_of_interest", "establishment"], "user_ratings_total": 684, "vicinity": "Via Paradiso, 1d, Bologna"}, {"business_status": "OPERATIONAL", "geometry": {"location": {"lat": 44.4954577, "lng": 11.3483668}, "viewport": {"northeast": {"lat": 44.49680757989272, "lng": 11.34968482989272}, "southwest": {"lat": 44.49410792010728, "lng": 11.34698517010728}}}, "icon": "https://maps.gstatic.com/mapfiles/place_api/icons/v1/png_71/bar-71.png", "icon_background_color": "#FF9E67", "icon_mask_base_uri": "https://maps.gstatic.com/mapfiles/place_api/icons/v2/bar_pinlet", "name": "Cluricaune Irish Pub", "opening_hours": {"open_now": false}, "photos": [{"height": 2848, "html_attributions": ["<a href=\"https://maps.google.com/maps/contrib/117620191862598435547\">Stefano Soldati</a>"], "photo_reference": "AUGGfZlpzSzgbxwZMBbxltxeRsFdG8sVoJQfupz6LJu7kmP9VCWGyLgPJpFcsGVGE3CK_TO6RQEILeEBh4ye9xo5HP2RFcfmvC4y8OGf9A96voFHBjRx9eqXLzNGDx2LpJMvaRTk7KyqRjWyiRy4OBgf8nY_CTuleAJMkDjQnsyapqpMVeYU", "width": 4288}], "place_id": "ChIJ9bC8GbzUf0cR9Dj60jDUCTM", "plus_code": {"compound_code": "F8WX+58 Bologna, Metropolitan City of Bologna, Italy", "global_code": "8FPHF8WX+58"}, "price_level": 2, "rating": 4.3, "reference": "ChIJ9bC8GbzUf0cR9Dj60jDUCTM", "scope": "GOOGLE", "types": ["bar", "restaurant", "food", "point_of_interest", "establishment"], "user_ratings_total": 3678, "vicinity": "Via Zamboni, 18b, Bologna"}, {"business_status": "OPERATIONAL", "geometry": {"location": {"lat": 44.5011039, "lng": 11.3338977}, "viewport": {"northeast": {"lat": 44.50240797989272, "lng": 11.33525727989272}, "southwest": {"lat": 44.49970832010727, "lng": 11.33255762010728}}}, "icon": "https://maps.gstatic.com/mapfiles/place_api/icons/v1/png_71/bar-71.png", "icon_background_color": "#FF9E67", "icon_mask_base_uri": "https://maps.gstatic.com/mapfiles/place_api/icons/v2/bar_pinlet", "name": "Madigan's Irish Pub", "opening_hours": {"open_now": false}, "photos": [{"height": 862, "html_attributions": ["<a href=\"https://maps.google.com/maps/contrib/101104007732146174362\">A Google User</a>"], "photo_reference": "AUGGfZmMOfklPv3JAdDRTYzVQeD8dc22ma3zuMUVDYUMgqQ1HY09_dg94ANNNCbj4RcVIG-qFF4akqKoycsHbuvhi5GfOD-9CdtU11Zx-rCuf3byLuUFdKMJBpUGLgyMEK7erPmTUgBiHHHBOeJIUGns2c1K2PSg6vFJcavvD_hCT0PsYxVS", "width": 768}], "place_id": "ChIJC8t6_o_Uf0cREyScpYBmULs", "plus_code": {"compound_code": "G82M+9H Bologna, Metropolitan City of Bologna, Italy", "global_code": "8FPHG82M+9H"}, "price_level": 2, "rating": 4.4, "reference": "ChIJC8t6_o_Uf0cREyScpYBmULs", "scope": "GOOGLE", "types": ["bar", "restaurant", "food", "point_of_interest", "establishment"], "user_ratings_total": 558, "vicinity": "Via delle Lame, 108f, Bologna"}, {"business_status": "OPERATIONAL", "geometry": {"location": {"lat": 44.497923, "lng": 11.3478526}, "viewport": {"northeast": {"lat": 44.49926682989273, "lng": 11.34907952989272}, "southwest": {"lat": 44.49656717010728, "lng": 11.34637987010728}}}, "icon": "https://maps.gstatic.com/mapfiles/place_api/icons/v1/png_71/restaurant-71.png", "icon_background_color": "#FF9E67", "icon_mask_base_uri": "https://maps.gstatic.com/mapfiles/place_api/icons/v2/restaurant_pinlet", "name": "Bounty", "opening_hours": {"open_now": true}, "photos": [{"height": 2736, "html_attributions": ["<a href=\"https://maps.google.com/maps/contrib/113388937096648968899\">peter.hamada</a>"], "photo_reference": "AUGGfZlbU0wTM0omK4CeZBJ29GsCbKHOdSFcYjbVbXfg2xJg27cU-F7ByY36ZiGpQZzPMuXS3IaM-dTe6_7YTw-x4xEx8kD9UGaP9xukrQ3tsmDvWxu1xZzAFcgHPkrmkbRfbhUig9UXd8Qa6k7qPBcs5iCarTW_1R7luDJJB3Xfsd36jKka", "width": 3648}], "place_id": "ChIJv1NB_bzUf0cRbIAzYMCBoSQ", "plus_code": {"compound_code": "F8XX+54 Bologna, Metropolitan City of Bologna, Italy", "global_code": "8FPHF8XX+54"}, "price_level": 2, "rating": 3.8, "reference": "ChIJv1NB_bzUf0cRbIAzYMCBoSQ", "scope": "GOOGLE", "types": ["restaurant", "bar", "food", "point_of_interest", "establishment"], "user_ratings_total": 1411, "vicinity": "Via delle Moline, 6a, Bologna"}, {"business_status": "OPERATIONAL", "geometry": {"location": {"lat": 44.4966568, "lng": 11.3302884}, "viewport": {"northeast": {"lat": 44.49799772989272, "lng": 11.33167167989272}, "southwest": {"lat": 44.49529807010728, "lng": 11.32897202010728}}}, "icon": "https://maps.gstatic.com/mapfiles/place_api/icons/v1/png_71/bar-71.png", "icon_background_color": "#FF9E67", "icon_mask_base_uri": "https://maps.gstatic.com/mapfiles/place_api/icons/v2/bar_pinlet", "name": "Blue Hush", "opening_hours": {"open_now": true}, "photos": [{"height": 3794, "html_attributions": ["<a href=\"https://maps.google.com/maps/contrib/105009431530732712856\">A Google User</a>"], "photo_reference": "AUGGfZkrysqr-Y2QB44L353wZa3P5U3BVH8PvgUTQfUqpSy6AnaGAhnqod1esU9k1khVwXIBeuLG3Pd8frp8YcO0kWa9UsoblDA4NJzMAqHgOmpvRau3X0lYI4DeWCMxMr4VDeyZgFlHPfbLg04Cp0UneR7u_SkpFJGLWTYWUs5dvPhXoKFa", "width": 2846}], "place_id": "ChIJ6zf2lbXVf0cRe7lZcte2hx0", "plus_code": {"compound_code": "F8WJ+M4 Bologna, Metropolitan City of Bologna, Italy", "global_code": "8FPHF8WJ+M4"}, "price_level": 2, "rating": 4.6, "reference": "ChIJ6zf2lbXVf0cRe7lZcte2hx0", "scope": "GOOGLE", "types": ["bar", "restaurant", "food", "point_of_interest", "establishment"], "user_ratings_total": 265, "vicinity": "Via S. Rocco, 5d, Bologna"}, {"business_status": "OPERATIONAL", "geometry": {"location": {"lat": 44.4960009, "lng": 11.3497479}, "viewport": {"northeast": {"lat": 44.49731847989272, "lng": 11.35097502989272}, "southwest": {"lat": 44.49461882010728, "lng": 11.34827537010728}}}, "icon": "https://maps.gstatic.com/mapfiles/place_api/icons/v1/png_71/bar-71.png", "icon_background_color": "#FF9E67", "icon_mask_base_uri": "https://maps.gstatic.com/mapfiles/place_api/icons/v2/bar_pinlet", "name": "Empire English Pub", "opening_hours": {"open_now": false}, "photos": [{"height": 2976, "html_attributions": ["<a href=\"https://maps.google.com/maps/contrib/103868000052383852898\">carmine pellicani</a>"], "photo_reference": "AUGGfZmSZq1l1zTE5h8fx_kSx9297K4iiwRg1gINWr-in5yAKR2RNHAVZQBItp6gVLag2S9hmifzFJBvme3FnCqdIZm_cWmyILVEp5k42_awn30gsRLVNIytwCcLqXsOAcFbPrHA8hi2kkIDajvztgqIXLyT31wxDY7NiuX9VQXfuYxOzYVo", "width": 3968}], "place_id": "ChIJ_-WSCrzUf0cR-4k6MO8ujrc", "plus_code": {"compound_code": "F8WX+CV Bologna, Metropolitan City of Bologna, Italy", "global_code": "8FPHF8WX+CV"}, "price_level": 2, "rating": 4, "reference": "ChIJ_-WSCrzUf0cR-4k6MO8ujrc", "scope": "GOOGLE", "types": ["bar", "restaurant", "food", "point_of_interest", "establishment"], "user_ratings_total": 2374, "vicinity": "Via Zamboni, 24a, Bologna"}, {"business_status": "OPERATIONAL", "geometry": {"location": {"lat": 44.4901155, "lng": 11.3344125}, "viewport": {"northeast": {"lat": 44.49145002989273, "lng": 11.33574107989272}, "southwest": {"lat": 44.48875037010728, "lng": 11.33304142010728}}}, "icon": "https://maps.gstatic.com/mapfiles/place_api/icons/v1/png_71/restaurant-71.png", "icon_background_color": "#FF9E67", "icon_mask_base_uri": "https://maps.gstatic.com/mapfiles/place_api/icons/v2/restaurant_pinlet", "name": "Corner Bar", "opening_hours": {"open_now": true}, "photos": [{"height": 2736, "html_attributions": ["<a href=\"https://maps.google.com/maps/contrib/113404799151699731921\">Stijn Verrept</a>"], "photo_reference": "AUGGfZmW4m9fLmqW7uU2bqNrHiiEx1byg8p4XjzPZ-4mr4oRnu4GlzZKzc0r3P3Y29uu8TzblNSR1Y72AuKbDtHaSq0IT1zLwmdEbDAzK_vSLkbiwegCVj71iPLRcL-mzJjU82h2_4y2EPAYkU9iNEoe96Taqcm14GSklfM5-sTD0l876tPH", "width": 3648}], "place_id": "ChIJWejEkuzUf0cRf4MEtWJ3awk", "plus_code": {"compound_code": "F8RM+3Q Bologna, Metropolitan City of Bologna, Italy", "global_code": "8FPHF8RM+3Q"}, "price_level": 2, "rating": 4.5, "reference": "ChIJWejEkuzUf0cRf4MEtWJ3awk", "scope": "GOOGLE", "types": ["bar", "restaurant", "food", "point_of_interest", "establishment"], "user_ratings_total": 1042, "vicinity": "Via Saragozza, 37a, Bologna"}, {"business_status": "OPERATIONAL", "geometry": {"location": {"lat": 44.49632, "lng": 11.3313105}, "viewport": {"northeast": {"lat": 44.49765412989272, "lng": 11.33271002989272}, "southwest": {"lat": 44.49495447010727, "lng": 11.33001037010728}}}, "icon": "https://maps.gstatic.com/mapfiles/place_api/icons/v1/png_71/bar-71.png", "icon_background_color": "#FF9E67", "icon_mask_base_uri": "https://maps.gstatic.com/mapfiles/place_api/icons/v2/bar_pinlet", "name": "Beerichino", "opening_hours": {"open_now": false}, "photos": [{"height": 4080, "html_attributions": ["<a href=\"https://maps.google.com/maps/contrib/102009339905142380838\">Pawe\u0142 Tokarz</a>"], "photo_reference": "AUGGfZk6Og9UgdKAXi8ZSDw2ICjAekLAEUQ_k0nIN6hX-cazkVefXKn1FO4yeupUWfhJUtJmgVr1f4MtVYfTavrx7VowhQxNqM9UO1q6T1lPncGmNxUfg3qznWIf7dgbhRnghbFRWBScNo9ApF3zQfrIv0SMZ3aJzeHdBxPObxzOhdSwJkuv", "width": 3072}], "place_id": "ChIJS-tP5I3Uf0cRi2jHpBq99Jk", "plus_code": {"compound_code": "F8WJ+GG Bologna, Metropolitan City of Bologna, Italy", "global_code": "8FPHF8WJ+GG"}, "rating": 4.8, "reference": "ChIJS-tP5I3Uf0cRi2jHpBq99Jk", "scope": "GOOGLE", "types": ["liquor_store", "bar", "store", "restaurant", "food", "point_of_interest", "establishment"], "user_ratings_total": 138, "vicinity": "Via Pietralata, 49a, Bologna"}, {"business_status": "OPERATIONAL", "geometry": {"location": {"lat": 44.4765634, "lng": 11.3670378}, "viewport": {"northeast": {"lat": 44.47802582989272, "lng": 11.36834342989272}, "southwest": {"lat": 44.47532617010727, "lng": 11.36564377010728}}}, "icon": "https://maps.gstatic.com/mapfiles/place_api/icons/v1/png_71/bar-71.png", "icon_background_color": "#FF9E67", "icon_mask_base_uri": "https://maps.gstatic.com/mapfiles/place_api/icons/v2/bar_pinlet", "name": "Birreria Amadeus", "opening_hours": {"open_now": false}, "photos": [{"height": 4096, "html_attributions": ["<a href=\"https://maps.google.com/maps/contrib/116887935563351232509\">Cinzia Cremonini</a>"], "photo_reference": "AUGGfZnmfiI3LiQ5_v5MUH2LuSpc30e5aU9SakC9BiL6pSo6mhHO90_bEsm0uZqr57Lyphur3Ebqht3wyXeD_RuUXCO1uVXWFSgnkOcZq6dspfb9Xfa0jBUs62M94eUNLVBA6v0vNIZwgQEoomOG1SV4GqFI15aXqnHdawSGPkFLDpE7W5qr", "width": 3072}], "place_id": "ChIJb8d7iS4rfkcRDrR2Tf7l9M4", "plus_code": {"compound_code": "F9G8+JR Bologna, Metropolitan City of Bologna, Italy", "global_code": "8FPHF9G8+JR"}, "price_level": 2, "rating": 4.4, "reference": "ChIJb8d7iS4rfkcRDrR2Tf7l9M4", "scope": "GOOGLE", "types": ["liquor_store", "meal_takeaway", "bar", "store", "restaurant", "food", "point_of_interest", "establishment"], "user_ratings_total": 1681, "vicinity": "Via Giuseppe Dagnini, 1b, Bologna"}, {"business_status": "OPERATIONAL", "geometry": {"location": {"lat": 44.492705, "lng": 11.366486}, "viewport": {"northeast": {"lat": 44.49401072989272, "lng": 11.36782277989272}, "southwest": {"lat": 44.49131107010728, "lng": 11.36512312010728}}}, "icon": "https://maps.gstatic.com/mapfiles/place_api/icons/v1/png_71/bar-71.png", "icon_background_color": "#FF9E67", "icon_mask_base_uri": "https://maps.gstatic.com/mapfiles/place_api/icons/v2/bar_pinlet", "name": "Wolf", "opening_hours": {"open_now": true}, "photos": [{"height": 2112, "html_attributions": ["<a href=\"https://maps.google.com/maps/contrib/104303144675738518618\">BAR WOLF SNC</a>"], "photo_reference": "AUGGfZk7XV6tCkshRTLgokj-EyvZLOb_-czpUhUUk3zFzMnKzmTWNor4pQzJGgVoE3Ni4r2QKGSaC1EYpx03g6f28F1102RqqDphhfrZb52iYKu4iVrWEBF4GPpFnmM8N11aUS-Wz287USHw7uhvxPvUwAfhWH3vhEH2ltaEnN1a7bRb8b28", "width": 4608}], "place_id": "ChIJzQmnsrTUf0cR6_hT-L-SD5o", "plus_code": {"compound_code": "F9V8+3J Bologna, Metropolitan City of Bologna, Italy", "global_code": "8FPHF9V8+3J"}, "price_level": 2, "rating": 4.1, "reference": "ChIJzQmnsrTUf0cR6_hT-L-SD5o", "scope": "GOOGLE", "types": ["bar", "restaurant", "food", "point_of_interest", "establishment"], "user_ratings_total": 1791, "vicinity": "Via Giuseppe Massarenti, 118b, Bologna"}, {"business_status": "OPERATIONAL", "geometry": {"location": {"lat": 44.49463900000001, "lng": 11.3273984}, "viewport": {"northeast": {"lat": 44.49602747989272, "lng": 11.32882817989272}, "southwest": {"lat": 44.49332782010728, "lng": 11.32612852010728}}}, "icon": "https://maps.gstatic.com/mapfiles/place_api/icons/v1/png_71/restaurant-71.png", "icon_background_color": "#FF9E67", "icon_mask_base_uri": "https://maps.gstatic.com/mapfiles/place_api/icons/v2/restaurant_pinlet", "name": "Osteria La Frasca", "opening_hours": {"open_now": true}, "photos": [{"height": 3024, "html_attributions": ["<a href=\"https://maps.google.com/maps/contrib/102022787444791370911\">Giulio Leso</a>"], "photo_reference": "AUGGfZmtOPXsMfjvyX0qRYgX1OeSkaAle1I_sN3yMilTXxw4JGyCnE0BHa3l0iRYFHuHm5QkEKySkJVuRAcYuiqYMbwsOp8gj8-SnNICFJ1qVZH8dYEXOUSVfIL1ofHo0jZcBe1973SYY2WWiv7_uBNSH65IsDQJ0Ik6c5vf55clP0bm5IVf", "width": 4032}], "place_id": "ChIJiXOGiV3Uf0cRWD965jH4uEg", "plus_code": {"compound_code": "F8VG+VX Bologna, Metropolitan City of Bologna, Italy", "global_code": "8FPHF8VG+VX"}, "price_level": 2, "rating": 4.3, "reference": "ChIJiXOGiV3Uf0cRWD965jH4uEg", "scope": "GOOGLE", "types": ["restaurant", "bar", "food", "point_of_interest", "establishment"], "user_ratings_total": 1579, "vicinity": "Via Andrea Costa, 8a, Bologna"}, {"business_status": "OPERATIONAL", "geometry": {"location": {"lat": 44.4941268, "lng": 11.3444686}, "viewport": {"northeast": {"lat": 44.49568297989271, "lng": 11.34588572989272}, "southwest": {"lat": 44.49298332010727, "lng": 11.34318607010728}}}, "icon": "https://maps.gstatic.com/mapfiles/place_api/icons/v1/png_71/restaurant-71.png", "icon_background_color": "#FF9E67", "icon_mask_base_uri": "https://maps.gstatic.com/mapfiles/place_api/icons/v2/restaurant_pinlet", "name": "Osteria Angolo degli Orefici", "opening_hours": {"open_now": true}, "photos": [{"height": 2050, "html_attributions": ["<a href=\"https://maps.google.com/maps/contrib/110649592835273415910\">Igor Kochevski</a>"], "photo_reference": "AUGGfZmIaYaB4JeduO6rdyerEZHJLYVnO2NJlBtjCEsBoSEvtmP9ZokPZVD_Ojx1ncJdrw-I5C5dAg_izMRfZG3vMJk6O54ccRgxCpvuXR579aDp1QO60x94cKUeo13gqKFNXAn7vKymq72zcNlJaj4FPnLfRYZWNxx0b1nidXPKEByfg0vz", "width": 3361}], "place_id": "ChIJFbsKV2TVf0cRPFWspIiop04", "plus_code": {"compound_code": "F8VV+MQ Bologna, Metropolitan City of Bologna, Italy", "global_code": "8FPHF8VV+MQ"}, "price_level": 2, "rating": 4.5, "reference": "ChIJFbsKV2TVf0cRPFWspIiop04", "scope": "GOOGLE", "types": ["bar", "restaurant", "food", "point_of_interest", "establishment"], "user_ratings_total": 989, "vicinity": "Via degli Artieri, 1g, Bologna"}, {"business_status": "OPERATIONAL", "geometry": {"location": {"lat": 44.49522349999999, "lng": 11.3148152}, "viewport": {"northeast": {"lat": 44.49661237989272, "lng": 11.31612112989272}, "southwest": {"lat": 44.49391272010727, "lng": 11.31342147010728}}}, "icon": "https://maps.gstatic.com/mapfiles/place_api/icons/v1/png_71/bar-71.png", "icon_background_color": "#FF9E67", "icon_mask_base_uri": "https://maps.gstatic.com/mapfiles/place_api/icons/v2/bar_pinlet", "name": "Celtic Caf\u00e8", "opening_hours": {"open_now": true}, "photos": [{"height": 3840, "html_attributions": ["<a href=\"https://maps.google.com/maps/contrib/101998675821980811721\">Wunderworld Wolf</a>"], "photo_reference": "AUGGfZm-1pIcYSnysY4kX2X3jApmIkX9oLp5f73D6ySVcJmoS8e3VkdrytDKCCG7TVyHiRlpf1WzYlqW_zj4ouYIB-vfN6cxeGagYd4qtWg1EEF_Mvg5liOaICHfFosf7r5xMCy56xqlJSwRpZFrgMRaYfwOegEhPrrF5OPtYZpnSkE2Fq5k", "width": 2160}], "place_id": "ChIJv5gs6cLVf0cR-kWbbK2mcOA", "plus_code": {"compound_code": "F8W7+3W Bologna, Metropolitan City of Bologna, Italy", "global_code": "8FPHF8W7+3W"}, "rating": 3.9, "reference": "ChIJv5gs6cLVf0cR-kWbbK2mcOA", "scope": "GOOGLE", "types": ["bar", "restaurant", "food", "point_of_interest", "establishment"], "user_ratings_total": 9, "vicinity": "Via Montefiorino, 3/A, Bologna"}, {"business_status": "OPERATIONAL", "geometry": {"location": {"lat": 44.4972779, "lng": 11.3306927}, "viewport": {"northeast": {"lat": 44.49858772989272, "lng": 11.33200667989272}, "southwest": {"lat": 44.49588807010728, "lng": 11.32930702010728}}}, "icon": "https://maps.gstatic.com/mapfiles/place_api/icons/v1/png_71/bar-71.png", "icon_background_color": "#FF9E67", "icon_mask_base_uri": "https://maps.gstatic.com/mapfiles/place_api/icons/v2/bar_pinlet", "name": "Il Punto", "opening_hours": {"open_now": false}, "photos": [{"height": 2448, "html_attributions": ["<a href=\"https://maps.google.com/maps/contrib/107445752489429892657\">A Google User</a>"], "photo_reference": "AUGGfZm35d77FQnSvX2EgdX2L8ctaRuhC3vpmZO25Xzy-w4So3qCghXCqVSBPRN09DJj0L_Lujm_mdLSwyusXXG18MRMabx0tWxV0x3za3Yt5hz-7wNiUBd12VXnsRqfyqEi4NnwMIn9yRZJxiY3bj9Tr8g94fNtHaJB0EQ-44Huvt41T8A5", "width": 3696}], "place_id": "ChIJCevOdo7Uf0cR9n761X4S5tA", "plus_code": {"compound_code": "F8WJ+W6 Bologna, Metropolitan City of Bologna, Italy", "global_code": "8FPHF8WJ+W6"}, "price_level": 2, "rating": 4.5, "reference": "ChIJCevOdo7Uf0cR9n761X4S5tA", "scope": "GOOGLE", "types": ["bar", "restaurant", "food", "point_of_interest", "establishment"], "user_ratings_total": 888, "vicinity": "Via S. Rocco, 1g, Bologna"}, {"business_status": "OPERATIONAL", "geometry": {"location": {"lat": 44.4962021, "lng": 11.3503011}, "viewport": {"northeast": {"lat": 44.49756852989272, "lng": 11.35165697989272}, "southwest": {"lat": 44.49486887010728, "lng": 11.34895732010728}}}, "icon": "https://maps.gstatic.com/mapfiles/place_api/icons/v1/png_71/bar-71.png", "icon_background_color": "#FF9E67", "icon_mask_base_uri": "https://maps.gstatic.com/mapfiles/place_api/icons/v2/bar_pinlet", "name": "Spiller | Bologna", "opening_hours": {"open_now": true}, "photos": [{"height": 3000, "html_attributions": ["<a href=\"https://maps.google.com/maps/contrib/111763770955080829039\">Flavio Casaburi</a>"], "photo_reference": "AUGGfZmTjxK3vdzcBoyqg4X7VPSiysPzjj3yWSPjHGStfas4lxTQH8aADIh1omUQ1X8wlkKuEZXUyqKQYmQsiJCNn1Q4vIYBPj99RaHnutryDUp_Is0aTzQ9kQRv-iTIypOBv-2HkHIN9Vhxkq2OEJWf_b-hvi-17aHrWpJU1SHJ3ZMH5MGn", "width": 4000}], "place_id": "ChIJ8f07JMXVf0cRLAa9DxT0R58", "plus_code": {"compound_code": "F9W2+F4 Bologna, Metropolitan City of Bologna, Italy", "global_code": "8FPHF9W2+F4"}, "rating": 4.1, "reference": "ChIJ8f07JMXVf0cRLAa9DxT0R58", "scope": "GOOGLE", "types": ["bar", "restaurant", "food", "point_of_interest", "establishment"], "user_ratings_total": 174, "vicinity": "Via Zamboni, 26, Bologna"}, {"business_status": "OPERATIONAL", "geometry": {"location": {"lat": 44.5000895, "lng": 11.3482258}, "viewport": {"northeast": {"lat": 44.50151542989272, "lng": 11.34961292989272}, "southwest": {"lat": 44.49881577010727, "lng": 11.34691327010728}}}, "icon": "https://maps.gstatic.com/mapfiles/place_api/icons/v1/png_71/bar-71.png", "icon_background_color": "#FF9E67", "icon_mask_base_uri": "https://maps.gstatic.com/mapfiles/place_api/icons/v2/bar_pinlet", "name": "Dai Soci", "opening_hours": {"open_now": true}, "photos": [{"height": 4032, "html_attributions": ["<a href=\"https://maps.google.com/maps/contrib/112058449792554021718\">A Google User</a>"], "photo_reference": "AUGGfZn7g05k_pDAmeimTYvubT1PB1xh3ZUhW43AUSK-yEWoRIQJHBu2IIde8mpN3Uz-Aoi-bOcShMZUDlix9M8BgmDMeM9CvCv8rutkUVdmf-qCjudOYoS2w2GqSjvCHeVJQzoUnh9Ae9I_6S1QioUwqFovwHYb0kzEFHqoEGRHcp-_F3j4", "width": 3024}], "place_id": "ChIJIV5LjzHVf0cR1GVM_6pWb2w", "plus_code": {"compound_code": "G82X+27 Bologna, Metropolitan City of Bologna, Italy", "global_code": "8FPHG82X+27"}, "rating": 5, "reference": "ChIJIV5LjzHVf0cR1GVM_6pWb2w", "scope": "GOOGLE", "types": ["bar", "restaurant", "food", "point_of_interest", "establishment"], "user_ratings_total": 31, "vicinity": "Via Irnerio, 19c, Bologna"}]