[{"business_status": "OPERATIONAL", "geometry": {"location": {"lat": 50.3695654, "lng": -4.1442684}, "viewport": {"northeast": {"lat": 50.37089212989272, "lng": -4.143078820107279}, "southwest": {"lat": 50.36819247010727, "lng": -4.145778479892723}}}, "icon": "https://maps.gstatic.com/mapfiles/place_api/icons/v1/png_71/bar-71.png", "icon_background_color": "#FF9E67", "icon_mask_base_uri": "https://maps.gstatic.com/mapfiles/place_api/icons/v2/bar_pinlet", "name": "The Bank", "opening_hours": {"open_now": true}, "photos": [{"height": 1776, "html_attributions": ["<a href=\"https://maps.google.com/maps/contrib/100647970327172062104\">Bryan Roberts</a>"], "photo_reference": "AUc7tXV_bWKmZ4aYXypd37fF4QOXkT-HQIBUtfikSMseGD6V8tJAPBq6Hwgafw8XNszaXxbZypRmqcE8XwNv0ET-gT_k6sgPPzuA51fNeZk4-W0lkNxjOLC0ebVeR2eav8XSFEAMYCNcUAt0jAYgYClrKg7V0OtlcG5MFObw9WHCTBA5LaFZ", "width": 3277}], "place_id": "ChIJd_moaE6TbEgR4ojkhkxVRr4", "plus_code": {"compound_code": "9V94+R7 Plymouth, United Kingdom", "global_code": "9C2Q9V94+R7"}, "price_level": 1, "rating": 4.3, "reference": "ChIJd_moaE6TbEgR4ojkhkxVRr4", "scope": "GOOGLE", "types": ["bar", "point_of_interest", "establishment"], "user_ratings_total": 2324, "vicinity": "Old George St, Plymouth"}, {"business_status": "OPERATIONAL", "geometry": {"location": {"lat": 50.3659847, "lng": -4.1348271}, "viewport": {"northeast": {"lat": 50.36730367989271, "lng": -4.133512220107278}, "southwest": {"lat": 50.36460402010727, "lng": -4.136211879892722}}}, "icon": "https://maps.gstatic.com/mapfiles/place_api/icons/v1/png_71/bar-71.png", "icon_background_color": "#FF9E67", "icon_mask_base_uri": "https://maps.gstatic.com/mapfiles/place_api/icons/v2/bar_pinlet", "name": "The Fishermans Arms", "opening_hours": {"open_now": true}, "photos": [{"height": 2448, "html_attributions": ["<a href=\"https://maps.google.com/maps/contrib/113808646082424622450\">petes_awreet</a>"], "photo_reference": "AUc7tXUTBmAVasPAyBmcq8lmM-NkqlbLWs47TV_hjJBD9ozq0-9QiCdL3MqWMNFUfv4qJHr0eIabs1ATNTRRTciw-g6WW5_5gM8ZtWxydbH2IF9rxMCXVZiyPfo8rWfJGas8Qis0jI0n4i_XjpZLsu-aNEgOKQk3fnYqh6u78yLNDfjLfOgb", "width": 3264}], "place_id": "ChIJxe3DEK3sbEgRTu8Z8Htefis", "plus_code": {"compound_code": "9V88+93 Plymouth, United Kingdom", "global_code": "9C2Q9V88+93"}, "price_level": 2, "rating": 4.7, "reference": "ChIJxe3DEK3sbEgRTu8Z8Htefis", "scope": "GOOGLE", "types": ["bar", "restaurant", "food", "point_of_interest", "establishment"], "user_ratings_total": 1074, "vicinity": "31 Lambhay St, Plymouth"}, {"business_status": "OPERATIONAL", "geometry": {"location": {"lat": 50.3583279, "lng": -4.117582899999999}, "viewport": {"northeast": {"lat": 50.35970282989272, "lng": -4.116272670107278}, "southwest": {"lat": 50.35700317010728, "lng": -4.118972329892722}}}, "icon": "https://maps.gstatic.com/mapfiles/place_api/icons/v1/png_71/bar-71.png", "icon_background_color": "#FF9E67", "icon_mask_base_uri": "https://maps.gstatic.com/mapfiles/place_api/icons/v2/bar_pinlet", "name": "Boringdon Arms", "opening_hours": {"open_now": true}, "photos": [{"height": 3000, "html_attributions": ["<a href=\"https://maps.google.com/maps/contrib/113528025152721862013\">steve Morris</a>"], "photo_reference": "AUc7tXWNLqmlBwWy_f4EIn_-p7YAwzRqgIenptEEgSFfjkK89yyknD7kBEz5vFAsMQ5hMyu3F1pCdIiXL5Mv0wTmC2eClAGBzUG2LVeDvaYIPGjn6_r-FbDf3-RnnW__4cqaYqw2IQ3VqJ4NEcdB-9TXBOGSkF0nPzQ5C5ihoL7DmHYziL84", "width": 4000}], "place_id": "ChIJdWISrKDsbEgRuzP0ZkeR8lk", "plus_code": {"compound_code": "9V5J+8X Plymouth, United Kingdom", "global_code": "9C2Q9V5J+8X"}, "rating": 4.5, "reference": "ChIJdWISrKDsbEgRuzP0ZkeR8lk", "scope": "GOOGLE", "types": ["lodging", "bar", "restaurant", "food", "point_of_interest", "establishment"], "user_ratings_total": 387, "vicinity": "Boringdon Terrace, Turnchapel, Plymouth"}, {"business_status": "OPERATIONAL", "geometry": {"location": {"lat": 50.3631906, "lng": -4.1476084}, "viewport": {"northeast": {"lat": 50.36451797989272, "lng": -4.146188020107279}, "southwest": {"lat": 50.36181832010728, "lng": -4.148887679892723}}}, "icon": "https://maps.gstatic.com/mapfiles/place_api/icons/v1/png_71/bar-71.png", "icon_background_color": "#FF9E67", "icon_mask_base_uri": "https://maps.gstatic.com/mapfiles/place_api/icons/v2/bar_pinlet", "name": "The Waterfront, Plymouth", "opening_hours": {"open_now": true}, "photos": [{"height": 527, "html_attributions": ["<a href=\"https://maps.google.com/maps/contrib/110033552605819172431\">The Waterfront Bar &amp; Restaurant</a>"], "photo_reference": "AUc7tXVy828k-lovTIhGQaUr9VG8nBZY8v_rnc8S_pMgjvrH5mFLOVNDD_K6xnZH47fQ0QvGEEYYEaO0WR9QwNce5cpJFSiYZEEhaSruqYBTHr314t0cEoHWTxVm5egPJjxCgA2EsUgMpkcHGCKxXAeNTXLBmawDrljfRgPNAkuKHVyFDFc5", "width": 805}], "place_id": "ChIJGTu8B1qTbEgRv57aAbUymhY", "plus_code": {"compound_code": "9V72+7X Plymouth, United Kingdom", "global_code": "9C2Q9V72+7X"}, "price_level": 2, "rating": 4.3, "reference": "ChIJGTu8B1qTbEgRv57aAbUymhY", "scope": "GOOGLE", "types": ["bar", "restaurant", "food", "store", "point_of_interest", "establishment"], "user_ratings_total": 2243, "vicinity": "9 Grand Parade, Plymouth"}, {"business_status": "OPERATIONAL", "geometry": {"location": {"lat": 50.3815855, "lng": -4.1334776}, "viewport": {"northeast": {"lat": 50.38288972989272, "lng": -4.132098170107278}, "southwest": {"lat": 50.38019007010728, "lng": -4.134797829892721}}}, "icon": "https://maps.gstatic.com/mapfiles/place_api/icons/v1/png_71/bar-71.png", "icon_background_color": "#FF9E67", "icon_mask_base_uri": "https://maps.gstatic.com/mapfiles/place_api/icons/v2/bar_pinlet", "name": "The Fortescue", "opening_hours": {"open_now": true}, "photos": [{"height": 3395, "html_attributions": ["<a href=\"https://maps.google.com/maps/contrib/106755928638063629489\">PAUL CLEGG</a>"], "photo_reference": "AUc7tXXjnT_InyaiL3SbVdMUh_lZ7bHw0VTbfEp1zqO6XedQvCaBbFWl3OsRywd98sDK8MKgISbdEcCNv7Ef6sdWVWjofpvydNVloVAjZm3yYO0718YBL_bT-eHkDxgCtonm89RSHyGDwAJMn_F0mZbf0dSW-kDbW3mHuzqvaCbAVDKsrSJi", "width": 4712}], "place_id": "ChIJbbiL2cvsbEgRxLLOMYSrKcQ", "plus_code": {"compound_code": "9VJ8+JJ Plymouth, United Kingdom", "global_code": "9C2Q9VJ8+JJ"}, "price_level": 2, "rating": 4.6, "reference": "ChIJbbiL2cvsbEgRxLLOMYSrKcQ", "scope": "GOOGLE", "types": ["bar", "restaurant", "food", "point_of_interest", "establishment"], "user_ratings_total": 924, "vicinity": "37 Mutley Plain, Mutley, Plymouth"}, {"business_status": "OPERATIONAL", "geometry": {"location": {"lat": 50.3830798, "lng": -4.1246608}, "viewport": {"northeast": {"lat": 50.38442322989272, "lng": -4.123041570107278}, "southwest": {"lat": 50.38172357010728, "lng": -4.125741229892722}}}, "icon": "https://maps.gstatic.com/mapfiles/place_api/icons/v1/png_71/bar-71.png", "icon_background_color": "#FF9E67", "icon_mask_base_uri": "https://maps.gstatic.com/mapfiles/place_api/icons/v2/bar_pinlet", "name": "The Tap and Barrel", "opening_hours": {"open_now": true}, "photos": [{"height": 3024, "html_attributions": ["<a href=\"https://maps.google.com/maps/contrib/111045639017664307222\">The Tap &amp; Barrel</a>"], "photo_reference": "AUc7tXXxY749iby7zZ2F5jzelj2BEbPN8p66RI6zDz4qJwuIDefbzvfCyoOjlnwCWfA80zqxew1oQO6NBFGs1bODUO-EpyhefDhpDZp63AiFGEvgw3XkzCPj-1Ruw69NvpDtXZdj_p_B7rWYqrVAXXFmhcKMVEeYAHYZgGMhz4GabLbO4kwO", "width": 4032}], "place_id": "ChIJ-xRGl8bsbEgRgdmS212G1fY", "plus_code": {"compound_code": "9VMG+64 Plymouth, United Kingdom", "global_code": "9C2Q9VMG+64"}, "price_level": 2, "rating": 4.3, "reference": "ChIJ-xRGl8bsbEgRgdmS212G1fY", "scope": "GOOGLE", "types": ["bar", "restaurant", "food", "point_of_interest", "establishment"], "user_ratings_total": 516, "vicinity": "Ashford Cres, Mannamead, Plymouth"}, {"business_status": "OPERATIONAL", "geometry": {"location": {"lat": 50.36935649999999, "lng": -4.139266}, "viewport": {"northeast": {"lat": 50.37072457989272, "lng": -4.137958570107277}, "southwest": {"lat": 50.36802492010727, "lng": -4.140658229892721}}}, "icon": "https://maps.gstatic.com/mapfiles/place_api/icons/v1/png_71/bar-71.png", "icon_background_color": "#FF9E67", "icon_mask_base_uri": "https://maps.gstatic.com/mapfiles/place_api/icons/v2/bar_pinlet", "name": "Kitty O'Hanlons", "opening_hours": {"open_now": true}, "photos": [{"height": 3024, "html_attributions": ["<a href=\"https://maps.google.com/maps/contrib/104497621488184114769\">A Google User</a>"], "photo_reference": "AUc7tXXSyKjzGIWZlrSnetYXtya2FZD6-DpLGheWZl8liyMLsn1ZvvXK7i9UqtJlHgJA1BehcmRXfpdj0HaBHdYknFfSZaP2AmqZSK1XZbBT3TfaM2ZZecBIu-l1QSKg7iQVYtEgvhbnJ_Q40hD2K1QHj6GQYoY_YmKctjq5yqWSKRjLR-1T", "width": 4032}], "place_id": "ChIJYUgvFk2TbEgR41lL8jugqH4", "plus_code": {"compound_code": "9V96+P8 Plymouth, United Kingdom", "global_code": "9C2Q9V96+P8"}, "price_level": 2, "rating": 4.4, "reference": "ChIJYUgvFk2TbEgR41lL8jugqH4", "scope": "GOOGLE", "types": ["bar", "restaurant", "food", "point_of_interest", "establishment"], "user_ratings_total": 770, "vicinity": "5 St Andrew St, Plymouth"}, {"business_status": "OPERATIONAL", "geometry": {"location": {"lat": 50.370525, "lng": -4.1399476}, "viewport": {"northeast": {"lat": 50.37189272989272, "lng": -4.138574020107279}, "southwest": {"lat": 50.36919307010728, "lng": -4.141273679892723}}}, "icon": "https://maps.gstatic.com/mapfiles/place_api/icons/v1/png_71/bar-71.png", "icon_background_color": "#FF9E67", "icon_mask_base_uri": "https://maps.gstatic.com/mapfiles/place_api/icons/v2/bar_pinlet", "name": "Brass Monkey", "opening_hours": {"open_now": true}, "photos": [{"height": 2976, "html_attributions": ["<a href=\"https://maps.google.com/maps/contrib/108824655350902927354\">Kevin Warmington</a>"], "photo_reference": "AUc7tXUcFyCitCj3uUg-U7B_h0vgBC0V8yQ26VDBoFDbShmQocyU6Vj2l3bdHrnC7y62ObRdFbk3yIb2Dfa7gr7IgWsy2ly79owHyJ_acEDStDyVRcA4a51k6MFMgCEL4uAesr5CDkTJt3HFtqFhsPCEUz7mBxPTeu32UlhfL9OQqUkfCVN5", "width": 3968}], "place_id": "ChIJCVcw40yTbEgRl71tZvk6Uqk", "plus_code": {"compound_code": "9VC6+73 Plymouth, United Kingdom", "global_code": "9C2Q9VC6+73"}, "price_level": 1, "rating": 4.1, "reference": "ChIJCVcw40yTbEgRl71tZvk6Uqk", "scope": "GOOGLE", "types": ["bar", "restaurant", "food", "point_of_interest", "establishment"], "user_ratings_total": 1786, "vicinity": "12-14 Royal Parade, Plymouth"}, {"business_status": "OPERATIONAL", "geometry": {"location": {"lat": 50.3579182, "lng": -4.118317}, "viewport": {"northeast": {"lat": 50.35929262989271, "lng": -4.116911770107278}, "southwest": {"lat": 50.35659297010727, "lng": -4.119611429892723}}}, "icon": "https://maps.gstatic.com/mapfiles/place_api/icons/v1/png_71/bar-71.png", "icon_background_color": "#FF9E67", "icon_mask_base_uri": "https://maps.gstatic.com/mapfiles/place_api/icons/v2/bar_pinlet", "name": "Clovelly Bay Inn", "opening_hours": {"open_now": true}, "photos": [{"height": 2184, "html_attributions": ["<a href=\"https://maps.google.com/maps/contrib/115471718764199511064\">Sarah Burridge</a>"], "photo_reference": "AUc7tXVM0pe9e5ONvpqO43UFqMaPLgUs3N5QvDcLrk25wSSa-SuXFgnMf0MoCZc_iAC9CetnyGsqam_41sydetzOKiHjq0somoNDHwXwGaAXe-b5kW84gVXW4sUBXDjmKWJ_2EamSzLakQTfCdqWnjmR4ZiGqOTpqHqD1l4CQCYIDTLkNylj", "width": 4608}], "place_id": "ChIJT3pDWKfsbEgROOdN-H1i6-I", "plus_code": {"compound_code": "9V5J+5M Plymouth, United Kingdom", "global_code": "9C2Q9V5J+5M"}, "price_level": 2, "rating": 4.8, "reference": "ChIJT3pDWKfsbEgROOdN-H1i6-I", "scope": "GOOGLE", "types": ["bar", "restaurant", "food", "point_of_interest", "establishment"], "user_ratings_total": 662, "vicinity": "Boringdon Rd, Turnchapel, Plymouth"}, {"business_status": "OPERATIONAL", "geometry": {"location": {"lat": 50.3669588, "lng": -4.1346688}, "viewport": {"northeast": {"lat": 50.36827992989272, "lng": -4.133288170107278}, "southwest": {"lat": 50.36558027010728, "lng": -4.135987829892722}}}, "icon": "https://maps.gstatic.com/mapfiles/place_api/icons/v1/png_71/bar-71.png", "icon_background_color": "#FF9E67", "icon_mask_base_uri": "https://maps.gstatic.com/mapfiles/place_api/icons/v2/bar_pinlet", "name": "Crown & Anchor", "opening_hours": {"open_now": true}, "photos": [{"height": 688, "html_attributions": ["<a href=\"https://maps.google.com/maps/contrib/114324894043725342308\">A Google User</a>"], "photo_reference": "AUc7tXXxhwSoVe0d-KauYv8OGVRuf0jpfajZb2fI-SbPj7iu9uWOx4BExhcpPTQZmlSANmRWatwm_MGsxr3VY6jUns77JSZj1W8h2qfw9QHLiwYyU5GTm2kFEU6u6dz6ho0-N-lDShj8JctRkss4JCBhvitZdSsg8yMX3dQMxVEwFkUD4tZK", "width": 1360}], "place_id": "ChIJS8ZKcK3sbEgRlwE5gq3eCNY", "plus_code": {"compound_code": "9V88+Q4 Plymouth, United Kingdom", "global_code": "9C2Q9V88+Q4"}, "price_level": 2, "rating": 4.4, "reference": "ChIJS8ZKcK3sbEgRlwE5gq3eCNY", "scope": "GOOGLE", "types": ["bar", "restaurant", "food", "point_of_interest", "establishment"], "user_ratings_total": 800, "vicinity": "10 The Barbican, Plymouth"}, {"business_status": "OPERATIONAL", "geometry": {"location": {"lat": 50.3708179, "lng": -4.1444525}, "viewport": {"northeast": {"lat": 50.37216497989272, "lng": -4.143125570107277}, "southwest": {"lat": 50.36946532010727, "lng": -4.145825229892721}}}, "icon": "https://maps.gstatic.com/mapfiles/place_api/icons/v1/png_71/bar-71.png", "icon_background_color": "#FF9E67", "icon_mask_base_uri": "https://maps.gstatic.com/mapfiles/place_api/icons/v2/bar_pinlet", "name": "Noahs Ark", "opening_hours": {"open_now": true}, "photos": [{"height": 2268, "html_attributions": ["<a href=\"https://maps.google.com/maps/contrib/110326687054688203654\">Clifton Chilli Club</a>"], "photo_reference": "AUc7tXX3cRjLFLV6prsV_IlQrt2YYg64jSYH9jDGXuN1DVQYPte1RSVKXYQiMI7X_RgllSfR7UIvq36YFp0ZdVS9uXO7dfEBnjuEpL7lv3cv1zDu-pNqaqCxoeeg9V8QKcPRE1yVfXa4m9_Kehma1E4Hf5_A7jEtG7w1kGhcPZ76oKsVOf-i", "width": 4032}], "place_id": "ChIJw8S4kk6TbEgRg7H2ijUPBtc", "plus_code": {"compound_code": "9VC4+87 Plymouth, United Kingdom", "global_code": "9C2Q9VC4+87"}, "price_level": 1, "rating": 4.2, "reference": "ChIJw8S4kk6TbEgRg7H2ijUPBtc", "scope": "GOOGLE", "types": ["bar", "restaurant", "food", "point_of_interest", "establishment"], "user_ratings_total": 1044, "vicinity": "32A Courtenay St, Plymouth"}, {"business_status": "OPERATIONAL", "geometry": {"location": {"lat": 50.3673848, "lng": -4.1349406}, "viewport": {"northeast": {"lat": 50.36872197989271, "lng": -4.133566170107279}, "southwest": {"lat": 50.36602232010727, "lng": -4.136265829892722}}}, "icon": "https://maps.gstatic.com/mapfiles/place_api/icons/v1/png_71/bar-71.png", "icon_background_color": "#FF9E67", "icon_mask_base_uri": "https://maps.gstatic.com/mapfiles/place_api/icons/v2/bar_pinlet", "name": "The Navy Inn", "opening_hours": {"open_now": true}, "photos": [{"height": 2988, "html_attributions": ["<a href=\"https://maps.google.com/maps/contrib/112680527964014029364\">Heiko Zahn</a>"], "photo_reference": "AUc7tXVpG-I8sRuuIyhe3DJgP2fey8O65-XatFtu1HqEhAVJEEBAIBJbX7nKzRuaD58CLX244YMhXkeT4UNS-VrZmmK5oUmtfY-1eeSSpn4w3YpZVwoTjOaSV8WBErm-u1-PRSd6_yoX24cC7_re9xbGZlOq7ZAQgAu1ycpp1QQfHxQ1Fvd6", "width": 5312}], "place_id": "ChIJJRWPcK3sbEgRLolXV9j0qKI", "plus_code": {"compound_code": "9V88+X3 Plymouth, United Kingdom", "global_code": "9C2Q9V88+X3"}, "price_level": 2, "rating": 4.3, "reference": "ChIJJRWPcK3sbEgRLolXV9j0qKI", "scope": "GOOGLE", "types": ["bar", "restaurant", "food", "point_of_interest", "establishment"], "user_ratings_total": 1006, "vicinity": "34 Southside St, Plymouth"}, {"business_status": "OPERATIONAL", "geometry": {"location": {"lat": 50.3747437, "lng": -4.1650185}, "viewport": {"northeast": {"lat": 50.37605712989271, "lng": -4.163624820107278}, "southwest": {"lat": 50.37335747010727, "lng": -4.166324479892721}}}, "icon": "https://maps.gstatic.com/mapfiles/place_api/icons/v1/png_71/bar-71.png", "icon_background_color": "#FF9E67", "icon_mask_base_uri": "https://maps.gstatic.com/mapfiles/place_api/icons/v2/bar_pinlet", "name": "The Firkin Scholar", "opening_hours": {"open_now": true}, "photos": [{"height": 1530, "html_attributions": ["<a href=\"https://maps.google.com/maps/contrib/111937793266037611953\">The Firkin Scholar .</a>"], "photo_reference": "AUc7tXW7FrerZL2TpUOnl4j8rHS52hDbXRCTfzkTd363Ao6C5jKXjwMxiJ9e5JzDlb8S8RmSs0M1btfmh8qysTccrWnRdzsV_CCBn6ARHKNcU8NvMc0JrslJcwUGVOpJl9DphU5ky1QWOCt8sSave0tmZ-yU2liTKxvYxH45La4e1_x8YlF7", "width": 2048}], "place_id": "ChIJQTA2_mqTbEgR_NXpixmsa08", "plus_code": {"compound_code": "9RFM+VX Plymouth, United Kingdom", "global_code": "9C2Q9RFM+VX"}, "price_level": 1, "rating": 4.3, "reference": "ChIJQTA2_mqTbEgR_NXpixmsa08", "scope": "GOOGLE", "types": ["bar", "restaurant", "food", "point_of_interest", "establishment"], "user_ratings_total": 145, "vicinity": "Paradise Rd, Stoke, Plymouth"}, {"business_status": "OPERATIONAL", "geometry": {"location": {"lat": 50.3749884, "lng": -4.137075400000001}, "viewport": {"northeast": {"lat": 50.37639302989272, "lng": -4.135673520107278}, "southwest": {"lat": 50.37369337010728, "lng": -4.138373179892722}}}, "icon": "https://maps.gstatic.com/mapfiles/place_api/icons/v1/png_71/bar-71.png", "icon_background_color": "#FF9E67", "icon_mask_base_uri": "https://maps.gstatic.com/mapfiles/place_api/icons/v2/bar_pinlet", "name": "The Skiving Scholar", "opening_hours": {"open_now": true}, "photos": [{"height": 768, "html_attributions": ["<a href=\"https://maps.google.com/maps/contrib/100849466879509215826\">Ian Turner</a>"], "photo_reference": "AUc7tXVDRMAUWBU_9DzWrUeMkBsV2x9j1lOHmHHTT-ox3J-PsePIpForp7-7dOGNj75W2qeopgHadvoCv3mn_eUmviJsG5ZJ5Wg0tsCtPzHlB6CejT2kFLQZLN1Wpz2mUuZIefCw21_uD3oNcKON3mgIKHxIh3NqGifcjbsEhAZdhLHCPRiF", "width": 1024}], "place_id": "ChIJ3fkD3bTsbEgRL8_JNDgc_WA", "plus_code": {"compound_code": "9VG7+25 Plymouth, United Kingdom", "global_code": "9C2Q9VG7+25"}, "price_level": 1, "rating": 3.9, "reference": "ChIJ3fkD3bTsbEgRL8_JNDgc_WA", "scope": "GOOGLE", "types": ["bar", "restaurant", "food", "point_of_interest", "establishment"], "user_ratings_total": 340, "vicinity": "1 Tavistock Pl, Plymouth"}, {"business_status": "OPERATIONAL", "geometry": {"location": {"lat": 50.3683228, "lng": -4.1357731}, "viewport": {"northeast": {"lat": 50.36969382989273, "lng": -4.134437220107277}, "southwest": {"lat": 50.36699417010728, "lng": -4.137136879892721}}}, "icon": "https://maps.gstatic.com/mapfiles/place_api/icons/v1/png_71/bar-71.png", "icon_background_color": "#FF9E67", "icon_mask_base_uri": "https://maps.gstatic.com/mapfiles/place_api/icons/v2/bar_pinlet", "name": "The Three Crowns", "opening_hours": {"open_now": true}, "photos": [{"height": 2252, "html_attributions": ["<a href=\"https://maps.google.com/maps/contrib/113906523975664529067\">patrick gilmer</a>"], "photo_reference": "AUc7tXUwvEd7LnYcwYX72ymqStwz5O0kD3BZD0idPKJIwGiWbg-DDrWVRLm5Uy8USzYa7ZPw4lEwqEp9jUtzN96IUBsJw1FO5-XMYDCAr6v8I0GF956GVSbEQ78W3zU4WWcZQsyHSfvZPVyemqHI16JABKbiTKtv23yI2LvMOnGxElssCpW_", "width": 4000}], "place_id": "ChIJrdlporLsbEgRMT3BhV1iV50", "plus_code": {"compound_code": "9V97+8M Plymouth, United Kingdom", "global_code": "9C2Q9V97+8M"}, "price_level": 2, "rating": 4.1, "reference": "ChIJrdlporLsbEgRMT3BhV1iV50", "scope": "GOOGLE", "types": ["meal_takeaway", "bar", "restaurant", "food", "point_of_interest", "establishment"], "user_ratings_total": 896, "vicinity": "11 The Parade, Plymouth"}, {"business_status": "OPERATIONAL", "geometry": {"location": {"lat": 50.3696919, "lng": -4.147223299999999}, "viewport": {"northeast": {"lat": 50.37110527989271, "lng": -4.145908320107279}, "southwest": {"lat": 50.36840562010727, "lng": -4.148607979892723}}}, "icon": "https://maps.gstatic.com/mapfiles/place_api/icons/v1/png_71/bar-71.png", "icon_background_color": "#FF9E67", "icon_mask_base_uri": "https://maps.gstatic.com/mapfiles/place_api/icons/v2/bar_pinlet", "name": "Walkabout - Plymouth", "opening_hours": {"open_now": true}, "photos": [{"height": 3024, "html_attributions": ["<a href=\"https://maps.google.com/maps/contrib/117668801197595940374\">Angela Kerr</a>"], "photo_reference": "AUc7tXXhzg9DTfrK2u6nQ0A-95fYT8PicPfnqO3TIygR1p37chnmUr-kcIzr5gIUI0iRPykHSHIFmiZVg_f_XnKCE6DA4cIFt3y83S2YbvmtSp17NuLjO8rVbGKigl0xuPVcOvzShB_6OGOxIRCB7dTC0n13X6dBNYQv-1HEjXu1O7KxumLu", "width": 4032}], "place_id": "ChIJG-1qqU-TbEgRNkTfPCBc1Ew", "plus_code": {"compound_code": "9V93+V4 Plymouth, United Kingdom", "global_code": "9C2Q9V93+V4"}, "price_level": 2, "rating": 4.1, "reference": "ChIJG-1qqU-TbEgRNkTfPCBc1Ew", "scope": "GOOGLE", "types": ["night_club", "bar", "restaurant", "food", "point_of_interest", "establishment"], "user_ratings_total": 1421, "vicinity": "5 Union St, Plymouth"}, {"business_status": "OPERATIONAL", "geometry": {"location": {"lat": 50.3706324, "lng": -4.1370553}, "viewport": {"northeast": {"lat": 50.37198222989272, "lng": -4.135705470107278}, "southwest": {"lat": 50.36928257010727, "lng": -4.138405129892722}}}, "icon": "https://maps.gstatic.com/mapfiles/place_api/icons/v1/png_71/bar-71.png", "icon_background_color": "#FF9E67", "icon_mask_base_uri": "https://maps.gstatic.com/mapfiles/place_api/icons/v2/bar_pinlet", "name": "BrewDog Plymouth", "opening_hours": {"open_now": true}, "photos": [{"height": 9000, "html_attributions": ["<a href=\"https://maps.google.com/maps/contrib/108797947694814744492\">Shaun Badmin</a>"], "photo_reference": "AUc7tXWoe4zLnoMXxK1INdowo8SWCm_5vE4Yr_IFUxUZYeTDKueYk0vT3NvMtPPjwImWtvTdyD4D2F8m2QLPFsOZmRS1wykD9rpy99OIy6RuaA75vDJpeH2MYRbn1jr_ihZdJ-Z9kIdDg1TsiVrhY2WchgUIKL6jeVieM3cH3OQZoVnpeBrk", "width": 12000}], "place_id": "ChIJMzZmWGvtbEgR0C3mXio4MB8", "plus_code": {"compound_code": "9VC7+75 Plymouth, United Kingdom", "global_code": "9C2Q9VC7+75"}, "price_level": 2, "rating": 4.3, "reference": "ChIJMzZmWGvtbEgR0C3mXio4MB8", "scope": "GOOGLE", "types": ["bar", "restaurant", "food", "point_of_interest", "establishment"], "user_ratings_total": 365, "vicinity": "Unit 10, the barcode, 11 Bretonside, Plymouth"}, {"business_status": "OPERATIONAL", "geometry": {"location": {"lat": 50.37532849999999, "lng": -4.1596625}, "viewport": {"northeast": {"lat": 50.37670097989272, "lng": -4.158334720107278}, "southwest": {"lat": 50.37400132010728, "lng": -4.161034379892722}}}, "icon": "https://maps.gstatic.com/mapfiles/place_api/icons/v1/png_71/bar-71.png", "icon_background_color": "#FF9E67", "icon_mask_base_uri": "https://maps.gstatic.com/mapfiles/place_api/icons/v2/bar_pinlet", "name": "Millbridge Inn", "opening_hours": {"open_now": true}, "photos": [{"height": 1944, "html_attributions": ["<a href=\"https://maps.google.com/maps/contrib/103979102774943738271\">Andy Bailey</a>"], "photo_reference": "AUc7tXVJojrXk_4KPxEaiyPpmTe5_hf7vn4dwKu2ml6g2EOB4IBigPIQ5sdppZ3WFf_uLRMsEkI-hwSQA9QzYSxPFES5nQxQ3XP3x0JMhBdy419SflAAhxj2GN-Kd7IcUOLAwUdcE61I37SbFY9bxASsGS2FvsPkDhCZ8RVht3o1u498wdIh", "width": 2592}], "place_id": "ChIJO6wL90CTbEgRostF84G9xRU", "plus_code": {"compound_code": "9RGR+44 Plymouth, United Kingdom", "global_code": "9C2Q9RGR+44"}, "price_level": 1, "rating": 4.3, "reference": "ChIJO6wL90CTbEgRostF84G9xRU", "scope": "GOOGLE", "types": ["bar", "restaurant", "food", "point_of_interest", "establishment"], "user_ratings_total": 311, "vicinity": "23 Molesworth Rd, Stoke, Plymouth"}, {"business_status": "OPERATIONAL", "geometry": {"location": {"lat": 50.3803806, "lng": -4.166732}, "viewport": {"northeast": {"lat": 50.38172442989272, "lng": -4.165363570107279}, "southwest": {"lat": 50.37902477010728, "lng": -4.168063229892723}}}, "icon": "https://maps.gstatic.com/mapfiles/place_api/icons/v1/png_71/bar-71.png", "icon_background_color": "#FF9E67", "icon_mask_base_uri": "https://maps.gstatic.com/mapfiles/place_api/icons/v2/bar_pinlet", "name": "Stoke Bar & Grill", "opening_hours": {"open_now": true}, "photos": [{"height": 2046, "html_attributions": ["<a href=\"https://maps.google.com/maps/contrib/116233273788890691700\">A Google User</a>"], "photo_reference": "AUc7tXXSOvHC5C8yw2WnrolLFqdm6ecV4RDBjGPCtYuNiTcBR64vO2XCmajdGd7I9ZGwcTWtEDEIXmdmtzb1xMNo0j_RdPppD4dI-ihakEvnJBaStq9fP3VKkuLp4rvsGeyZmhNGx7Ota0ZYX-mxrD-WnIPW5A2lYTd5xD-_zv8AToZPnYEz", "width": 1639}], "place_id": "ChIJk4PYTBSTbEgR5-nFNeH0yfw", "plus_code": {"compound_code": "9RJM+57 Plymouth, United Kingdom", "global_code": "9C2Q9RJM+57"}, "price_level": 1, "rating": 4.3, "reference": "ChIJk4PYTBSTbEgR5-nFNeH0yfw", "scope": "GOOGLE", "types": ["bar", "restaurant", "food", "point_of_interest", "establishment"], "user_ratings_total": 546, "vicinity": "72-74 Devonport Rd, Stoke, Plymouth"}, {"business_status": "OPERATIONAL", "geometry": {"location": {"lat": 50.3579818, "lng": -4.1234376}, "viewport": {"northeast": {"lat": 50.35926497989271, "lng": -4.122112720107277}, "southwest": {"lat": 50.35656532010727, "lng": -4.124812379892721}}}, "icon": "https://maps.gstatic.com/mapfiles/place_api/icons/v1/png_71/restaurant-71.png", "icon_background_color": "#FF9E67", "icon_mask_base_uri": "https://maps.gstatic.com/mapfiles/place_api/icons/v2/restaurant_pinlet", "name": "The Bridge", "opening_hours": {"open_now": true}, "photos": [{"height": 3036, "html_attributions": ["<a href=\"https://maps.google.com/maps/contrib/104862436035994824321\">Ian Letts</a>"], "photo_reference": "AUc7tXVuxDiRuas28OQW9x6Y3G8XzqR1DBM51wDDz3TpqAbpxFMnF-IJEy6i_rLbEiXimYr0iGLNpHajCPKyO58ZrsiwdkLcuQzO54yZm5rMuucxQuykC1UMPiNsBEVybjpz-8IUGaPnruYQoiUsM0srLPV0g8A-SbOm2lZsGfx8o7u718EZ", "width": 4048}], "place_id": "ChIJe5F29afsbEgRNwCQLvpe_S4", "plus_code": {"compound_code": "9V5G+5J Plymouth, United Kingdom", "global_code": "9C2Q9V5G+5J"}, "price_level": 2, "rating": 4.4, "reference": "ChIJe5F29afsbEgRNwCQLvpe_S4", "scope": "GOOGLE", "types": ["restaurant", "bar", "food", "point_of_interest", "establishment"], "user_ratings_total": 641, "vicinity": "The Bridge Bar & Restaurant, Mount Batten, Plymouth"}, {"business_status": "OPERATIONAL", "geometry": {"location": {"lat": 50.3676375, "lng": -4.151208}, "viewport": {"northeast": {"lat": 50.36897647989272, "lng": -4.149797270107277}, "southwest": {"lat": 50.36627682010728, "lng": -4.152496929892721}}}, "icon": "https://maps.gstatic.com/mapfiles/place_api/icons/v1/png_71/bar-71.png", "icon_background_color": "#FF9E67", "icon_mask_base_uri": "https://maps.gstatic.com/mapfiles/place_api/icons/v2/bar_pinlet", "name": "Salumi Bar & Eatery", "opening_hours": {"open_now": true}, "photos": [{"height": 3417, "html_attributions": ["<a href=\"https://maps.google.com/maps/contrib/106001860682903414535\">Salumi</a>"], "photo_reference": "AUc7tXVk87qXTJsdlidh02DN03VqDKcBPA-Qc3GvqWoVx_hxDXRrei21vvZm40TiKLzXwRzMxSsYbnBpq7717um4gMZdLVkzJi0qa1BsIz3p8bs4tfaXBi6cXJNjPiERS8k2CjxEaxjO5n70QXf-eaZTxJR9AksEHojGShlUyl_QELu8UvuQ", "width": 4964}], "place_id": "ChIJt2RINkWTbEgRsNw9CQJTeuk", "plus_code": {"compound_code": "9R9X+3G Plymouth, United Kingdom", "global_code": "9C2Q9R9X+3G"}, "price_level": 2, "rating": 4.6, "reference": "ChIJt2RINkWTbEgRsNw9CQJTeuk", "scope": "GOOGLE", "types": ["bar", "restaurant", "food", "point_of_interest", "establishment"], "user_ratings_total": 952, "vicinity": "18 Millbay Rd, Plymouth"}, {"business_status": "OPERATIONAL", "geometry": {"location": {"lat": 50.3689853, "lng": -4.134136799999999}, "viewport": {"northeast": {"lat": 50.37032327989272, "lng": -4.132780720107276}, "southwest": {"lat": 50.36762362010727, "lng": -4.13548037989272}}}, "icon": "https://maps.gstatic.com/mapfiles/place_api/icons/v1/png_71/bar-71.png", "icon_background_color": "#FF9E67", "icon_mask_base_uri": "https://maps.gstatic.com/mapfiles/place_api/icons/v2/bar_pinlet", "name": "Marina Bar", "opening_hours": {"open_now": true}, "photos": [{"height": 3120, "html_attributions": ["<a href=\"https://maps.google.com/maps/contrib/107139192443991397050\">Tomasz Podolec</a>"], "photo_reference": "AUc7tXWHbGOuYTCH7oVGa8XKg9MjTIhnM49jqxA1HWnCw9vjbkzu6B5lbo5BiSo0xRuAav4IvrzX8rdDu5eZ_4FUtikoPyL2U8rRllYRaLncY3htmmNIHnHrWzcBidwGpJiAtHY9BOdoXFDBlZOyOMVW98vkY1FsEnWyQDFDjAfEQzICWqyB", "width": 4160}], "place_id": "ChIJZzPnYLLsbEgRHVBSlmUyBuQ", "plus_code": {"compound_code": "9V98+H8 Plymouth, United Kingdom", "global_code": "9C2Q9V98+H8"}, "price_level": 2, "rating": 4.3, "reference": "ChIJZzPnYLLsbEgRHVBSlmUyBuQ", "scope": "GOOGLE", "types": ["bar", "restaurant", "food", "point_of_interest", "establishment"], "user_ratings_total": 374, "vicinity": "Sutton Harbour, Plymouth"}, {"business_status": "OPERATIONAL", "geometry": {"location": {"lat": 50.3622371, "lng": -4.1642826}, "viewport": {"northeast": {"lat": 50.36345072989272, "lng": -4.163005020107278}, "southwest": {"lat": 50.36075107010728, "lng": -4.165704679892722}}}, "icon": "https://maps.gstatic.com/mapfiles/place_api/icons/v1/png_71/restaurant-71.png", "icon_background_color": "#FF9E67", "icon_mask_base_uri": "https://maps.gstatic.com/mapfiles/place_api/icons/v2/restaurant_pinlet", "name": "Seco Lounge", "opening_hours": {"open_now": true}, "photos": [{"height": 3024, "html_attributions": ["<a href=\"https://maps.google.com/maps/contrib/109038192397564791769\">Rob Cox</a>"], "photo_reference": "AUc7tXUlSKVHj4_UZTiJuV_D-voxT9QN-aiBpilmAi28QLAbPokd-S0ui-fv-nkWzr1LDn5ClA_Z_JSQgtFZN0gyBzLGLkNIg57A03kT2QyRN68uT8NSaBFwjrNxGb2I0bYZkdNduu51psBdC9lD0se80cUnVPq8cfzt6DHBhFBUmY4kiIZd", "width": 4032}], "place_id": "ChIJ6X4w0GaTbEgRKaG8q2AgJXc", "plus_code": {"compound_code": "9R6P+V7 Plymouth, United Kingdom", "global_code": "9C2Q9R6P+V7"}, "price_level": 2, "rating": 4.3, "reference": "ChIJ6X4w0GaTbEgRKaG8q2AgJXc", "scope": "GOOGLE", "types": ["restaurant", "cafe", "bar", "food", "point_of_interest", "establishment"], "user_ratings_total": 1956, "vicinity": "12-15, Mills Bakery, 4 Royal William Rd, Stonehouse, Plymouth"}, {"business_status": "OPERATIONAL", "geometry": {"location": {"lat": 50.38091989999999, "lng": -4.1656976}, "viewport": {"northeast": {"lat": 50.38229162989273, "lng": -4.164350920107277}, "southwest": {"lat": 50.37959197010728, "lng": -4.167050579892721}}}, "icon": "https://maps.gstatic.com/mapfiles/place_api/icons/v1/png_71/bar-71.png", "icon_background_color": "#FF9E67", "icon_mask_base_uri": "https://maps.gstatic.com/mapfiles/place_api/icons/v2/bar_pinlet", "name": "Stoke Inn", "opening_hours": {"open_now": true}, "photos": [{"height": 2736, "html_attributions": ["<a href=\"https://maps.google.com/maps/contrib/115093075940537700823\">A Google User</a>"], "photo_reference": "AUc7tXUVUhkiWkMMMOlVT9robvTdigKH2miJKM5f7468nvcv-pTIm0qrl4k39SvnqNm274IbQrjEgXsjfMuk6-XLQLqC0ACUdYGijw_OrOds9_j10IGweGUix5EbF4a82AaCfOdUI7jZOIB2mcoV3BnCSzvctmx2o0tev_x5SsLwFBIo8b49", "width": 3648}], "place_id": "ChIJ-fLasBWTbEgRsOhWE_DhXNM", "plus_code": {"compound_code": "9RJM+9P Plymouth, United Kingdom", "global_code": "9C2Q9RJM+9P"}, "price_level": 2, "rating": 4, "reference": "ChIJ-fLasBWTbEgRsOhWE_DhXNM", "scope": "GOOGLE", "types": ["bar", "restaurant", "food", "point_of_interest", "establishment"], "user_ratings_total": 192, "vicinity": "43 Devonport Rd, Stoke, Plymouth"}, {"business_status": "OPERATIONAL", "geometry": {"location": {"lat": 50.3704318, "lng": -4.137483599999999}, "viewport": {"northeast": {"lat": 50.37193367989272, "lng": -4.136316020107278}, "southwest": {"lat": 50.36923402010728, "lng": -4.139015679892722}}}, "icon": "https://maps.gstatic.com/mapfiles/place_api/icons/v1/png_71/restaurant-71.png", "icon_background_color": "#FF9E67", "icon_mask_base_uri": "https://maps.gstatic.com/mapfiles/place_api/icons/v2/restaurant_pinlet", "name": "Cosy Club", "opening_hours": {"open_now": true}, "photos": [{"height": 3989, "html_attributions": ["<a href=\"https://maps.google.com/maps/contrib/104395419752500033279\">A Google User</a>"], "photo_reference": "AUc7tXXKdl75XLfsz05PalCxDoiZvaeO-Xkn7PvX5me0NLUl1jm3ey_Mdtw97q_JGaLJXGDyTkplrHwTToNtZW7D9KBAB5pUjZCJPk4sotZMh8jtulXLcPZnXVXCUKoBcJo8XKLTj3pMI_36Fl4JOw2oozeef2PGzmL6L38ITXRkST1ojj8s", "width": 5584}], "place_id": "ChIJfQCuVSztbEgRtfkduSrTKms", "plus_code": {"compound_code": "9VC7+52 Plymouth, United Kingdom", "global_code": "9C2Q9VC7+52"}, "price_level": 2, "rating": 4.3, "reference": "ChIJfQCuVSztbEgRtfkduSrTKms", "scope": "GOOGLE", "types": ["bar", "restaurant", "food", "point_of_interest", "establishment"], "user_ratings_total": 1089, "vicinity": "Drake Circus: The Barcode, Unit 3, 11, Bretonside, Plymouth"}, {"business_status": "OPERATIONAL", "geometry": {"location": {"lat": 50.36774399999999, "lng": -4.129286}, "viewport": {"northeast": {"lat": 50.36908562989272, "lng": -4.127826120107278}, "southwest": {"lat": 50.36638597010727, "lng": -4.130525779892722}}}, "icon": "https://maps.gstatic.com/mapfiles/place_api/icons/v1/png_71/restaurant-71.png", "icon_background_color": "#FF9E67", "icon_mask_base_uri": "https://maps.gstatic.com/mapfiles/place_api/icons/v2/restaurant_pinlet", "name": "Lockyers Quay Cookhouse + Pub", "opening_hours": {"open_now": true}, "photos": [{"height": 998, "html_attributions": ["<a href=\"https://maps.google.com/maps/contrib/104155102304294913143\">A Google User</a>"], "photo_reference": "AUc7tXUNM22-4JRyU_3gkKnkfDR1g3gqVVYbQZx7ecRxvEi08FfP0SRDBEEM7nQlb6EJfVcGjGienzgJqgIwIFbMjrAXQz7Uq4V09TgrluNrcX-A2AZoN4UPHUFOvVZxc8AKY9DgaEFOC9bTsivps6uUiM4E0A2Q8vn2RgNp8Gien98RZIJO", "width": 1500}], "place_id": "ChIJK5z7bhbtbEgR4FHHH6Q2gRU", "plus_code": {"compound_code": "9V9C+37 Plymouth, United Kingdom", "global_code": "9C2Q9V9C+37"}, "price_level": 2, "rating": 4, "reference": "ChIJK5z7bhbtbEgR4FHHH6Q2gRU", "scope": "GOOGLE", "types": ["restaurant", "bar", "food", "point_of_interest", "establishment"], "user_ratings_total": 759, "vicinity": "1 Lockyers Quay, Plymouth"}, {"business_status": "OPERATIONAL", "geometry": {"location": {"lat": 50.3681226, "lng": -4.1364887}, "viewport": {"northeast": {"lat": 50.36945112989272, "lng": -4.135113370107278}, "southwest": {"lat": 50.36675147010728, "lng": -4.137813029892722}}}, "icon": "https://maps.gstatic.com/mapfiles/place_api/icons/v1/png_71/bar-71.png", "icon_background_color": "#FF9E67", "icon_mask_base_uri": "https://maps.gstatic.com/mapfiles/place_api/icons/v2/bar_pinlet", "name": "The Blues Bar & Grill", "opening_hours": {"open_now": true}, "photos": [{"height": 3024, "html_attributions": ["<a href=\"https://maps.google.com/maps/contrib/110247577080858210934\">Cait Myers</a>"], "photo_reference": "AUc7tXVciTNejIz9Boi-NKoJF8P8-_40cbtvCKib-WSGzL5n8gEsVxEQ1fqnfuiJoIFPQTDa0zvyZNqYfoYVx4XE97t0Jp8ee5P7Hx_xojc4Dm5nK7wlLByPxxH1FFS7c6gQlDxOPO9KH7Zvovuv14lxuphHhLx5hwhKassBrBK69HkGFreP", "width": 3024}], "place_id": "ChIJ25IBo7LsbEgRacwc_6wyh7M", "plus_code": {"compound_code": "9V97+7C Plymouth, United Kingdom", "global_code": "9C2Q9V97+7C"}, "price_level": 2, "rating": 4.5, "reference": "ChIJ25IBo7LsbEgRacwc_6wyh7M", "scope": "GOOGLE", "types": ["bar", "restaurant", "food", "point_of_interest", "establishment"], "user_ratings_total": 658, "vicinity": "8, The Parade, Parade, Plymouth"}, {"business_status": "OPERATIONAL", "geometry": {"location": {"lat": 50.3694621, "lng": -4.1461971}, "viewport": {"northeast": {"lat": 50.37087602989271, "lng": -4.144934120107279}, "southwest": {"lat": 50.36817637010727, "lng": -4.147633779892723}}}, "icon": "https://maps.gstatic.com/mapfiles/place_api/icons/v1/png_71/bar-71.png", "icon_background_color": "#FF9E67", "icon_mask_base_uri": "https://maps.gstatic.com/mapfiles/place_api/icons/v2/bar_pinlet", "name": "Revolution Plymouth", "opening_hours": {"open_now": true}, "photos": [{"height": 3456, "html_attributions": ["<a href=\"https://maps.google.com/maps/contrib/109707011695984610234\">A Google User</a>"], "photo_reference": "AUc7tXWS-3MkVvmPVcKPVjhhhiai__wXEBTGcp-pkbRXk8s6VEP9K6JFhKbt22Lscwjnsu2WCmK15iPpaul7SX4K8ZcC8jwbrmHM3iS9NGWAKDwxrZvXKTNWTaYarZkzDKV44DWt7zeAwTUsxEmCr0miWX4EC-zy-2oO8zQ1RNP9tQ6AqSZc", "width": 5184}], "place_id": "ChIJmaccUE6TbEgRFHvSpokucSs", "plus_code": {"compound_code": "9V93+QG Plymouth, United Kingdom", "global_code": "9C2Q9V93+QG"}, "price_level": 2, "rating": 4.4, "reference": "ChIJmaccUE6TbEgRFHvSpokucSs", "scope": "GOOGLE", "types": ["night_club", "bar", "restaurant", "food", "point_of_interest", "establishment"], "user_ratings_total": 792, "vicinity": "Unit 1, Plymouth"}, {"business_status": "OPERATIONAL", "geometry": {"location": {"lat": 50.3647486, "lng": -4.1295915}, "viewport": {"northeast": {"lat": 50.36604947989272, "lng": -4.128279470107278}, "southwest": {"lat": 50.36334982010727, "lng": -4.130979129892722}}}, "icon": "https://maps.gstatic.com/mapfiles/place_api/icons/v1/png_71/restaurant-71.png", "icon_background_color": "#FF9E67", "icon_mask_base_uri": "https://maps.gstatic.com/mapfiles/place_api/icons/v2/restaurant_pinlet", "name": "Waypoint Bar and Bistro", "opening_hours": {"open_now": true}, "photos": [{"height": 1908, "html_attributions": ["<a href=\"https://maps.google.com/maps/contrib/104554782630872228228\">Jeff H</a>"], "photo_reference": "AUc7tXVWVxTfGWEIed93n9a7LYwGTNCZPdnTXD0_hg0ztmQCimoy1VjlizsQ-9ZBsWbywHeX7n0bZWKnCjWSQLEAjjMw9jMHgBX8wM41NH0Mt5yys072NdRYRww1qHsZFb1YiLlVG819GemugI3B3ytk2daD9l21MxBM2SnMVjGGOyJXd_6D", "width": 4032}], "place_id": "ChIJjzrnoa_sbEgRMjo1rYliTfs", "plus_code": {"compound_code": "9V7C+V5 Plymouth, United Kingdom", "global_code": "9C2Q9V7C+V5"}, "price_level": 2, "rating": 4.5, "reference": "ChIJjzrnoa_sbEgRMjo1rYliTfs", "scope": "GOOGLE", "types": ["bar", "restaurant", "food", "point_of_interest", "establishment"], "user_ratings_total": 319, "vicinity": "Queen Anne's Battery, Plymouth"}, {"business_status": "OPERATIONAL", "geometry": {"location": {"lat": 50.3676572, "lng": -4.1374304}, "viewport": {"northeast": {"lat": 50.36897187989273, "lng": -4.136120670107277}, "southwest": {"lat": 50.36627222010728, "lng": -4.138820329892721}}}, "icon": "https://maps.gstatic.com/mapfiles/place_api/icons/v1/png_71/bar-71.png", "icon_background_color": "#FF9E67", "icon_mask_base_uri": "https://maps.gstatic.com/mapfiles/place_api/icons/v2/bar_pinlet", "name": "The Gog and Magog - JD Wetherspoon", "opening_hours": {"open_now": true}, "photos": [{"height": 3024, "html_attributions": ["<a href=\"https://maps.google.com/maps/contrib/101731133210543551428\">Guy Petersen</a>"], "photo_reference": "AUc7tXW5mfU0_Y40zyZDbH0QrfV67duV9b-tLqcW86ecCJl0Ex1qWOsKt48JS08RTb1V4F3ojpTOVlTKYTTszoBXVXfeEbimFa6WhlLVRtgfVuBtNH2V1G9VoujibubGBAxbVMI0lO0rjAaDSCw40mz8d-pLR2nn9fiCYrPoN-21HRo4BQxE", "width": 4032}], "place_id": "ChIJe7raqlKTbEgRPbcksRzby3g", "plus_code": {"compound_code": "9V96+2X Plymouth, United Kingdom", "global_code": "9C2Q9V96+2X"}, "price_level": 1, "rating": 4, "reference": "ChIJe7raqlKTbEgRPbcksRzby3g", "scope": "GOOGLE", "types": ["bar", "restaurant", "food", "point_of_interest", "establishment"], "user_ratings_total": 2861, "vicinity": "57-59 Southside St, Plymouth"}, {"business_status": "OPERATIONAL", "geometry": {"location": {"lat": 50.371928, "lng": -4.1428275}, "viewport": {"northeast": {"lat": 50.37349872989272, "lng": -4.141866870107278}, "southwest": {"lat": 50.37079907010727, "lng": -4.144566529892722}}}, "icon": "https://maps.gstatic.com/mapfiles/place_api/icons/v1/png_71/restaurant-71.png", "icon_background_color": "#FF9E67", "icon_mask_base_uri": "https://maps.gstatic.com/mapfiles/place_api/icons/v2/restaurant_pinlet", "name": "Jack n Mols", "opening_hours": {"open_now": true}, "photos": [{"height": 3000, "html_attributions": ["<a href=\"https://maps.google.com/maps/contrib/112330391247161602475\">A Google User</a>"], "photo_reference": "AUc7tXXqiHHwgQijKabn242gDcq43mgvOKt3gATcljLsJMDstrbf1UALG5ERWgknXkFFZuXY6yedSWtZYyA-7_1U1BMydmMDtkSSp4d3JfspJwY-LgPX23Cl_LHht_XfzFLrh_v1kdBdE3W1QUWzMIw4g-xM_AtG4djJmoT4zf43LkD6THOo", "width": 4000}], "place_id": "ChIJM3MzEkyTbEgR6EH-wOYe7M0", "plus_code": {"compound_code": "9VC4+QV Plymouth, United Kingdom", "global_code": "9C2Q9VC4+QV"}, "price_level": 2, "rating": 4.3, "reference": "ChIJM3MzEkyTbEgR6EH-wOYe7M0", "scope": "GOOGLE", "types": ["restaurant", "bar", "food", "point_of_interest", "establishment"], "user_ratings_total": 524, "vicinity": "133 Armada Way, Plymouth"}, {"business_status": "OPERATIONAL", "geometry": {"location": {"lat": 50.3696732, "lng": -4.1480137}, "viewport": {"northeast": {"lat": 50.37110077989272, "lng": -4.146696620107278}, "southwest": {"lat": 50.36840112010728, "lng": -4.149396279892722}}}, "icon": "https://maps.gstatic.com/mapfiles/place_api/icons/v1/png_71/bar-71.png", "icon_background_color": "#FF9E67", "icon_mask_base_uri": "https://maps.gstatic.com/mapfiles/place_api/icons/v2/bar_pinlet", "name": "The Union Rooms - JD Wetherspoon", "opening_hours": {"open_now": true}, "photos": [{"height": 3000, "html_attributions": ["<a href=\"https://maps.google.com/maps/contrib/113959627891990317291\">Inki Dianov</a>"], "photo_reference": "AUc7tXVX76HbcDr9e-se1009Pf1tIgV-cuC4VmTGqyesMgM_N4_horOLhFTANl4NC8F1jfeFMTzvRpsirwHvchjIyVvF3He67EwerwbASoZAkrKCUM2_ZndBo2R9TesnZOLcVcNAFIP8o9tngd-lr2ocC1AfjpLyb9JUqeHUHVvKLrPGAKyG", "width": 4000}], "place_id": "ChIJ48IHoE-TbEgRzZHIws0V4Bk", "plus_code": {"compound_code": "9V92+VQ Plymouth, United Kingdom", "global_code": "9C2Q9V92+VQ"}, "price_level": 1, "rating": 3.8, "reference": "ChIJ48IHoE-TbEgRzZHIws0V4Bk", "scope": "GOOGLE", "types": ["bar", "restaurant", "food", "point_of_interest", "establishment"], "user_ratings_total": 4713, "vicinity": "19 Union St, Plymouth"}, {"business_status": "OPERATIONAL", "geometry": {"location": {"lat": 50.3681455, "lng": -4.136234}, "viewport": {"northeast": {"lat": 50.36950472989272, "lng": -4.134832620107278}, "southwest": {"lat": 50.36680507010728, "lng": -4.137532279892722}}}, "icon": "https://maps.gstatic.com/mapfiles/place_api/icons/v1/png_71/bar-71.png", "icon_background_color": "#FF9E67", "icon_mask_base_uri": "https://maps.gstatic.com/mapfiles/place_api/icons/v2/bar_pinlet", "name": "Custom House Plymouth", "opening_hours": {"open_now": true}, "photos": [{"height": 641, "html_attributions": ["<a href=\"https://maps.google.com/maps/contrib/101641307357783217742\">A Google User</a>"], "photo_reference": "AUc7tXVHWi9dHAD2u7XXkMZ1QZZciUbScKGDHJFwz1Xqip6WG17ReqUHEit19Jx_RkSOcbBn_angoX0ds9ZC-NfC8YhZ5kvPK7xHrVGPHfDiy291yw03U6ahFf5bCtVJq6Dd6pDFS9Q6nYbDAr9rmgITUJOq7C__uVCLDPnIwM8PAtEZkPyd", "width": 960}], "place_id": "ChIJYYbhVs7tbEgRNlhI_bWQWmE", "plus_code": {"compound_code": "9V97+7G Plymouth, United Kingdom", "global_code": "9C2Q9V97+7G"}, "rating": 4.4, "reference": "ChIJYYbhVs7tbEgRNlhI_bWQWmE", "scope": "GOOGLE", "types": ["bar", "restaurant", "food", "point_of_interest", "establishment"], "user_ratings_total": 116, "vicinity": "Custom House (left entrance, Plymouth"}, {"business_status": "OPERATIONAL", "geometry": {"location": {"lat": 50.36877639999999, "lng": -4.141716400000001}, "viewport": {"northeast": {"lat": 50.37015437989272, "lng": -4.140548620107277}, "southwest": {"lat": 50.36745472010728, "lng": -4.143248279892721}}}, "icon": "https://maps.gstatic.com/mapfiles/place_api/icons/v1/png_71/bar-71.png", "icon_background_color": "#FF9E67", "icon_mask_base_uri": "https://maps.gstatic.com/mapfiles/place_api/icons/v2/bar_pinlet", "name": "Slug & Lettuce - Plymouth", "opening_hours": {"open_now": true}, "photos": [{"height": 3024, "html_attributions": ["<a href=\"https://maps.google.com/maps/contrib/105394489000294686567\">Tom Way</a>"], "photo_reference": "AUc7tXWiKvkibVKr5vhjsL93jk2fEYKVRZGOSeM5WQu9iofPh8PV7s7YpatyJvUPKhsFUkwvS4fecDGDAjhm-NZ-tJfO6jPbKrbYpnCQFS5B4DOfBXodP2rCoWG0XnnTBR2t0Uat-OlglOdOIgWtmyY8krBCZCwthTJrr-gz3oBJekisBbbT", "width": 4032}], "place_id": "ChIJEQfav02TbEgRUUS859E0Qwc", "plus_code": {"compound_code": "9V95+G8 Plymouth, United Kingdom", "global_code": "9C2Q9V95+G8"}, "price_level": 2, "rating": 4.1, "reference": "ChIJEQfav02TbEgRUUS859E0Qwc", "scope": "GOOGLE", "types": ["bar", "restaurant", "food", "point_of_interest", "establishment"], "user_ratings_total": 2145, "vicinity": "19 Princess St, Plymouth"}, {"business_status": "OPERATIONAL", "geometry": {"location": {"lat": 50.3696972, "lng": -4.140662799999999}, "viewport": {"northeast": {"lat": 50.37108232989272, "lng": -4.139153270107278}, "southwest": {"lat": 50.36838267010728, "lng": -4.141852929892722}}}, "icon": "https://maps.gstatic.com/mapfiles/place_api/icons/v1/png_71/bar-71.png", "icon_background_color": "#FF9E67", "icon_mask_base_uri": "https://maps.gstatic.com/mapfiles/place_api/icons/v2/bar_pinlet", "name": "The Treasury Cafe-Bar-Restaurant", "opening_hours": {"open_now": true}, "photos": [{"height": 3000, "html_attributions": ["<a href=\"https://maps.google.com/maps/contrib/104554782630872228228\">Jeff H</a>"], "photo_reference": "AUc7tXUDpIvHaM5qZ0JCkrLsxYrdYRSfyF5PDlqkfQWPFZVCa7yMXe64VQnK-o8eKAPaDrHL2M1JSJUXrj8cFtp1tea8FR8-Chhn78WzaoUBbQaIOYFEgeusKxCAzoFlu_cDuZ8OFEo33QBQoQylogoMszE1CIG6hzARHNwsnS57c3lRtWtk", "width": 4000}], "place_id": "ChIJfWK9B02TbEgRo034M02uyC0", "plus_code": {"compound_code": "9V95+VP Plymouth, United Kingdom", "global_code": "9C2Q9V95+VP"}, "price_level": 2, "rating": 4.2, "reference": "ChIJfWK9B02TbEgRo034M02uyC0", "scope": "GOOGLE", "types": ["bar", "cafe", "restaurant", "food", "point_of_interest", "establishment"], "user_ratings_total": 907, "vicinity": "Catherine St, Plymouth"}, {"business_status": "OPERATIONAL", "geometry": {"location": {"lat": 50.385739, "lng": -4.1573047}, "viewport": {"northeast": {"lat": 50.38702732989272, "lng": -4.156047470107278}, "southwest": {"lat": 50.38432767010728, "lng": -4.158747129892722}}}, "icon": "https://maps.gstatic.com/mapfiles/place_api/icons/v1/png_71/bar-71.png", "icon_background_color": "#FF9E67", "icon_mask_base_uri": "https://maps.gstatic.com/mapfiles/place_api/icons/v2/bar_pinlet", "name": "The Britannia Inn - JD Wetherspoon", "opening_hours": {"open_now": true}, "photos": [{"height": 2867, "html_attributions": ["<a href=\"https://maps.google.com/maps/contrib/103775784276787246930\">A Google User</a>"], "photo_reference": "AUc7tXVJdwQ4w41jJpyFBiDz-Dhgk1F5xi_IP-om4qVADZnXz0T7mSy8ZwBvt9m8M6rH-kG9HQYnv6d3W7HSum8wH5LrxkBjqDpkcxCCvVCMWmjRImNI84SCv8IvR3s2vcskhQ-v2kuQmCfgUIZPM-RKW8f7Z5pHWs1wZZX7f71VOfP9TV8B", "width": 3823}], "place_id": "ChIJQVrDbzuTbEgRezxf-x0329A", "plus_code": {"compound_code": "9RPV+73 Plymouth, United Kingdom", "global_code": "9C2Q9RPV+73"}, "rating": 4.1, "reference": "ChIJQVrDbzuTbEgRezxf-x0329A", "scope": "GOOGLE", "types": ["lodging", "bar", "restaurant", "food", "point_of_interest", "establishment"], "user_ratings_total": 1739, "vicinity": "1 Wolseley Rd, Milehouse, Plymouth"}, {"business_status": "OPERATIONAL", "geometry": {"location": {"lat": 50.3679385, "lng": -4.1376715}, "viewport": {"northeast": {"lat": 50.36927592989273, "lng": -4.136369970107278}, "southwest": {"lat": 50.36657627010728, "lng": -4.139069629892722}}}, "icon": "https://maps.gstatic.com/mapfiles/place_api/icons/v1/png_71/restaurant-71.png", "icon_background_color": "#FF9E67", "icon_mask_base_uri": "https://maps.gstatic.com/mapfiles/place_api/icons/v2/restaurant_pinlet", "name": "The Bottling Plant Ltd", "opening_hours": {"open_now": true}, "photos": [{"height": 3072, "html_attributions": ["<a href=\"https://maps.google.com/maps/contrib/117613663763979193506\">Mike Lister</a>"], "photo_reference": "AUc7tXXX7NGkQJD4Wx1DY-wEFYExn1Wx0IAatg82GDUHIisY5ANDSnxMQT4o1A-INrCd9qSQwXudvqwnaKCb-e-9rJVXezbCpx6iE_Q6lDz4-5zNrMFQSj0QWRJM8_SklJt76lcTm14GNcGYfsIp0unk4KuuSOghAyPY5uOyEv1AgG9ITbLh", "width": 4080}], "place_id": "ChIJey0XnBWTbEgRkNDC4TtWC5k", "plus_code": {"compound_code": "9V96+5W Plymouth, United Kingdom", "global_code": "9C2Q9V96+5W"}, "rating": 4.4, "reference": "ChIJey0XnBWTbEgRkNDC4TtWC5k", "scope": "GOOGLE", "types": ["restaurant", "bar", "food", "point_of_interest", "establishment"], "user_ratings_total": 411, "vicinity": "5 Southside St, Plymouth"}, {"business_status": "OPERATIONAL", "geometry": {"location": {"lat": 50.3624391, "lng": -4.1635402}, "viewport": {"northeast": {"lat": 50.36374897989273, "lng": -4.162134670107277}, "southwest": {"lat": 50.36104932010728, "lng": -4.164834329892721}}}, "icon": "https://maps.gstatic.com/mapfiles/place_api/icons/v1/png_71/generic_business-71.png", "icon_background_color": "#7B9EB0", "icon_mask_base_uri": "https://maps.gstatic.com/mapfiles/place_api/icons/v2/generic_pinlet", "name": "Steel Brew", "opening_hours": {"open_now": true}, "photos": [{"height": 4000, "html_attributions": ["<a href=\"https://maps.google.com/maps/contrib/111163783331086413533\">A Google User</a>"], "photo_reference": "AUc7tXU6CUWy2qelaX7MyjFvBD_Ij9QDbco0ycZXa7c0fNhSuzc09hp2j_HSPwmDh5TNrU0oXd5vJbAvpA3NAEaKGcgykd54CZ_d0q7Ex4kEX5ABLS-eQNlgWdSlKWMNjGll4KFcUg4ODWfTJ6bxjGQzkiav9hbhljn6H16aHJO4XooNgKKe", "width": 6000}], "place_id": "ChIJrUKj8NSTbEgR0ZADKuwaP74", "plus_code": {"compound_code": "9R6P+XH Plymouth, United Kingdom", "global_code": "9C2Q9R6P+XH"}, "rating": 4.7, "reference": "ChIJrUKj8NSTbEgR0ZADKuwaP74", "scope": "GOOGLE", "types": ["bar", "restaurant", "food", "point_of_interest", "establishment"], "user_ratings_total": 78, "vicinity": "Mills Bakery, Royal William Rd, Stonehouse, Plymouth"}, {"business_status": "OPERATIONAL", "geometry": {"location": {"lat": 50.370812, "lng": -4.1365443}, "viewport": {"northeast": {"lat": 50.37207717989272, "lng": -4.135046620107279}, "southwest": {"lat": 50.36937752010728, "lng": -4.137746279892723}}}, "icon": "https://maps.gstatic.com/mapfiles/place_api/icons/v1/png_71/restaurant-71.png", "icon_background_color": "#FF9E67", "icon_mask_base_uri": "https://maps.gstatic.com/mapfiles/place_api/icons/v2/restaurant_pinlet", "name": "Las Iguanas - Plymouth", "opening_hours": {"open_now": true}, "photos": [{"height": 720, "html_attributions": ["<a href=\"https://maps.google.com/maps/contrib/112234178242674578973\">A Google User</a>"], "photo_reference": "AUc7tXVvSRnHZnQ1KEukpPbLZC4yfCZL4u_ZFfnGcH_OchrsLrShjBj2R8CryVsYMlZpWCpQ93hfqMnNwqpj6sRs9xy7D6Y-waxJPHt98MlHWPUmaHN-HrHcWCnLlZVtgNPXKtht5ZpfW00M2szqHrhozkmnsuBZYtAEOOcsluvqGJl3ldOd", "width": 960}], "place_id": "ChIJoRtb34_tbEgRrG_DTRpBNZM", "plus_code": {"compound_code": "9VC7+89 Plymouth, United Kingdom", "global_code": "9C2Q9VC7+89"}, "price_level": 2, "rating": 4.6, "reference": "ChIJoRtb34_tbEgRrG_DTRpBNZM", "scope": "GOOGLE", "types": ["restaurant", "bar", "food", "point_of_interest", "establishment"], "user_ratings_total": 1100, "vicinity": "11 Bretonside, Plymouth"}, {"business_status": "OPERATIONAL", "geometry": {"location": {"lat": 50.3674975, "lng": -4.13448}, "viewport": {"northeast": {"lat": 50.36869492989272, "lng": -4.133259670107278}, "southwest": {"lat": 50.36599527010728, "lng": -4.135959329892722}}}, "icon": "https://maps.gstatic.com/mapfiles/place_api/icons/v1/png_71/restaurant-71.png", "icon_background_color": "#FF9E67", "icon_mask_base_uri": "https://maps.gstatic.com/mapfiles/place_api/icons/v2/restaurant_pinlet", "name": "Armado Lounge", "opening_hours": {"open_now": true}, "photos": [{"height": 2179, "html_attributions": ["<a href=\"https://maps.google.com/maps/contrib/101459099202574830664\">A Google User</a>"], "photo_reference": "AUc7tXUctGVHgjTxMQrfqIjOrnMl_YZOyDu0h5npgO3mediTipYq8g9ITVz4Aum0grd5w5ifsbH0ZtDO75yN7fgVsEeLCq6Eox4jrycFzLGS7g4bFyAq9adu_ETKTyAxyYATiwvOCmkHMe0mxz6pHPuPCEa8LbOlzGhfzNj463cMAN4IAVfR", "width": 3183}], "place_id": "ChIJYRV1O57tbEgR0vCukGmyafs", "plus_code": {"compound_code": "9V88+X6 Plymouth, United Kingdom", "global_code": "9C2Q9V88+X6"}, "price_level": 2, "rating": 4.1, "reference": "ChIJYRV1O57tbEgR0vCukGmyafs", "scope": "GOOGLE", "types": ["restaurant", "cafe", "bar", "food", "point_of_interest", "establishment"], "user_ratings_total": 241, "vicinity": "Units A-D, Part of, 20 The Barbican, Plymouth"}, {"business_status": "OPERATIONAL", "geometry": {"location": {"lat": 50.3640747, "lng": -4.1440872}, "viewport": {"northeast": {"lat": 50.36549717989272, "lng": -4.142708020107277}, "southwest": {"lat": 50.36279752010728, "lng": -4.145407679892721}}}, "icon": "https://maps.gstatic.com/mapfiles/place_api/icons/v1/png_71/restaurant-71.png", "icon_background_color": "#FF9E67", "icon_mask_base_uri": "https://maps.gstatic.com/mapfiles/place_api/icons/v2/restaurant_pinlet", "name": "Pier One", "opening_hours": {"open_now": true}, "photos": [{"height": 3024, "html_attributions": ["<a href=\"https://maps.google.com/maps/contrib/105342974251341270602\">Michael Tozer</a>"], "photo_reference": "AUc7tXVyc8HOSwqu9yRc5A_3LzBz4VFfIbBIsGsLKcSvw6TjGw1a0vZWJ4WZnM_MpkT7t6WpC8b0CEiX-vKU245Ym57nNkhPJQhcFQSzr7XEPAWNUWU4djFhieC-hBfJP0R1F9_pQkcR1mA9kXitIK68IMMy0bNC_LWrq-5aXMNJ08aMY3Dc", "width": 4032}], "place_id": "ChIJAa-fblGTbEgREVT-vgQhbcA", "plus_code": {"compound_code": "9V74+J9 Plymouth, United Kingdom", "global_code": "9C2Q9V74+J9"}, "price_level": 2, "rating": 4.3, "reference": "ChIJAa-fblGTbEgREVT-vgQhbcA", "scope": "GOOGLE", "types": ["restaurant", "bar", "food", "point_of_interest", "establishment"], "user_ratings_total": 1114, "vicinity": "135 Hoe Rd, Plymouth"}, {"business_status": "OPERATIONAL", "geometry": {"location": {"lat": 50.3746053, "lng": -4.143059300000001}, "viewport": {"northeast": {"lat": 50.37590032989272, "lng": -4.141841620107277}, "southwest": {"lat": 50.37320067010728, "lng": -4.144541279892721}}}, "icon": "https://maps.gstatic.com/mapfiles/place_api/icons/v1/png_71/restaurant-71.png", "icon_background_color": "#FF9E67", "icon_mask_base_uri": "https://maps.gstatic.com/mapfiles/place_api/icons/v2/restaurant_pinlet", "name": "Bentley\u2019s Brasserie", "opening_hours": {"open_now": true}, "place_id": "ChIJXTa8X0kFbkgROvpVKrebmlM", "plus_code": {"compound_code": "9VF4+RQ Plymouth, United Kingdom", "global_code": "9C2Q9VF4+RQ"}, "rating": 5, "reference": "ChIJXTa8X0kFbkgROvpVKrebmlM", "scope": "GOOGLE", "types": ["restaurant", "night_club", "bar", "food", "point_of_interest", "establishment"], "user_ratings_total": 3, "vicinity": "Armada Way, Plymouth"}, {"business_status": "OPERATIONAL", "geometry": {"location": {"lat": 50.3640218, "lng": -4.160298}, "viewport": {"northeast": {"lat": 50.36537327989272, "lng": -4.158929170107277}, "southwest": {"lat": 50.36267362010727, "lng": -4.161628829892721}}}, "icon": "https://maps.gstatic.com/mapfiles/place_api/icons/v1/png_71/restaurant-71.png", "icon_background_color": "#FF9E67", "icon_mask_base_uri": "https://maps.gstatic.com/mapfiles/place_api/icons/v2/restaurant_pinlet", "name": "The Fig Tree @ 36", "opening_hours": {"open_now": true}, "photos": [{"height": 2448, "html_attributions": ["<a href=\"https://maps.google.com/maps/contrib/109229607328996498004\">Elia Perenzin</a>"], "photo_reference": "AUc7tXVIcjm9cunSRZ726OQSBG8YnAFYsgVo8mauob2B5ZDJV6Wm1eFrGYUWRmnhQt4UeFtzpgVGTRP4lrOa4Uqzg6sgG1O8gn8JXN8KPGyxB6Irmu45a_lF7Nm8GxZJkR3wgEs4ZKzy_CWbY7YHYYplO1k4uJTPSh4EH-UfPu2Qjucq5SL4", "width": 3264}], "place_id": "ChIJXShtnF2TbEgRsvSl10iavQI", "plus_code": {"compound_code": "9R7Q+JV Plymouth, United Kingdom", "global_code": "9C2Q9R7Q+JV"}, "price_level": 2, "rating": 4.7, "reference": "ChIJXShtnF2TbEgRsvSl10iavQI", "scope": "GOOGLE", "types": ["restaurant", "food", "point_of_interest", "establishment"], "user_ratings_total": 317, "vicinity": "36 Admiralty St, Stonehouse, Plymouth"}, {"business_status": "OPERATIONAL", "geometry": {"location": {"lat": 50.3707096, "lng": -4.1390853}, "viewport": {"northeast": {"lat": 50.37200217989272, "lng": -4.137676420107279}, "southwest": {"lat": 50.36930252010728, "lng": -4.140376079892722}}}, "icon": "https://maps.gstatic.com/mapfiles/place_api/icons/v1/png_71/restaurant-71.png", "icon_background_color": "#FF9E67", "icon_mask_base_uri": "https://maps.gstatic.com/mapfiles/place_api/icons/v2/restaurant_pinlet", "name": "Olive & Twist - Plymouth City Centre", "opening_hours": {"open_now": true}, "photos": [{"height": 924, "html_attributions": ["<a href=\"https://maps.google.com/maps/contrib/113664571080838801847\">A Google User</a>"], "photo_reference": "AUc7tXWcMWnq6jqtLLELvRvhvnSkVCiSa3V8LmrhDuUulaLve8U4zUcx791LNScYEcUVKMAkjlkfBJzoscIF4paMHS9OmDp1iKIBp9wfk1TXvwwwDuVLlGxokyFZQvemismIJ2rTx3Xt_JoznwVCC_3Ge6-QHvZUACcvUHl79CEo23BOMtEE", "width": 2000}], "place_id": "ChIJ3dCGrsaTbEgREsuSp-GC72M", "plus_code": {"compound_code": "9VC6+79 Plymouth, United Kingdom", "global_code": "9C2Q9VC6+79"}, "rating": 4.5, "reference": "ChIJ3dCGrsaTbEgREsuSp-GC72M", "scope": "GOOGLE", "types": ["restaurant", "cafe", "bar", "store", "food", "point_of_interest", "establishment"], "user_ratings_total": 24, "vicinity": "9 Old Town St, Plymouth"}, {"business_status": "OPERATIONAL", "geometry": {"location": {"lat": 50.37364720000001, "lng": -4.1374337}, "viewport": {"northeast": {"lat": 50.37501357989272, "lng": -4.136143620107277}, "southwest": {"lat": 50.37231392010727, "lng": -4.138843279892721}}}, "icon": "https://maps.gstatic.com/mapfiles/place_api/icons/v1/png_71/cafe-71.png", "icon_background_color": "#FF9E67", "icon_mask_base_uri": "https://maps.gstatic.com/mapfiles/place_api/icons/v2/cafe_pinlet", "name": "The Caffeine Club", "opening_hours": {"open_now": true}, "photos": [{"height": 834, "html_attributions": ["<a href=\"https://maps.google.com/maps/contrib/112032198806096768563\">Alex Christaki</a>"], "photo_reference": "AUc7tXWxYLVlGVIJpeQtAA_a72fMKEoKmEAMqk72dgw9zUh1_8xOfpEgAltO7rSQXK2bu6uOR0cdNPlJayaaNdu_wxJv2OeRu3kji3UA0wpIZXFaiecN15a3BhBGFpdRVTpOj1dajYQc8_VI7XaNAqVhi9iPaPrQQrDa0oKtuE4RuX7kCqbP", "width": 1320}], "place_id": "ChIJGTinx7TsbEgR4WKvpQlRzBI", "plus_code": {"compound_code": "9VF7+C3 Plymouth, United Kingdom", "global_code": "9C2Q9VF7+C3"}, "price_level": 1, "rating": 4.1, "reference": "ChIJGTinx7TsbEgR4WKvpQlRzBI", "scope": "GOOGLE", "types": ["cafe", "bar", "store", "restaurant", "food", "point_of_interest", "establishment"], "user_ratings_total": 1363, "vicinity": "46 Tavistock Pl, Plymouth"}, {"business_status": "OPERATIONAL", "geometry": {"location": {"lat": 50.36552570000001, "lng": -4.1343046}, "viewport": {"northeast": {"lat": 50.36692692989272, "lng": -4.132958920107278}, "southwest": {"lat": 50.36422727010728, "lng": -4.135658579892722}}}, "icon": "https://maps.gstatic.com/mapfiles/place_api/icons/v1/png_71/restaurant-71.png", "icon_background_color": "#FF9E67", "icon_mask_base_uri": "https://maps.gstatic.com/mapfiles/place_api/icons/v2/restaurant_pinlet", "name": "The Boathouse Plymouth", "opening_hours": {"open_now": true}, "photos": [{"height": 3472, "html_attributions": ["<a href=\"https://maps.google.com/maps/contrib/102807703109075850519\">Saneesh Stephen</a>"], "photo_reference": "AUc7tXUvODFgBHOKfv6ciJvYRWz3O-OlQFmAslj_iAj-mWzYLvDkVl3k_6vhEdN_4p6LSah7s_Nr-FSOLsw_URozSUpqE9urr6nKC5mTN340slSQEClNSmegY2YLsShJQ8lTrIdGIsG_rJVg_pZpQr5zJUdwntBVMzSLsFs0NzIp3h3hUUBW", "width": 4624}], "place_id": "ChIJf-rXerLsbEgRAvCy1cwahTw", "plus_code": {"compound_code": "9V88+68 Plymouth, United Kingdom", "global_code": "9C2Q9V88+68"}, "price_level": 2, "rating": 4.3, "reference": "ChIJf-rXerLsbEgRAvCy1cwahTw", "scope": "GOOGLE", "types": ["cafe", "bar", "store", "restaurant", "food", "point_of_interest", "establishment"], "user_ratings_total": 1150, "vicinity": "2-5 Commercial Wharf, Plymouth"}, {"business_status": "OPERATIONAL", "geometry": {"location": {"lat": 50.3685538, "lng": -4.13489}, "viewport": {"northeast": {"lat": 50.37004587989273, "lng": -4.133448170107277}, "southwest": {"lat": 50.36734622010728, "lng": -4.136147829892721}}}, "icon": "https://maps.gstatic.com/mapfiles/place_api/icons/v1/png_71/restaurant-71.png", "icon_background_color": "#FF9E67", "icon_mask_base_uri": "https://maps.gstatic.com/mapfiles/place_api/icons/v2/restaurant_pinlet", "name": "The Plymouth Stable", "opening_hours": {"open_now": true}, "photos": [{"height": 3024, "html_attributions": ["<a href=\"https://maps.google.com/maps/contrib/102179979022059217316\">Ingo L\u00fccker</a>"], "photo_reference": "AUc7tXWjcRl8mxmApu1ThfiycM2uf_GbIs2EoBaIol6Wg031GTG7KT0H0xStetBQN2BfRcM7Ib-izyy_5OJ7iwppELIOTNz5lza_syzKYTIq5TOywM7YEXhnvJuDXOQOUOliD_sqVS7lhTFf7Kcs1CG2-77rRABax2w8wcvLDQrPmFEcB6ym", "width": 4032}], "place_id": "ChIJo2Q3j7LsbEgRJ0i7CA4zu28", "plus_code": {"compound_code": "9V98+C2 Plymouth, United Kingdom", "global_code": "9C2Q9V98+C2"}, "price_level": 2, "rating": 4.4, "reference": "ChIJo2Q3j7LsbEgRJ0i7CA4zu28", "scope": "GOOGLE", "types": ["restaurant", "meal_takeaway", "food", "point_of_interest", "establishment"], "user_ratings_total": 1279, "vicinity": "90 Little Vauxhall Quay, Vauxhall St, The Barbican, Plymouth"}, {"business_status": "OPERATIONAL", "geometry": {"location": {"lat": 50.3683692, "lng": -4.1380248}, "viewport": {"northeast": {"lat": 50.36968372989271, "lng": -4.136667270107279}, "southwest": {"lat": 50.36698407010727, "lng": -4.139366929892723}}}, "icon": "https://maps.gstatic.com/mapfiles/place_api/icons/v1/png_71/restaurant-71.png", "icon_background_color": "#FF9E67", "icon_mask_base_uri": "https://maps.gstatic.com/mapfiles/place_api/icons/v2/restaurant_pinlet", "name": "Desire Plymouth", "opening_hours": {"open_now": false}, "photos": [{"height": 768, "html_attributions": ["<a href=\"https://maps.google.com/maps/contrib/102758928864333571375\">A Google User</a>"], "photo_reference": "AUc7tXX6O0p-ni8j2C_aMT7x-lkY7EPRAw1ilguvjDMNmcfXNwaBG62xtM7YSVI-UaVMVRv5QH4DrGMPkULXLKo8QqyjnIlciZeX3_opgQMal2nf2LF9nNdX76r75V3vkVIMKLy3TTH4ZO-TFoB0i1oWjn3SyQHCieMA3VaCwwLHla7tLIEz", "width": 1024}], "place_id": "ChIJQYcL7uWTbEgR2PtQbxJTnh8", "plus_code": {"compound_code": "9V96+8Q Plymouth, United Kingdom", "global_code": "9C2Q9V96+8Q"}, "rating": 4.5, "reference": "ChIJQYcL7uWTbEgR2PtQbxJTnh8", "scope": "GOOGLE", "types": ["restaurant", "bar", "food", "point_of_interest", "establishment"], "user_ratings_total": 160, "vicinity": "60 Notte St, Plymouth"}, {"business_status": "OPERATIONAL", "geometry": {"location": {"lat": 50.3748091, "lng": -4.1373673}, "viewport": {"northeast": {"lat": 50.37616447989272, "lng": -4.136086820107279}, "southwest": {"lat": 50.37346482010727, "lng": -4.138786479892723}}}, "icon": "https://maps.gstatic.com/mapfiles/place_api/icons/v1/png_71/restaurant-71.png", "icon_background_color": "#FF9E67", "icon_mask_base_uri": "https://maps.gstatic.com/mapfiles/place_api/icons/v2/restaurant_pinlet", "name": "Manuka Bar & Eatery", "opening_hours": {"open_now": false}, "photos": [{"height": 4160, "html_attributions": ["<a href=\"https://maps.google.com/maps/contrib/113590318053393831294\">The Bac Bar</a>"], "photo_reference": "AUc7tXV_kata9g6hLykiG4-wI3B4FbL35-g0K5R1m6xrT76S9SGEqYDCTdjezAIeDGVAOhdEU12uI1dwma33qiVHTzHYYIjXty6CG3PYvHJNiblkrQPvJuzsIQdtsr4eaqX-dtDsXEMzHWmpVZwEP9gBvIUw2Pj9pS2tbA_YH42t5pLUIRR-", "width": 6240}], "place_id": "ChIJIXDVxLTsbEgRZbNlUCBvZZI", "plus_code": {"compound_code": "9VF7+W3 Plymouth, United Kingdom", "global_code": "9C2Q9VF7+W3"}, "price_level": 1, "rating": 4.4, "reference": "ChIJIXDVxLTsbEgRZbNlUCBvZZI", "scope": "GOOGLE", "types": ["restaurant", "bar", "food", "point_of_interest", "establishment"], "user_ratings_total": 170, "vicinity": "40 Drake Circus, Plymouth"}, {"business_status": "OPERATIONAL", "geometry": {"location": {"lat": 50.36500590000001, "lng": -4.1675903}, "viewport": {"northeast": {"lat": 50.36625437989272, "lng": -4.166079070107279}, "southwest": {"lat": 50.36355472010728, "lng": -4.168778729892723}}}, "icon": "https://maps.gstatic.com/mapfiles/place_api/icons/v1/png_71/restaurant-71.png", "icon_background_color": "#FF9E67", "icon_mask_base_uri": "https://maps.gstatic.com/mapfiles/place_api/icons/v2/restaurant_pinlet", "name": "Jolly Jacks", "opening_hours": {"open_now": true}, "photos": [{"height": 1836, "html_attributions": ["<a href=\"https://maps.google.com/maps/contrib/108607509866128693798\">Valentin Ungureanu</a>"], "photo_reference": "AUc7tXXH83gj8WO_Sr0WJ4jtDsPOSSZRrNoUZxiNXygh1KCPcmf1p1kRbk7_LJ0RMoXiLhGnQxsZhDnDHD600Nx0m0zHpaNKalD62Nty6_K2TjfRlohRMs5We-95Y764aVJNvtbjr6snNqOrgDj5oBtYNtX2YlmnsoL6T7pcA2wQyZeNWNdX", "width": 3264}], "place_id": "ChIJVdRPeGaTbEgRSw1a-EVTu7M", "plus_code": {"compound_code": "9R8J+2X Plymouth, United Kingdom", "global_code": "9C2Q9R8J+2X"}, "price_level": 2, "rating": 4.5, "reference": "ChIJVdRPeGaTbEgRSw1a-EVTu7M", "scope": "GOOGLE", "types": ["restaurant", "cafe", "bar", "food", "point_of_interest", "establishment"], "user_ratings_total": 888, "vicinity": "Jolly Jacks, Mayflower Marina, Richmond Walk, Devonport, Plymouth"}, {"business_status": "OPERATIONAL", "geometry": {"location": {"lat": 50.3619376, "lng": -4.1659878}, "viewport": {"northeast": {"lat": 50.36313242989272, "lng": -4.164386820107278}, "southwest": {"lat": 50.36043277010728, "lng": -4.167086479892722}}}, "icon": "https://maps.gstatic.com/mapfiles/place_api/icons/v1/png_71/restaurant-71.png", "icon_background_color": "#FF9E67", "icon_mask_base_uri": "https://maps.gstatic.com/mapfiles/place_api/icons/v2/restaurant_pinlet", "name": "wagamama plymouth", "opening_hours": {"open_now": true}, "photos": [{"height": 5472, "html_attributions": ["<a href=\"https://maps.google.com/maps/contrib/114422907103154141049\">gogis.lt</a>"], "photo_reference": "AUc7tXW3rgmLY_uQrmOMm6R7P8a2u-mpnx3biAmA_ym8EhcbizeOks3ONxp67zrGmrPNXFBkN1CLB1--QrvF3bYwYz1IbnFOlMqMNRpOA8pIT6QRyV0_HDTb0js4Iayk7Gl9sBQnjwpzcO83XjY7OsaywN42BZvHV4KmQqRa4h0Hu-964TRD", "width": 7296}], "place_id": "ChIJ0-cWsWaTbEgR1r4hQ2jMrFI", "plus_code": {"compound_code": "9R6M+QJ Plymouth, United Kingdom", "global_code": "9C2Q9R6M+QJ"}, "price_level": 2, "rating": 4.5, "reference": "ChIJ0-cWsWaTbEgR1r4hQ2jMrFI", "scope": "GOOGLE", "types": ["restaurant", "food", "point_of_interest", "establishment"], "user_ratings_total": 1353, "vicinity": "8, Royal william yard, brewhouse, Plymouth"}, {"business_status": "OPERATIONAL", "geometry": {"location": {"lat": 50.3662029, "lng": -4.134382}, "viewport": {"northeast": {"lat": 50.36759297989273, "lng": -4.132900220107278}, "southwest": {"lat": 50.36489332010729, "lng": -4.135599879892721}}}, "icon": "https://maps.gstatic.com/mapfiles/place_api/icons/v1/png_71/restaurant-71.png", "icon_background_color": "#FF9E67", "icon_mask_base_uri": "https://maps.gstatic.com/mapfiles/place_api/icons/v2/restaurant_pinlet", "name": "B-Bar", "opening_hours": {"open_now": true}, "photos": [{"height": 3024, "html_attributions": ["<a href=\"https://maps.google.com/maps/contrib/105027877893210833170\">scott magill</a>"], "photo_reference": "AUc7tXUkIOlL_mcjVvH0HAyexuN9YYO6ps7i6U00xAUmuSQAWlq4-n7fMGuKXA5mVncso4xIutghXk0Fqtj20TP1x5mnHBxP6iQxCECZ_xiOghd8bAW8cMBFY6vVvFJwIDSzEPO9sptQtugNMHI83SgcesPK6KIraXS5iI1ZzBUbAB0pM8hn", "width": 4032}], "place_id": "ChIJz4BtFK3sbEgRwtjykAhaGjU", "plus_code": {"compound_code": "9V88+F6 Plymouth, United Kingdom", "global_code": "9C2Q9V88+F6"}, "price_level": 2, "rating": 4.6, "reference": "ChIJz4BtFK3sbEgRwtjykAhaGjU", "scope": "GOOGLE", "types": ["night_club", "cafe", "bar", "restaurant", "food", "point_of_interest", "establishment"], "user_ratings_total": 462, "vicinity": "The Barbican Theatre, Castle St, Plymouth"}, {"business_status": "OPERATIONAL", "geometry": {"location": {"lat": 50.3808327, "lng": -4.166079499999999}, "viewport": {"northeast": {"lat": 50.38218602989271, "lng": -4.164785570107278}, "southwest": {"lat": 50.37948637010727, "lng": -4.167485229892722}}}, "icon": "https://maps.gstatic.com/mapfiles/place_api/icons/v1/png_71/cafe-71.png", "icon_background_color": "#FF9E67", "icon_mask_base_uri": "https://maps.gstatic.com/mapfiles/place_api/icons/v2/cafe_pinlet", "name": "Stoke Village Cafe", "opening_hours": {"open_now": true}, "photos": [{"height": 3024, "html_attributions": ["<a href=\"https://maps.google.com/maps/contrib/114250013770542847561\">Ian Lynn</a>"], "photo_reference": "AUc7tXVdEZOhxcXZfO-SM4DxN8qQr99jBXhsfb30k8H2AbjZaEKbFMNd23sV47J36MYvXL4hl49u6FCK5OklFvKZDYZrJ27pPLH5e6lSLxH6YPAeNiBQ_gd-hU96DTbkmNZ_FflREVPuMOGOXJ_th76UWFQg0gWafmuccTi7X514lX5iHg7M", "width": 4032}], "place_id": "ChIJlQuLtxWTbEgR7hNrAMGeOiE", "plus_code": {"compound_code": "9RJM+8H Plymouth, United Kingdom", "global_code": "9C2Q9RJM+8H"}, "price_level": 1, "rating": 4.6, "reference": "ChIJlQuLtxWTbEgR7hNrAMGeOiE", "scope": "GOOGLE", "types": ["cafe", "restaurant", "food", "point_of_interest", "establishment"], "user_ratings_total": 133, "vicinity": "55 Devonport Rd, Stoke, Plymouth"}, {"business_status": "OPERATIONAL", "geometry": {"location": {"lat": 50.3669178, "lng": -4.1565696}, "viewport": {"northeast": {"lat": 50.36829137989272, "lng": -4.155308870107278}, "southwest": {"lat": 50.36559172010728, "lng": -4.158008529892721}}}, "icon": "https://maps.gstatic.com/mapfiles/place_api/icons/v1/png_71/restaurant-71.png", "icon_background_color": "#FF9E67", "icon_mask_base_uri": "https://maps.gstatic.com/mapfiles/place_api/icons/v2/restaurant_pinlet", "name": "The Dock Caf\u00e9", "opening_hours": {"open_now": true}, "photos": [{"height": 3096, "html_attributions": ["<a href=\"https://maps.google.com/maps/contrib/105692805571763485956\">Mandy Ford</a>"], "photo_reference": "AUc7tXU4ab7xd8zi2ytq91UNpy63dLw1JBJKVlMfUFJp3spGgdS_G__Wz8gY79daCv3tWPcH74O_MeQUwRw13S9WgD3maa57jNoeJUaThfFpk5q1KsgYsDrRJOzcwhJ8TrKQzrmbvrzhXbvnA4eMgXoFsLBL009Q_GnetZ6HH3pzPpznlvwt", "width": 4128}], "place_id": "ChIJXXqYK1uTbEgRx5mWgchKAlc", "plus_code": {"compound_code": "9R8V+Q9 Plymouth, United Kingdom", "global_code": "9C2Q9R8V+Q9"}, "price_level": 2, "rating": 4.5, "reference": "ChIJXXqYK1uTbEgRx5mWgchKAlc", "scope": "GOOGLE", "types": ["restaurant", "cafe", "bar", "food", "point_of_interest", "establishment"], "user_ratings_total": 1401, "vicinity": "King Point Marina, Brunel Way, Stonehouse, Plymouth"}, {"business_status": "OPERATIONAL", "geometry": {"location": {"lat": 50.3671305, "lng": -4.1347961}, "viewport": {"northeast": {"lat": 50.36848942989272, "lng": -4.133416370107277}, "southwest": {"lat": 50.36578977010728, "lng": -4.136116029892721}}}, "icon": "https://maps.gstatic.com/mapfiles/place_api/icons/v1/png_71/cafe-71.png", "icon_background_color": "#FF9E67", "icon_mask_base_uri": "https://maps.gstatic.com/mapfiles/place_api/icons/v2/cafe_pinlet", "name": "Monty's Caf\u00e9", "opening_hours": {"open_now": true}, "photos": [{"height": 3024, "html_attributions": ["<a href=\"https://maps.google.com/maps/contrib/104067322559977742784\">Trent Archer</a>"], "photo_reference": "AUc7tXX9A-rYBLslHq5xelMo0-2vmrwdOmOt_ZjAFicFSHxaObQ5BZBRim_r3lAKl6a-Y_DAyc_ZrwmkuObdnRK87yjKQkSclaYrRtT4JYzzoiAhr37uHR8mAYwXQwJM8uBBTuZhnl7RKwN5e08JI-D8Mna5JKWuA0PzSyqxMZCL716YnCpy", "width": 4032}], "place_id": "ChIJbchKcK3sbEgRlZy6_-P7SEA", "plus_code": {"compound_code": "9V88+R3 Plymouth, United Kingdom", "global_code": "9C2Q9V88+R3"}, "price_level": 2, "rating": 4.6, "reference": "ChIJbchKcK3sbEgRlZy6_-P7SEA", "scope": "GOOGLE", "types": ["cafe", "restaurant", "food", "point_of_interest", "establishment"], "user_ratings_total": 954, "vicinity": "13 The Barbican, Plymouth"}, {"business_status": "OPERATIONAL", "geometry": {"location": {"lat": 50.37080049999999, "lng": -4.1384142}, "viewport": {"northeast": {"lat": 50.37207342989272, "lng": -4.137107320107278}, "southwest": {"lat": 50.36937377010727, "lng": -4.139806979892722}}}, "icon": "https://maps.gstatic.com/mapfiles/place_api/icons/v1/png_71/restaurant-71.png", "icon_background_color": "#FF9E67", "icon_mask_base_uri": "https://maps.gstatic.com/mapfiles/place_api/icons/v2/restaurant_pinlet", "name": "Turtle Bay Plymouth", "opening_hours": {"open_now": true}, "photos": [{"height": 1440, "html_attributions": ["<a href=\"https://maps.google.com/maps/contrib/107692553778549077989\">Tony Baxter</a>"], "photo_reference": "AUc7tXWRbeU7l9M8XLcLKNcy88fNK_W9qU5kzyi6F70mCWfADPw0SNCEYUAqauIV6MTuhOCfI3Zi7i-LIbhp-sfkvizeXKfwfrCSdxUPdrVzABByUxBm_aMevv9nPYBHGrmjvV1lsQn4mwILZrDydGSohZ-l0d9jkV-_LB_PsdE6zuYj4adZ", "width": 2560}], "place_id": "ChIJDef20EyTbEgRc2Aa92YVFqA", "plus_code": {"compound_code": "9VC6+8J Plymouth, United Kingdom", "global_code": "9C2Q9VC6+8J"}, "price_level": 2, "rating": 4.6, "reference": "ChIJDef20EyTbEgRc2Aa92YVFqA", "scope": "GOOGLE", "types": ["bar", "restaurant", "food", "point_of_interest", "establishment"], "user_ratings_total": 5087, "vicinity": "5 St Andrews Cross Roundabout, Plymouth"}, {"business_status": "OPERATIONAL", "geometry": {"location": {"lat": 50.3693415, "lng": -4.1465528}, "viewport": {"northeast": {"lat": 50.37070422989272, "lng": -4.145111170107278}, "southwest": {"lat": 50.36800457010727, "lng": -4.147810829892721}}}, "icon": "https://maps.gstatic.com/mapfiles/place_api/icons/v1/png_71/restaurant-71.png", "icon_background_color": "#FF9E67", "icon_mask_base_uri": "https://maps.gstatic.com/mapfiles/place_api/icons/v2/restaurant_pinlet", "name": "Pizza Express", "opening_hours": {"open_now": true}, "photos": [{"height": 3024, "html_attributions": ["<a href=\"https://maps.google.com/maps/contrib/109895226855271577664\">Phillip Hazell</a>"], "photo_reference": "AUc7tXVWzHrQ8dDrt-RR5kTvsGsYuiHgQN6oD-0DsIBFPwJuu9AcvHiYjCY-w19JxSXcTXTknXfG09o7SR9GYnjqmdCnC0yDDtDxQJW0XYtLV0_fC8vCXp2npOxYV3cXZwkRG9nF028Tpwrp_NlJX1ITybL0ycnE19zzI5QCSgBhcOmiPheN", "width": 4032}], "place_id": "ChIJK2T8Uk6TbEgR2h4ecrF_zwg", "plus_code": {"compound_code": "9V93+P9 Plymouth, United Kingdom", "global_code": "9C2Q9V93+P9"}, "price_level": 2, "rating": 4, "reference": "ChIJK2T8Uk6TbEgR2h4ecrF_zwg", "scope": "GOOGLE", "types": ["meal_takeaway", "restaurant", "food", "point_of_interest", "establishment"], "user_ratings_total": 513, "vicinity": "Pilgrim House, 17 Derrys Cross, Plymouth"}, {"business_status": "OPERATIONAL", "geometry": {"location": {"lat": 50.363755, "lng": -4.142096599999999}, "viewport": {"northeast": {"lat": 50.36514842989272, "lng": -4.140620570107278}, "southwest": {"lat": 50.36244877010727, "lng": -4.143320229892722}}}, "icon": "https://maps.gstatic.com/mapfiles/place_api/icons/v1/png_71/restaurant-71.png", "icon_background_color": "#FF9E67", "icon_mask_base_uri": "https://maps.gstatic.com/mapfiles/place_api/icons/v2/restaurant_pinlet", "name": "Ocean View at The Dome", "opening_hours": {"open_now": true}, "photos": [{"height": 1048, "html_attributions": ["<a href=\"https://maps.google.com/maps/contrib/112583781920004352040\">A Google User</a>"], "photo_reference": "AUc7tXX5vrit3DlGmEQvtyEdC1-NdotU0_sxMfck1D9eDwI4W2JlRw7W7AM-UxVCCp740ZGXRE8COCRRr2sdBBY7Y0Ri3rkYHQPrWx9KJFzYFoq7EVi39ZPf5N_ocYsv-2Asn5j1ci9G77WcZUoG85zX2HrspE4LiYHey-3gEECD_7d1HN5U", "width": 1920}], "place_id": "ChIJK8dx3VOTbEgRkJENX1EF2fs", "plus_code": {"compound_code": "9V75+G5 Plymouth, United Kingdom", "global_code": "9C2Q9V75+G5"}, "rating": 4.1, "reference": "ChIJK8dx3VOTbEgRkJENX1EF2fs", "scope": "GOOGLE", "types": ["restaurant", "cafe", "bar", "store", "food", "point_of_interest", "establishment"], "user_ratings_total": 262, "vicinity": "Hoe Rd, Plymouth"}, {"business_status": "OPERATIONAL", "geometry": {"location": {"lat": 50.37199769999999, "lng": -4.1478948}, "viewport": {"northeast": {"lat": 50.37317717989272, "lng": -4.146836820107278}, "southwest": {"lat": 50.37047752010728, "lng": -4.149536479892721}}}, "icon": "https://maps.gstatic.com/mapfiles/place_api/icons/v1/png_71/restaurant-71.png", "icon_background_color": "#FF9E67", "icon_mask_base_uri": "https://maps.gstatic.com/mapfiles/place_api/icons/v2/restaurant_pinlet", "name": "The Leandra", "opening_hours": {"open_now": true}, "photos": [{"height": 6936, "html_attributions": ["<a href=\"https://maps.google.com/maps/contrib/109335528898102718603\">Lynne Crews</a>"], "photo_reference": "AUc7tXU3MWTaxbHZryM8wVkrCgvI6Sbjk952nCAtIAPVODocYCE8b_Qd5eIsToJb7FYnX4bFfKKeCod36sg8AqGkd08W9yClaeeZv7bvJWMWqn-fZcTSjAgto1nyACM_rnB8dqfao6g2bH6WreNdzFP8VUhaH8bsyrDFz4xGiJsKLFet1heh", "width": 9248}], "place_id": "ChIJvctELk-TbEgReoGRHMpgewU", "plus_code": {"compound_code": "9VC2+QR Plymouth, United Kingdom", "global_code": "9C2Q9VC2+QR"}, "price_level": 2, "rating": 4.6, "reference": "ChIJvctELk-TbEgReoGRHMpgewU", "scope": "GOOGLE", "types": ["restaurant", "food", "point_of_interest", "establishment"], "user_ratings_total": 1340, "vicinity": "19-21 Frankfort Gate, Plymouth"}, {"business_status": "OPERATIONAL", "geometry": {"location": {"lat": 50.36244809999999, "lng": -4.1626862}, "viewport": {"northeast": {"lat": 50.36379592989272, "lng": -4.161360470107278}, "southwest": {"lat": 50.36109627010728, "lng": -4.164060129892722}}}, "icon": "https://maps.gstatic.com/mapfiles/place_api/icons/v1/png_71/restaurant-71.png", "icon_background_color": "#FF9E67", "icon_mask_base_uri": "https://maps.gstatic.com/mapfiles/place_api/icons/v2/restaurant_pinlet", "name": "The Hutong Bagel Co.", "opening_hours": {"open_now": true}, "photos": [{"height": 3096, "html_attributions": ["<a href=\"https://maps.google.com/maps/contrib/107017049625830886849\">Paul Ramsay</a>"], "photo_reference": "AUc7tXUG8BORs60rPJsE-yYcNmripBb2Eh3nbBJIY-eal5JQQ2LYUaefgPNjeKANO_EEYVd8TafY4nSGrxbLPKmaScCXwuhzpwb8SYB9uBHzqguh6AeCHxJeuvjPk3KKh4XSeWxtUdLtCrznwtYiIaEwRRuUHmSlCw9nU0IxG_N8nQV7TY-N", "width": 4128}], "place_id": "ChIJndJYOGeTbEgRI2YMCNipq2U", "plus_code": {"compound_code": "9R6P+XW Plymouth, United Kingdom", "global_code": "9C2Q9R6P+XW"}, "price_level": 2, "rating": 4.8, "reference": "ChIJndJYOGeTbEgRI2YMCNipq2U", "scope": "GOOGLE", "types": ["cafe", "meal_takeaway", "bakery", "store", "restaurant", "food", "point_of_interest", "establishment"], "user_ratings_total": 382, "vicinity": "160 Cremyll St, Stonehouse, Plymouth"}]