[{"business_status": "OPERATIONAL", "geometry": {"location": {"lat": 51.2267375, "lng": 6.7753519}, "viewport": {"northeast": {"lat": 51.22830277989272, "lng": 6.776767079892721}, "southwest": {"lat": 51.22560312010728, "lng": 6.774067420107277}}}, "icon": "https://maps.gstatic.com/mapfiles/place_api/icons/v1/png_71/bar-71.png", "icon_background_color": "#FF9E67", "icon_mask_base_uri": "https://maps.gstatic.com/mapfiles/place_api/icons/v2/bar_pinlet", "name": "The Irish Pub Bei Fatty - Fatty's", "opening_hours": {"open_now": true}, "photos": [{"height": 3000, "html_attributions": ["<a href=\"https://maps.google.com/maps/contrib/118195509486365268652\">Birgit Zimmermann</a>"], "photo_reference": "AUGGfZlpsSW-hMR93xxInKck2n_fQdwgbjr_cU6lo48sb8_tpr3GOEmGXZ7F32-fLjdKwN7hH1_TK9odhTWEUqZyXjA6lfJet6l4m2AvN9hI2wpXIMTrEdp039mJzif0VZei5x0sihViUr7ZvfkdCQM1IiHDJYagf4umiNggGATG9bsdyAqx", "width": 4000}], "place_id": "ChIJlQZVXBjKuEcR6joYbPjK8EE", "plus_code": {"compound_code": "6QGG+M4 D\u00fcsseldorf, Germany", "global_code": "9F386QGG+M4"}, "price_level": 2, "rating": 4.5, "reference": "ChIJlQZVXBjKuEcR6joYbPjK8EE", "scope": "GOOGLE", "types": ["bar", "restaurant", "food", "point_of_interest", "establishment"], "user_ratings_total": 2137, "vicinity": "Hunsr\u00fcckenstra\u00dfe 13, D\u00fcsseldorf"}, {"business_status": "OPERATIONAL", "geometry": {"location": {"lat": 51.2478358, "lng": 6.783585899999999}, "viewport": {"northeast": {"lat": 51.24914622989272, "lng": 6.784870929892723}, "southwest": {"lat": 51.24644657010727, "lng": 6.782171270107279}}}, "icon": "https://maps.gstatic.com/mapfiles/place_api/icons/v1/png_71/bar-71.png", "icon_background_color": "#FF9E67", "icon_mask_base_uri": "https://maps.gstatic.com/mapfiles/place_api/icons/v2/bar_pinlet", "name": "Sutton's Irish Pub", "opening_hours": {"open_now": true}, "photos": [{"height": 3000, "html_attributions": ["<a href=\"https://maps.google.com/maps/contrib/101144751085460085821\">Pauli Kestik</a>"], "photo_reference": "AUGGfZlqEfMsFDG5BIX7aQNk_9-AW9COHX5RlpEoVyy2CuZYGhCMsHaCyJNVSiYcd56NXE_VinC6lydnKqAykkfwoep6WkJWNlBdYw68SzcI_aJ5u5gJzjWC7rwJVt2UX_1jQh8uopGAtIguZhV6aoBQtS-kcxToj7bIP1RYiqqhh3KSP5Fd", "width": 4000}], "place_id": "ChIJ-R9OIJPJuEcR9t0Ttgz3OLQ", "plus_code": {"compound_code": "6QXM+4C D\u00fcsseldorf, Germany", "global_code": "9F386QXM+4C"}, "price_level": 2, "rating": 4.5, "reference": "ChIJ-R9OIJPJuEcR9t0Ttgz3OLQ", "scope": "GOOGLE", "types": ["bar", "restaurant", "food", "point_of_interest", "establishment"], "user_ratings_total": 594, "vicinity": "Spichernstra\u00dfe 2, D\u00fcsseldorf"}, {"business_status": "OPERATIONAL", "geometry": {"location": {"lat": 51.22828510000001, "lng": 6.7733389}, "viewport": {"northeast": {"lat": 51.22962662989272, "lng": 6.774705229892722}, "southwest": {"lat": 51.22692697010728, "lng": 6.772005570107278}}}, "icon": "https://maps.gstatic.com/mapfiles/place_api/icons/v1/png_71/bar-71.png", "icon_background_color": "#FF9E67", "icon_mask_base_uri": "https://maps.gstatic.com/mapfiles/place_api/icons/v2/bar_pinlet", "name": "Papidoux", "opening_hours": {"open_now": true}, "photos": [{"height": 405, "html_attributions": ["<a href=\"https://maps.google.com/maps/contrib/103013036557455511687\">mrGOMED</a>"], "photo_reference": "AUGGfZmMPOwk2y6kJWVU_rKvOSs1h-iv4C2QRKpEZbO2AgJa9MUg2hv5f5gFPo-Loc6jSll9TXjZiC-Ev1i9LT-K9IAP0uK0zvTPcEK5lPpI3ypOhieDhNQnY8KlzeuHczpW3JJUi6559cF0ys3HIqwkAv2uhU5ceX3RBT-B2KGTtwbDDdvl", "width": 720}], "place_id": "ChIJpXuxEBnKuEcRWhap9r8NzFI", "plus_code": {"compound_code": "6QHF+88 D\u00fcsseldorf, Germany", "global_code": "9F386QHF+88"}, "price_level": 1, "rating": 4.5, "reference": "ChIJpXuxEBnKuEcRWhap9r8NzFI", "scope": "GOOGLE", "types": ["bar", "restaurant", "food", "point_of_interest", "establishment"], "user_ratings_total": 559, "vicinity": "Liefergasse 7, D\u00fcsseldorf"}, {"business_status": "OPERATIONAL", "geometry": {"location": {"lat": 51.2272485, "lng": 6.7732198}, "viewport": {"northeast": {"lat": 51.22864047989272, "lng": 6.774662429892722}, "southwest": {"lat": 51.22594082010728, "lng": 6.771962770107278}}}, "icon": "https://maps.gstatic.com/mapfiles/place_api/icons/v1/png_71/bar-71.png", "icon_background_color": "#FF9E67", "icon_mask_base_uri": "https://maps.gstatic.com/mapfiles/place_api/icons/v2/bar_pinlet", "name": "Julio", "opening_hours": {"open_now": true}, "photos": [{"height": 3024, "html_attributions": ["<a href=\"https://maps.google.com/maps/contrib/103607999669437733960\">Jens Poloczek</a>"], "photo_reference": "AUGGfZkEOtN0_ytKuQealMEG78sNhYoo6aq5X8HZq46HENLSub9C3ju72e7PlXcnsudWu6LSCNxgbC-ImMHkV8cWXGOOoTYhH2zowL3nIcqbR7PJhDFgLfBs-1S4Gj-Z6OaMqJ_mJxXzWLvuF3eweNEa_DHIQU-qaSj-wthtkJBFE2xlsHy9", "width": 4032}], "place_id": "ChIJa7NqqBnKuEcR0ndMF7spZpI", "plus_code": {"compound_code": "6QGF+V7 D\u00fcsseldorf, Germany", "global_code": "9F386QGF+V7"}, "price_level": 1, "rating": 4.6, "reference": "ChIJa7NqqBnKuEcR0ndMF7spZpI", "scope": "GOOGLE", "types": ["bar", "restaurant", "food", "point_of_interest", "establishment"], "user_ratings_total": 193, "vicinity": "M\u00fchlenstra\u00dfe 15, D\u00fcsseldorf"}, {"business_status": "OPERATIONAL", "geometry": {"location": {"lat": 51.2269053, "lng": 6.7727898}, "viewport": {"northeast": {"lat": 51.22826157989272, "lng": 6.774549579892723}, "southwest": {"lat": 51.22556192010727, "lng": 6.771849920107279}}}, "icon": "https://maps.gstatic.com/mapfiles/place_api/icons/v1/png_71/bar-71.png", "icon_background_color": "#FF9E67", "icon_mask_base_uri": "https://maps.gstatic.com/mapfiles/place_api/icons/v2/bar_pinlet", "name": "The Harps Irish Pups", "opening_hours": {"open_now": true}, "photos": [{"height": 3024, "html_attributions": ["<a href=\"https://maps.google.com/maps/contrib/103294005322157835490\">Vlado Lackovic</a>"], "photo_reference": "AUGGfZlBGMW6EalKrYrNkolyEzLOlnuGfAOMX1ebH8dX-lNSzc7XAPg3HxF85H10-jtgQKFuB5OCmEVlVYUcaI7dO0wxdAtcnuRWzv5nBIg-mzp8g1mkeD9E8BmZcitpuZwT_eqPiVzHMcQe_0zZtA36--Fy6ktMu25k6uRcQx8te8zWud9d", "width": 4032}], "place_id": "ChIJ5_s7pBnKuEcRhMGNSy9zOXg", "plus_code": {"compound_code": "6QGF+Q4 D\u00fcsseldorf, Germany", "global_code": "9F386QGF+Q4"}, "rating": 4.1, "reference": "ChIJ5_s7pBnKuEcRhMGNSy9zOXg", "scope": "GOOGLE", "types": ["bar", "restaurant", "food", "point_of_interest", "establishment"], "user_ratings_total": 86, "vicinity": "Kurze Str. 4, D\u00fcsseldorf"}, {"business_status": "OPERATIONAL", "geometry": {"location": {"lat": 51.226185, "lng": 6.773549399999999}, "viewport": {"northeast": {"lat": 51.22787467989272, "lng": 6.774939579892722}, "southwest": {"lat": 51.22517502010727, "lng": 6.772239920107278}}}, "icon": "https://maps.gstatic.com/mapfiles/place_api/icons/v1/png_71/bar-71.png", "icon_background_color": "#FF9E67", "icon_mask_base_uri": "https://maps.gstatic.com/mapfiles/place_api/icons/v2/bar_pinlet", "name": "D\u00e4 Spiegel", "opening_hours": {"open_now": true}, "photos": [{"height": 4160, "html_attributions": ["<a href=\"https://maps.google.com/maps/contrib/104666566985810951019\">Georges Carels</a>"], "photo_reference": "AUGGfZnYt-Wb3aO18HHn_oLqMoqc9FsD2EkHkfVY0L4wwDD8tV0XbbHWXjZVaRoZJRGULLpdGO_8ToVYTpQn_6Wj6C3ITc8GQap-G0j1UowY7me532KSdEmwrKZtT1p4VsNHxYmUZmSDSr-4pKlabaQhm_TMKxmT0wjClGsYBPu0pnR-Z9kq", "width": 6240}], "place_id": "ChIJn9ZhtBnKuEcRBnY2BL43IYM", "plus_code": {"compound_code": "6QGF+FC D\u00fcsseldorf, Germany", "global_code": "9F386QGF+FC"}, "price_level": 2, "rating": 4.3, "reference": "ChIJn9ZhtBnKuEcRBnY2BL43IYM", "scope": "GOOGLE", "types": ["bar", "restaurant", "food", "point_of_interest", "establishment"], "user_ratings_total": 1104, "vicinity": "Bolkerstra\u00dfe 22, D\u00fcsseldorf"}, {"business_status": "OPERATIONAL", "geometry": {"location": {"lat": 51.2238979, "lng": 6.772660300000001}, "viewport": {"northeast": {"lat": 51.22520227989271, "lng": 6.774130729892722}, "southwest": {"lat": 51.22250262010727, "lng": 6.771431070107278}}}, "icon": "https://maps.gstatic.com/mapfiles/place_api/icons/v1/png_71/bar-71.png", "icon_background_color": "#FF9E67", "icon_mask_base_uri": "https://maps.gstatic.com/mapfiles/place_api/icons/v2/bar_pinlet", "name": "Gastst\u00e4tte Zum Franz", "opening_hours": {"open_now": true}, "photos": [{"height": 3024, "html_attributions": ["<a href=\"https://maps.google.com/maps/contrib/109943966857208106345\">A Google User</a>"], "photo_reference": "AUGGfZkBBvT9OG7WjwOEkaIRXYoQqY70Yt1jEh7EvjPRHQcjbfk5GWQwlOxVn3gFfSXMbfb5OMQbkn9hdgogUvRbM6deJokuy43Ve46bQKNF1dBIRi6t4H8UtnaOGJp8J2WgZ5Qu291y8-EjkowEBu49cx0jPoCROcX7MZcxp3vU9XI-UbD1", "width": 4032}], "place_id": "ChIJw4cPcRfKuEcRMjTiNxCmTN0", "plus_code": {"compound_code": "6QFF+H3 D\u00fcsseldorf, Germany", "global_code": "9F386QFF+H3"}, "price_level": 1, "rating": 4.3, "reference": "ChIJw4cPcRfKuEcRMjTiNxCmTN0", "scope": "GOOGLE", "types": ["bar", "restaurant", "food", "point_of_interest", "establishment"], "user_ratings_total": 334, "vicinity": "Berger Str. 33, D\u00fcsseldorf"}, {"business_status": "OPERATIONAL", "geometry": {"location": {"lat": 51.227112, "lng": 6.775500699999999}, "viewport": {"northeast": {"lat": 51.22848577989272, "lng": 6.776831979892722}, "southwest": {"lat": 51.22578612010728, "lng": 6.774132320107278}}}, "icon": "https://maps.gstatic.com/mapfiles/place_api/icons/v1/png_71/bar-71.png", "icon_background_color": "#FF9E67", "icon_mask_base_uri": "https://maps.gstatic.com/mapfiles/place_api/icons/v2/bar_pinlet", "name": "o\u2019reilly\u2019s Irish Pub & Restaurant", "opening_hours": {"open_now": true}, "photos": [{"height": 1360, "html_attributions": ["<a href=\"https://maps.google.com/maps/contrib/105680336575553557590\">A Google User</a>"], "photo_reference": "AUGGfZlPE6hQBIqAjK4GUu90CMhnNGFOWgDeyUOZWRw4_B4E5RKiZywwuLn830xkMSbQPH_Q0Ocx5Mw1nJG8lQBQ6MNEYsg0PTOHLr0j8WYoPe8Jhc_a1nui5kCg0cENPqLk3dPnorkw5BW4b-55RN-LTu0qOEvHHDw6YOEpG8uK9hW7AJ0a", "width": 2048}], "place_id": "ChIJQZMKwxnKuEcR0CxlWCIBgkY", "plus_code": {"compound_code": "6QGG+R6 D\u00fcsseldorf, Germany", "global_code": "9F386QGG+R6"}, "price_level": 2, "rating": 4.3, "reference": "ChIJQZMKwxnKuEcR0CxlWCIBgkY", "scope": "GOOGLE", "types": ["night_club", "bar", "restaurant", "food", "point_of_interest", "establishment"], "user_ratings_total": 2209, "vicinity": "Mutter-Ey-Stra\u00dfe 1, D\u00fcsseldorf"}, {"business_status": "OPERATIONAL", "geometry": {"location": {"lat": 51.2261823, "lng": 6.7751332}, "viewport": {"northeast": {"lat": 51.22766167989272, "lng": 6.77761005}, "southwest": {"lat": 51.22496202010728, "lng": 6.774291849999999}}}, "icon": "https://maps.gstatic.com/mapfiles/place_api/icons/v1/png_71/restaurant-71.png", "icon_background_color": "#FF9E67", "icon_mask_base_uri": "https://maps.gstatic.com/mapfiles/place_api/icons/v2/restaurant_pinlet", "name": "Para\u00b4s Pub - Food & Drinks", "opening_hours": {"open_now": true}, "photos": [{"height": 5792, "html_attributions": ["<a href=\"https://maps.google.com/maps/contrib/111692794769656869913\">A Google User</a>"], "photo_reference": "AUGGfZlCmpq5D_lakd43EU55B8tS_KvriCKq2EUiD194tzOogRxI1w7zWj3VkAELYHWrHX8oiyJqP5mWtl42CfMv28L8VUKakeK3nga9lNlUEDzaPAir04KXlHKAPXPKoSBt7VDXMFuNuH78uAlILuQOebGIOTjqYMkAjy1g-Fq87A25uSpY", "width": 8688}], "place_id": "ChIJmaYkDb7LuEcRW2mpc-3mqDI", "plus_code": {"compound_code": "6QGG+F3 D\u00fcsseldorf, Germany", "global_code": "9F386QGG+F3"}, "rating": 5, "reference": "ChIJmaYkDb7LuEcRW2mpc-3mqDI", "scope": "GOOGLE", "types": ["restaurant", "food", "point_of_interest", "establishment"], "user_ratings_total": 1, "vicinity": "Bolkerstra\u00dfe 57, D\u00fcsseldorf"}, {"business_status": "OPERATIONAL", "geometry": {"location": {"lat": 51.2268577, "lng": 6.7753364}, "viewport": {"northeast": {"lat": 51.22836627989272, "lng": 6.776749379892722}, "southwest": {"lat": 51.22566662010728, "lng": 6.774049720107278}}}, "icon": "https://maps.gstatic.com/mapfiles/place_api/icons/v1/png_71/bar-71.png", "icon_background_color": "#FF9E67", "icon_mask_base_uri": "https://maps.gstatic.com/mapfiles/place_api/icons/v2/bar_pinlet", "name": "Sutton's Irish Pub", "opening_hours": {"open_now": true}, "photos": [{"height": 1960, "html_attributions": ["<a href=\"https://maps.google.com/maps/contrib/113344244070475533837\">Ken Hamilton</a>"], "photo_reference": "AUGGfZn7PnqaSoQoR0973mnLkLov2IR6fmGp11MRdjQJBNDsh0iSyx9739oIAZdQGk-Rf2SC0_Jy-J2HXVcWMir9fx8VKPuFCXkoIl4BCFyCK-Y7ip36GXlzUd4Xc37RfMhP-QfMTg3yVzTKCARa92DAxeJXaArxqGydQ5EriPDgmfPmUkxo", "width": 4032}], "place_id": "ChIJNyCaIJPJuEcR81lsJEQZQIA", "plus_code": {"compound_code": "6QGG+P4 D\u00fcsseldorf, Germany", "global_code": "9F386QGG+P4"}, "price_level": 2, "rating": 4.4, "reference": "ChIJNyCaIJPJuEcR81lsJEQZQIA", "scope": "GOOGLE", "types": ["bar", "restaurant", "food", "point_of_interest", "establishment"], "user_ratings_total": 1173, "vicinity": "Hunsr\u00fcckenstra\u00dfe 5, D\u00fcsseldorf"}, {"business_status": "OPERATIONAL", "geometry": {"location": {"lat": 51.2265739, "lng": 6.773611499999999}, "viewport": {"northeast": {"lat": 51.22809537989273, "lng": 6.774987729892723}, "southwest": {"lat": 51.22539572010729, "lng": 6.772288070107279}}}, "icon": "https://maps.gstatic.com/mapfiles/place_api/icons/v1/png_71/bar-71.png", "icon_background_color": "#FF9E67", "icon_mask_base_uri": "https://maps.gstatic.com/mapfiles/place_api/icons/v2/bar_pinlet", "name": "Ludwigs Bier&Brot", "opening_hours": {"open_now": true}, "photos": [{"height": 2250, "html_attributions": ["<a href=\"https://maps.google.com/maps/contrib/106695244974136890435\">paul o&#39;sullivan</a>"], "photo_reference": "AUGGfZn90cB8NZnum0WRJsIpH25gDKnRRGYQTu6sMSmsw29WqV9HALS4VwVxDgRUzOGU0edJ_dOgqUq1BPLXfT6WDcKmhbc2qEqAT6A1uyMDz-speIYCRLdFEXwlYWIJZHsoXi82xAhpdtT89XTu0Ev9yk-hcylUbAAQd4dKo1MorDyD8-7c", "width": 4000}], "place_id": "ChIJ00NcshnKuEcR0G9Zjq5SdkE", "plus_code": {"compound_code": "6QGF+JC D\u00fcsseldorf, Germany", "global_code": "9F386QGF+JC"}, "price_level": 1, "rating": 4.4, "reference": "ChIJ00NcshnKuEcR0G9Zjq5SdkE", "scope": "GOOGLE", "types": ["bar", "restaurant", "food", "point_of_interest", "establishment"], "user_ratings_total": 230, "vicinity": "Mertensgasse 11, D\u00fcsseldorf"}, {"business_status": "OPERATIONAL", "geometry": {"location": {"lat": 51.2187147, "lng": 6.7860112}, "viewport": {"northeast": {"lat": 51.22014252989272, "lng": 6.787319029892721}, "southwest": {"lat": 51.21744287010728, "lng": 6.784619370107277}}}, "icon": "https://maps.gstatic.com/mapfiles/place_api/icons/v1/png_71/restaurant-71.png", "icon_background_color": "#FF9E67", "icon_mask_base_uri": "https://maps.gstatic.com/mapfiles/place_api/icons/v2/restaurant_pinlet", "name": "ALCHEMIST Bistro & Bar - D\u00fcsseldorf", "opening_hours": {"open_now": true}, "photos": [{"height": 3024, "html_attributions": ["<a href=\"https://maps.google.com/maps/contrib/110052458035292718653\">BISTRO &amp; BAR ALCHEMIST</a>"], "photo_reference": "AUGGfZm5ONIksP-FV-JLNhdY63eKhvB6UrTq7UkI7uBpVXaHWoVbyJ_-y4pK6cnkwzmbxQNVwevZG00YMF3E9_tb6pOSs5H60YOuNBPBUQPs2cAVGouXLPLEWThLpo0jXtV4kb_Y_Ucsgl4PgrxwMg9f8UD9s5UAZ4AW33acAQMkYV-1hDXT", "width": 4032}], "place_id": "ChIJGZUAiDnKuEcRbDAbhF1-Z9g", "plus_code": {"compound_code": "6Q9P+FC D\u00fcsseldorf, Germany", "global_code": "9F386Q9P+FC"}, "price_level": 2, "rating": 4.7, "reference": "ChIJGZUAiDnKuEcRbDAbhF1-Z9g", "scope": "GOOGLE", "types": ["restaurant", "bar", "food", "point_of_interest", "establishment"], "user_ratings_total": 326, "vicinity": "Graf-Adolf-Stra\u00dfe 61, D\u00fcsseldorf"}, {"business_status": "OPERATIONAL", "geometry": {"location": {"lat": 51.220619, "lng": 6.7781743}, "viewport": {"northeast": {"lat": 51.22196777989272, "lng": 6.779610979892722}, "southwest": {"lat": 51.21926812010728, "lng": 6.776911320107279}}}, "icon": "https://maps.gstatic.com/mapfiles/place_api/icons/v1/png_71/bar-71.png", "icon_background_color": "#FF9E67", "icon_mask_base_uri": "https://maps.gstatic.com/mapfiles/place_api/icons/v2/bar_pinlet", "name": "Tino's Bar - D\u00fcsseldorf", "opening_hours": {"open_now": true}, "photos": [{"height": 3024, "html_attributions": ["<a href=\"https://maps.google.com/maps/contrib/112243774053788163457\">AliKuNo</a>"], "photo_reference": "AUGGfZkHqO0aX9kUG3H6rxvHmv6Y8cbHaLAIpCIRTYWQJM8jvSA-s6RPislinTCV1boB1an2RgXasns0dM9f-g2fMKphFaM6sJSGT6XHyvsI8k_7vz5T1aOCX9fer2JKGwLMs-cbkFlAJjMmk7XpqgZATMjl5EWDNkvghTDenFwZUdokzq2j", "width": 4032}], "place_id": "ChIJX3JUxz3KuEcRLu12B4fSbuo", "plus_code": {"compound_code": "6QCH+67 D\u00fcsseldorf, Germany", "global_code": "9F386QCH+67"}, "price_level": 3, "rating": 4, "reference": "ChIJX3JUxz3KuEcRLu12B4fSbuo", "scope": "GOOGLE", "types": ["bar", "restaurant", "food", "point_of_interest", "establishment"], "user_ratings_total": 563, "vicinity": "K\u00f6nigsallee 59, D\u00fcsseldorf"}, {"business_status": "OPERATIONAL", "geometry": {"location": {"lat": 51.217916, "lng": 6.780606}, "viewport": {"northeast": {"lat": 51.21935127989271, "lng": 6.781946879892721}, "southwest": {"lat": 51.21665162010726, "lng": 6.779247220107277}}}, "icon": "https://maps.gstatic.com/mapfiles/place_api/icons/v1/png_71/restaurant-71.png", "icon_background_color": "#FF9E67", "icon_mask_base_uri": "https://maps.gstatic.com/mapfiles/place_api/icons/v2/restaurant_pinlet", "name": "Rosie's", "opening_hours": {"open_now": true}, "photos": [{"height": 3024, "html_attributions": ["<a href=\"https://maps.google.com/maps/contrib/117911854709487147062\">Rosie&#39;s</a>"], "photo_reference": "AUGGfZkbjLQADTqu4_VabzJ4Vg-TPadQRM116UHre-JeuNNfGOd7b_CbKp08LoKNI1Rv04Y5Cfla70Qv1vf5hZ8hFpZ1-El17mDd4ZOSFnJc2b7t4IlYN73hLy9xmbT8GVV1a7yEj5dhEMrLz8s5BmlevxKJfXVKlEblAjea5EaNWFYwnBLB", "width": 4032}], "place_id": "ChIJlcxhuT7KuEcRhu8YTv66Sdo", "plus_code": {"compound_code": "6Q9J+56 D\u00fcsseldorf, Germany", "global_code": "9F386Q9J+56"}, "price_level": 2, "rating": 4.4, "reference": "ChIJlcxhuT7KuEcRhu8YTv66Sdo", "scope": "GOOGLE", "types": ["restaurant", "food", "point_of_interest", "establishment"], "user_ratings_total": 2548, "vicinity": "Adersstra\u00dfe 21, D\u00fcsseldorf"}, {"business_status": "OPERATIONAL", "geometry": {"location": {"lat": 51.2294428, "lng": 6.7746854}, "viewport": {"northeast": {"lat": 51.23074887989272, "lng": 6.776010129892722}, "southwest": {"lat": 51.22804922010728, "lng": 6.773310470107278}}}, "icon": "https://maps.gstatic.com/mapfiles/place_api/icons/v1/png_71/bar-71.png", "icon_background_color": "#FF9E67", "icon_mask_base_uri": "https://maps.gstatic.com/mapfiles/place_api/icons/v2/bar_pinlet", "name": "Zum Goldenen Einhorn", "opening_hours": {"open_now": true}, "photos": [{"height": 3000, "html_attributions": ["<a href=\"https://maps.google.com/maps/contrib/115570577808122013342\">JP Gilles</a>"], "photo_reference": "AUGGfZmEBO84agECK_ETP3eQLrhrDopVbe1sPigelcNQ5qAKl_5naaEqoQ5NHLxTlai1jvOpOBI6bIXyuDkUoYmWcpzyOgtlWGgEFCJz3t5LyYJkH0zY2RZ9oHKhMn1oI35j6zUt9pKNwlt7I5bOG3w3j7cjzwNNxpCi5ERYiD0l2ONrciAR", "width": 4000}], "place_id": "ChIJzZZlezO5cUERSgm7084yukI", "plus_code": {"compound_code": "6QHF+QV D\u00fcsseldorf, Germany", "global_code": "9F386QHF+QV"}, "price_level": 2, "rating": 4.3, "reference": "ChIJzZZlezO5cUERSgm7084yukI", "scope": "GOOGLE", "types": ["bar", "restaurant", "food", "point_of_interest", "establishment"], "user_ratings_total": 738, "vicinity": "Ratinger Str. 18, D\u00fcsseldorf"}, {"business_status": "OPERATIONAL", "geometry": {"location": {"lat": 51.2281379, "lng": 6.7750892}, "viewport": {"northeast": {"lat": 51.22957242989273, "lng": 6.776500829892722}, "southwest": {"lat": 51.22687277010728, "lng": 6.773801170107278}}}, "icon": "https://maps.gstatic.com/mapfiles/place_api/icons/v1/png_71/restaurant-71.png", "icon_background_color": "#FF9E67", "icon_mask_base_uri": "https://maps.gstatic.com/mapfiles/place_api/icons/v2/restaurant_pinlet", "name": "20\u00b0 RESTOBAR", "opening_hours": {"open_now": true}, "photos": [{"height": 1800, "html_attributions": ["<a href=\"https://maps.google.com/maps/contrib/111265315970150923586\">isaacTbell</a>"], "photo_reference": "AUGGfZmpPjHyW7NUhlc0NFbjv29ruz73dMRhUaxyI8blkDWqKF55EPMF0Ao-IS1HONbyvkadL0xH1wEKFTj7oGnmlBjuYiPiFytuvafv1mrTcz2p1ypA1WJ1Ty4ZirCVBYdwJq-z-4XisRr_Pe8mUWxF_iQRRQPrRwBJUGiizt7hHm9stYqD", "width": 4000}], "place_id": "ChIJxxeUYRjKuEcRTsB325JQjQc", "plus_code": {"compound_code": "6QHG+72 D\u00fcsseldorf, Germany", "global_code": "9F386QHG+72"}, "price_level": 3, "rating": 4.4, "reference": "ChIJxxeUYRjKuEcRTsB325JQjQc", "scope": "GOOGLE", "types": ["cafe", "bar", "restaurant", "food", "point_of_interest", "establishment"], "user_ratings_total": 1115, "vicinity": "Mutter-Ey-Platz 3, Neubr\u00fcckstra\u00dfe, D\u00fcsseldorf"}, {"business_status": "OPERATIONAL", "geometry": {"location": {"lat": 51.2379492, "lng": 6.798302199999999}, "viewport": {"northeast": {"lat": 51.23928287989271, "lng": 6.799572429892722}, "southwest": {"lat": 51.23658322010727, "lng": 6.796872770107278}}}, "icon": "https://maps.gstatic.com/mapfiles/place_api/icons/v1/png_71/bar-71.png", "icon_background_color": "#FF9E67", "icon_mask_base_uri": "https://maps.gstatic.com/mapfiles/place_api/icons/v2/bar_pinlet", "name": "Gastst\u00e4tte Pief", "opening_hours": {"open_now": true}, "photos": [{"height": 3024, "html_attributions": ["<a href=\"https://maps.google.com/maps/contrib/116693334005357303939\">A Google User</a>"], "photo_reference": "AUGGfZnlBWJ8q0Mf7DqrTY8rHPvVsowBfNaGrWL-51HpOyT6grVcf7vvRyPJDlPjLI7vNvGgHy7C0QU4P4UNj7BSrhBZWXJ04kZuRM7w3AY7ZIXySDepzaovSKfAjR5tY6moCUhoEHdc2gm52F9sGslH5Pqw5BCWksVOk3CKmA_RsUSf596p", "width": 4032}], "place_id": "ChIJve0TvIbJuEcRoYYEmBb9JLQ", "plus_code": {"compound_code": "6QQX+58 D\u00fcsseldorf, Germany", "global_code": "9F386QQX+58"}, "price_level": 1, "rating": 4.1, "reference": "ChIJve0TvIbJuEcRoYYEmBb9JLQ", "scope": "GOOGLE", "types": ["bar", "restaurant", "food", "point_of_interest", "establishment"], "user_ratings_total": 84, "vicinity": "M\u00fclheimer Str. 1A, D\u00fcsseldorf"}, {"business_status": "OPERATIONAL", "geometry": {"location": {"lat": 51.22505760000001, "lng": 6.772472899999999}, "viewport": {"northeast": {"lat": 51.22646152989272, "lng": 6.773811729892722}, "southwest": {"lat": 51.22376187010727, "lng": 6.771112070107278}}}, "icon": "https://maps.gstatic.com/mapfiles/place_api/icons/v1/png_71/bar-71.png", "icon_background_color": "#FF9E67", "icon_mask_base_uri": "https://maps.gstatic.com/mapfiles/place_api/icons/v2/bar_pinlet", "name": "Altstadt - beim Uerige", "opening_hours": {"open_now": true}, "photos": [{"height": 2736, "html_attributions": ["<a href=\"https://maps.google.com/maps/contrib/108258677097674771916\">Peter Grashoff</a>"], "photo_reference": "AUGGfZl6_bTaQIRcGaVoyKpp4_e_2gKnZ5gYMbdEAyMSsETYk5RBs91c2t4-3bzSTkH-1fVnDOpKYbiu7ZSNGHyEEoRpFynL5nmpGW5egPLCnvoBv8Qhn0dQm9isYqQini5L6i_SsyG0QFCxEMsOjYYoMKV108zWkaq1yyr242AJHo2mA2vm", "width": 3648}], "place_id": "ChIJhYm12xnKuEcRs3gl2TzZerE", "plus_code": {"compound_code": "6QGC+2X D\u00fcsseldorf, Germany", "global_code": "9F386QGC+2X"}, "rating": 4.2, "reference": "ChIJhYm12xnKuEcRs3gl2TzZerE", "scope": "GOOGLE", "types": ["bar", "restaurant", "food", "point_of_interest", "establishment"], "user_ratings_total": 34, "vicinity": "D\u00fcsseldorf"}, {"business_status": "OPERATIONAL", "geometry": {"location": {"lat": 51.2294123, "lng": 6.7744997}, "viewport": {"northeast": {"lat": 51.23072887989272, "lng": 6.775867629892723}, "southwest": {"lat": 51.22802922010727, "lng": 6.773167970107279}}}, "icon": "https://maps.gstatic.com/mapfiles/place_api/icons/v1/png_71/bar-71.png", "icon_background_color": "#FF9E67", "icon_mask_base_uri": "https://maps.gstatic.com/mapfiles/place_api/icons/v2/bar_pinlet", "name": "Zur Uel", "opening_hours": {"open_now": true}, "photos": [{"height": 3468, "html_attributions": ["<a href=\"https://maps.google.com/maps/contrib/103137283040736961636\">Urszula Rzechula</a>"], "photo_reference": "AUGGfZmVS8Z0QR67tvlQAxQSKwtrzhGPWZLG1PvCN3j4yhOAr-yPXvGyo-8D3-qXO0UcXNthpGoB-HkeCxE_Zz6D3A4sro6E87GHz55MRd5dcr13D1XG5u7IWpaOI2mkuD5XEm5jDzdf2Cevy51jFTWr2ZYvVbBQkpKJNMIs-UdP25iiFMI-", "width": 4624}], "place_id": "ChIJnWe_0xjKuEcRuNwDGA5KWhA", "plus_code": {"compound_code": "6QHF+QR D\u00fcsseldorf, Germany", "global_code": "9F386QHF+QR"}, "price_level": 2, "rating": 4.3, "reference": "ChIJnWe_0xjKuEcRuNwDGA5KWhA", "scope": "GOOGLE", "types": ["bar", "restaurant", "food", "point_of_interest", "establishment"], "user_ratings_total": 1047, "vicinity": "Ratinger Str. 16, D\u00fcsseldorf"}, {"business_status": "OPERATIONAL", "geometry": {"location": {"lat": 51.2263844, "lng": 6.7753188}, "viewport": {"northeast": {"lat": 51.22770172989272, "lng": 6.77751135}, "southwest": {"lat": 51.22500207010728, "lng": 6.77458795}}}, "icon": "https://maps.gstatic.com/mapfiles/place_api/icons/v1/png_71/bar-71.png", "icon_background_color": "#FF9E67", "icon_mask_base_uri": "https://maps.gstatic.com/mapfiles/place_api/icons/v2/bar_pinlet", "name": "Wei\u00dfer B\u00e4r", "opening_hours": {"open_now": true}, "photos": [{"height": 3024, "html_attributions": ["<a href=\"https://maps.google.com/maps/contrib/109271225498569815803\">Brian Taylor</a>"], "photo_reference": "AUGGfZlYKDhbNJs4MKH9uup1oEBaetNFp8Boq--Yjk--UbbcxvstvnboU6MZSRp-4nSm0raL9InGoihBQFHZMsx-38sA0tYydbTG-2DdABBv3ZkwCut8AAgzdQSab_EJwaH8LmvzAEsnp8BScblzL7VxLovFMlq2Z5GpTMlpvTEQVKE7bLR1", "width": 4032}], "place_id": "ChIJl-NkQhjKuEcRQEOhA7XNav0", "plus_code": {"compound_code": "6QGG+H4 D\u00fcsseldorf, Germany", "global_code": "9F386QGG+H4"}, "price_level": 2, "rating": 3.9, "reference": "ChIJl-NkQhjKuEcRQEOhA7XNav0", "scope": "GOOGLE", "types": ["bar", "restaurant", "food", "point_of_interest", "establishment"], "user_ratings_total": 1229, "vicinity": "Bolkerstra\u00dfe 50, D\u00fcsseldorf"}]