[{"business_status": "OPERATIONAL", "geometry": {"location": {"lat": 53.12229929999999, "lng": 18.0004715}, "viewport": {"northeast": {"lat": 53.12364707989273, "lng": 18.00155012989272}, "southwest": {"lat": 53.12094742010728, "lng": 17.99885047010728}}}, "icon": "https://maps.gstatic.com/mapfiles/place_api/icons/v1/png_71/bar-71.png", "icon_background_color": "#FF9E67", "icon_mask_base_uri": "https://maps.gstatic.com/mapfiles/place_api/icons/v2/bar_pinlet", "name": "PRL Rocks", "opening_hours": {"open_now": true}, "photos": [{"height": 2988, "html_attributions": ["<a href=\"https://maps.google.com/maps/contrib/111629791234180485723\">Jakub M</a>"], "photo_reference": "AUGGfZlHBCNf1NkqzMsRPFvavxVvU_hnlK3Z7LC-8X65sFR91CvsfXOXQX2ARXrT8XFPDjZm-2gKl3nvQ2GKtLJjds-TuAHIHHoxlfTrF4-OY8mIQFSm5FqPhoqI6-pP9W3NcramoS4-eXXFLB2Ly8rWMtfanLRLz3MqNOphZ_n_u3cgZ8Be", "width": 5312}], "place_id": "ChIJxwpDj7sTA0cRsUJwUfznw3A", "plus_code": {"compound_code": "42C2+W5 Bydgoszcz, Poland", "global_code": "9F5W42C2+W5"}, "price_level": 1, "rating": 4.2, "reference": "ChIJxwpDj7sTA0cRsUJwUfznw3A", "scope": "GOOGLE", "types": ["bar", "restaurant", "food", "point_of_interest", "establishment"], "user_ratings_total": 1052, "vicinity": "Stary Rynek 5, Bydgoszcz"}, {"business_status": "OPERATIONAL", "geometry": {"location": {"lat": 53.125521, "lng": 18.0043797}, "viewport": {"northeast": {"lat": 53.12679537989273, "lng": 18.00565872989272}, "southwest": {"lat": 53.12409572010728, "lng": 18.00295907010728}}}, "icon": "https://maps.gstatic.com/mapfiles/place_api/icons/v1/png_71/bar-71.png", "icon_background_color": "#FF9E67", "icon_mask_base_uri": "https://maps.gstatic.com/mapfiles/place_api/icons/v2/bar_pinlet", "name": "Pub Parnasik", "opening_hours": {"open_now": true}, "photos": [{"height": 4032, "html_attributions": ["<a href=\"https://maps.google.com/maps/contrib/109493643497687358358\">Jerzy W\u0105sowski</a>"], "photo_reference": "AUGGfZld4eYwCSbT6FQ4fFPVkenXe2yJlQ7zRvHe0SUH8s7tbD7LE0Vnsmt9k0ecVZrnSnKXKsl8f3bv9NL46Nuii8fSa1STACVxn1sWNpLgonQVM7pSfdgKpu8XBu8PF_2AgUwLF2QEh-1sxKyhrBCZCdasxjLndgm9ik98vPcAj55yjKOa", "width": 3024}], "place_id": "ChIJ30hnzL4TA0cR2R7KKFf4WWU", "plus_code": {"compound_code": "42G3+4M Bydgoszcz, Poland", "global_code": "9F5W42G3+4M"}, "price_level": 1, "rating": 4.4, "reference": "ChIJ30hnzL4TA0cR2R7KKFf4WWU", "scope": "GOOGLE", "types": ["bar", "restaurant", "food", "point_of_interest", "establishment"], "user_ratings_total": 458, "vicinity": "Parkowa 2, Bydgoszcz"}, {"business_status": "OPERATIONAL", "geometry": {"location": {"lat": 53.1212648, "lng": 18.0019337}, "viewport": {"northeast": {"lat": 53.12261872989272, "lng": 18.00335927989272}, "southwest": {"lat": 53.11991907010728, "lng": 18.00065962010728}}}, "icon": "https://maps.gstatic.com/mapfiles/place_api/icons/v1/png_71/bar-71.png", "icon_background_color": "#FF9E67", "icon_mask_base_uri": "https://maps.gstatic.com/mapfiles/place_api/icons/v2/bar_pinlet", "name": "Pijalnia W\u00f3dki i Piwa", "opening_hours": {"open_now": true}, "photos": [{"height": 3024, "html_attributions": ["<a href=\"https://maps.google.com/maps/contrib/108547950170432428346\">IAN Johnson</a>"], "photo_reference": "AUGGfZkTne-9rv2fY7MyY4Ob--V1Ooa822yBEnpTDzAKyRsR0sYC19Gjl4DMXmVIGa8QoCfSzWHRqKuuwtN3ZT1FMHXBr2NEhUQ26xqJj1_ckGdnkvWDRmlzossvSRLKxwcqp8z0IX_L1-cub6lvXoJ7cHNvDyCoBv1IR283b8BXZW2_gl8e", "width": 4032}], "place_id": "ChIJUTMZirwTA0cROpUoj2KbSUk", "plus_code": {"compound_code": "42C2+GQ Bydgoszcz, Poland", "global_code": "9F5W42C2+GQ"}, "price_level": 1, "rating": 4.3, "reference": "ChIJUTMZirwTA0cROpUoj2KbSUk", "scope": "GOOGLE", "types": ["bar", "restaurant", "food", "point_of_interest", "establishment"], "user_ratings_total": 1456, "vicinity": "Podwale 12, Bydgoszcz"}, {"business_status": "OPERATIONAL", "geometry": {"location": {"lat": 53.12141339999999, "lng": 17.9944604}, "viewport": {"northeast": {"lat": 53.12271812989272, "lng": 17.99577862989272}, "southwest": {"lat": 53.12001847010728, "lng": 17.99307897010727}}}, "icon": "https://maps.gstatic.com/mapfiles/place_api/icons/v1/png_71/restaurant-71.png", "icon_background_color": "#FF9E67", "icon_mask_base_uri": "https://maps.gstatic.com/mapfiles/place_api/icons/v2/restaurant_pinlet", "name": "Warzelnia Piwa Bydgoszcz", "opening_hours": {"open_now": true}, "photos": [{"height": 3024, "html_attributions": ["<a href=\"https://maps.google.com/maps/contrib/114305372095212725297\">Grzegorz Ciszewski</a>"], "photo_reference": "AUGGfZmcqDBpLtVGMEAnm_wUSLBL-zkcleFmRRlzRplszQHmBZzuE7ocEYHUZpV7y1Q0J9XXlcxCobtKi_O4XFLGoY0dGxA9dFyhIEFrM9KgKlAhGSTlxgfbfY9VT7l55XHwe7W4HyVNs8Dfa8T_BKTF4nc9TkSaHQT-mEQu2_lPUNQVuU7E", "width": 4032}], "place_id": "ChIJHzn567oTA0cRRUOM7UFiXq8", "plus_code": {"compound_code": "4XCV+HQ Bydgoszcz, Poland", "global_code": "9F5V4XCV+HQ"}, "price_level": 2, "rating": 4.4, "reference": "ChIJHzn567oTA0cRRUOM7UFiXq8", "scope": "GOOGLE", "types": ["bar", "restaurant", "food", "point_of_interest", "establishment"], "user_ratings_total": 3201, "vicinity": "Pozna\u0144ska 8, Bydgoszcz"}, {"business_status": "OPERATIONAL", "geometry": {"location": {"lat": 53.1216087, "lng": 18.0001346}, "viewport": {"northeast": {"lat": 53.12287702989272, "lng": 18.00116107989272}, "southwest": {"lat": 53.12017737010728, "lng": 17.99846142010728}}}, "icon": "https://maps.gstatic.com/mapfiles/place_api/icons/v1/png_71/bar-71.png", "icon_background_color": "#FF9E67", "icon_mask_base_uri": "https://maps.gstatic.com/mapfiles/place_api/icons/v2/bar_pinlet", "name": "Strefa Disco 24/7", "opening_hours": {"open_now": true}, "photos": [{"height": 3024, "html_attributions": ["<a href=\"https://maps.google.com/maps/contrib/111964021947119189549\">Seta Disco</a>"], "photo_reference": "AUGGfZlXRsslauhUwOh7eJiEdze7ZAGGCqU2H4a779e0NjuZXOQHVLwZdeZfKessXKjdZmjTHxDxFVk4wf-lCRtWZEF_GUg3-f6wiOy7KDM5vGpxxQYqrayo0LvHL3MMhpZH7pNlcFHP0Pb2OR9IUO6879oUcnIRJ7tSYkbVgfeQtwW45O0z", "width": 4032}], "place_id": "ChIJ0akAgrsTA0cRiE_ygo1mK8Q", "plus_code": {"compound_code": "42C2+J3 Bydgoszcz, Poland", "global_code": "9F5W42C2+J3"}, "price_level": 1, "rating": 4.1, "reference": "ChIJ0akAgrsTA0cRiE_ygo1mK8Q", "scope": "GOOGLE", "types": ["bar", "night_club", "restaurant", "food", "point_of_interest", "establishment"], "user_ratings_total": 954, "vicinity": "Stary Rynek 18, Bydgoszcz"}, {"business_status": "OPERATIONAL", "geometry": {"location": {"lat": 53.1216753, "lng": 18.0011461}, "viewport": {"northeast": {"lat": 53.12278902989272, "lng": 18.00229342989272}, "southwest": {"lat": 53.12008937010727, "lng": 17.99959377010728}}}, "icon": "https://maps.gstatic.com/mapfiles/place_api/icons/v1/png_71/bar-71.png", "icon_background_color": "#FF9E67", "icon_mask_base_uri": "https://maps.gstatic.com/mapfiles/place_api/icons/v2/bar_pinlet", "name": "TRAVA", "opening_hours": {"open_now": true}, "photos": [{"height": 2048, "html_attributions": ["<a href=\"https://maps.google.com/maps/contrib/105260325431091932186\">A Google User</a>"], "photo_reference": "AUGGfZkVZHbnpd0UhqOqVygoxP96DSRGUh9CSZRB-q6TGsPBoZTkG9S0iP8vtKFxzlZl-qemeu9gdju-ynjFwpbTcBiOm9s2bKFR4bHONWbqwke166QVuqxFYwXgIvO0e8kzmpYUq0zajkBKb8MU7OO28vTboGeX9Tm58VCMSD9f6jIoIQGo", "width": 1536}], "place_id": "ChIJhYOXGZoTA0cRaTIh4w_z4mY", "plus_code": {"compound_code": "42C2+MF Bydgoszcz, Poland", "global_code": "9F5W42C2+MF"}, "price_level": 2, "rating": 4.4, "reference": "ChIJhYOXGZoTA0cRaTIh4w_z4mY", "scope": "GOOGLE", "types": ["bar", "restaurant", "food", "point_of_interest", "establishment"], "user_ratings_total": 395, "vicinity": "Stary Rynek 25, Bydgoszcz"}, {"business_status": "OPERATIONAL", "geometry": {"location": {"lat": 53.124503, "lng": 18.0095889}, "viewport": {"northeast": {"lat": 53.12600502989272, "lng": 18.01099437989272}, "southwest": {"lat": 53.12330537010727, "lng": 18.00829472010728}}}, "icon": "https://maps.gstatic.com/mapfiles/place_api/icons/v1/png_71/cafe-71.png", "icon_background_color": "#FF9E67", "icon_mask_base_uri": "https://maps.gstatic.com/mapfiles/place_api/icons/v2/cafe_pinlet", "name": "Tiger Bar", "opening_hours": {"open_now": true}, "photos": [{"height": 1055, "html_attributions": ["<a href=\"https://maps.google.com/maps/contrib/102605211025062796966\">Tiger Bar</a>"], "photo_reference": "AUGGfZm2-f-AtBb6pBmSmoht8PRjjQzZHVMLJZvQLYyQwEfS4q9AOcBKoV5KC4hCBLzquu6AlOXdmHq_hW2Xohxz3I_CrUmKPmcwfL_iMGmo6VRCG5pVgfdwOdN9_i5AzjBfU1L8VOeppzn5O2rDwNyaIU91mVuTQ1i0voXOLFMgWlFO8Kc", "width": 1917}], "place_id": "ChIJ-x4j6ksTA0cRvcvTIc1RfCk", "plus_code": {"compound_code": "42F5+RR Bydgoszcz, Poland", "global_code": "9F5W42F5+RR"}, "rating": 4.7, "reference": "ChIJ-x4j6ksTA0cRvcvTIc1RfCk", "scope": "GOOGLE", "types": ["cafe", "bar", "night_club", "restaurant", "food", "store", "point_of_interest", "establishment"], "user_ratings_total": 12, "vicinity": "3 Maja 6, Bydgoszcz"}, {"business_status": "OPERATIONAL", "geometry": {"location": {"lat": 53.1212069, "lng": 17.996481}, "viewport": {"northeast": {"lat": 53.12255672989271, "lng": 17.99783082989273}, "southwest": {"lat": 53.11985707010727, "lng": 17.99513117010728}}}, "icon": "https://maps.gstatic.com/mapfiles/place_api/icons/v1/png_71/bar-71.png", "icon_background_color": "#FF9E67", "icon_mask_base_uri": "https://maps.gstatic.com/mapfiles/place_api/icons/v2/bar_pinlet", "name": "Belfer Pub", "opening_hours": {"open_now": false}, "photos": [{"height": 4032, "html_attributions": ["<a href=\"https://maps.google.com/maps/contrib/115419757845064762491\">Katrin Mikki Katrin</a>"], "photo_reference": "AUGGfZlCcy9NHqiwXqhV9-JnqGLO8lrznFI4xQVDvTFGMwRbGrzD4_1ZcuuRe6L4iHEckgYifDQgwSLVek1oaAoUG0Z5P5Y1k-DsdCHbsUs4YCG9QQtfB665hNafpM60RkBDY2XmEl-lYer-LPWwjGofVTnCdz7ycWi43lZgZcdDwGJqY7OH", "width": 3024}], "place_id": "ChIJM2C5trATA0cRVF5kmmhJR5Y", "plus_code": {"compound_code": "4XCW+FH Bydgoszcz, Poland", "global_code": "9F5V4XCW+FH"}, "price_level": 2, "rating": 3.5, "reference": "ChIJM2C5trATA0cRVF5kmmhJR5Y", "scope": "GOOGLE", "types": ["bar", "night_club", "restaurant", "food", "point_of_interest", "establishment"], "user_ratings_total": 148, "vicinity": "We\u0142niany Rynek 8, Bydgoszcz"}, {"business_status": "OPERATIONAL", "geometry": {"location": {"lat": 53.1208924, "lng": 17.9954997}, "viewport": {"northeast": {"lat": 53.12226612989272, "lng": 17.99687387989272}, "southwest": {"lat": 53.11956647010728, "lng": 17.99417422010728}}}, "icon": "https://maps.gstatic.com/mapfiles/place_api/icons/v1/png_71/bar-71.png", "icon_background_color": "#FF9E67", "icon_mask_base_uri": "https://maps.gstatic.com/mapfiles/place_api/icons/v2/bar_pinlet", "name": "Cybermachina", "opening_hours": {"open_now": false}, "photos": [{"height": 2268, "html_attributions": ["<a href=\"https://maps.google.com/maps/contrib/117141342779487295794\">Kornelia Kobiela</a>"], "photo_reference": "AUGGfZnqW24RhiGz-54fmxB4Y448_xWcOHyTCm4T8hB6rYq7OsC-H9YXzUCijCHfdUJruA3_j1X3d1pANBj7KVQzVtl3DcEETGwFoPMA7deP4hIjhwKP0cGdtQ-Mob7GrhHYrIcKOa717CLFRs6nwBO5x3EQieYLgVyzg0LpNqUukq3mBTAA", "width": 4032}], "place_id": "ChIJmxpS3roTA0cRgVZiMGA9cVc", "plus_code": {"compound_code": "4XCW+95 Bydgoszcz, Poland", "global_code": "9F5V4XCW+95"}, "price_level": 2, "rating": 4.6, "reference": "ChIJmxpS3roTA0cRgVZiMGA9cVc", "scope": "GOOGLE", "types": ["bar", "restaurant", "food", "point_of_interest", "establishment"], "user_ratings_total": 1755, "vicinity": "We\u0142niany Rynek 11, Bydgoszcz"}, {"business_status": "OPERATIONAL", "geometry": {"location": {"lat": 53.1211932, "lng": 17.9980571}, "viewport": {"northeast": {"lat": 53.12259897989272, "lng": 17.99943477989272}, "southwest": {"lat": 53.11989932010728, "lng": 17.99673512010728}}}, "icon": "https://maps.gstatic.com/mapfiles/place_api/icons/v1/png_71/bar-71.png", "icon_background_color": "#FF9E67", "icon_mask_base_uri": "https://maps.gstatic.com/mapfiles/place_api/icons/v2/bar_pinlet", "name": "Prolog9 Piwa Kraftowe", "opening_hours": {"open_now": false}, "photos": [{"height": 1495, "html_attributions": ["<a href=\"https://maps.google.com/maps/contrib/106708297585826624003\">Pawe\u0142 Osi\u0144ski</a>"], "photo_reference": "AUGGfZkKtsj-G5oTSz_2u8D_xrj4f_-u2_K8K96HW_BKoclTHfIRNLxBdG2T2KqsJQtMxPDWYyr_Ry3czN5omTh5DF2dvJw5bXDbhLOrAZjdeO3JnP17CrdnPm9qTF8nZ8DF_daNrx8OdQq3Kss-oCnzOhn-Tcrb_XeqTgMGZ1L5GLxBvlzD", "width": 1993}], "place_id": "ChIJ4-uQErsTA0cRe_NAe-j7Z2g", "plus_code": {"compound_code": "4XCX+F6 Bydgoszcz, Poland", "global_code": "9F5V4XCX+F6"}, "price_level": 2, "rating": 4.7, "reference": "ChIJ4-uQErsTA0cRe_NAe-j7Z2g", "scope": "GOOGLE", "types": ["bar", "restaurant", "food", "point_of_interest", "establishment"], "user_ratings_total": 872, "vicinity": "D\u0142uga 18, Bydgoszcz"}, {"business_status": "OPERATIONAL", "geometry": {"location": {"lat": 53.12105500000001, "lng": 17.996313}, "viewport": {"northeast": {"lat": 53.12244452989272, "lng": 17.99744772989272}, "southwest": {"lat": 53.11974487010728, "lng": 17.99474807010728}}}, "icon": "https://maps.gstatic.com/mapfiles/place_api/icons/v1/png_71/bar-71.png", "icon_background_color": "#FF9E67", "icon_mask_base_uri": "https://maps.gstatic.com/mapfiles/place_api/icons/v2/bar_pinlet", "name": "Piwo - Ty nalewasz", "opening_hours": {"open_now": false}, "photos": [{"height": 640, "html_attributions": ["<a href=\"https://maps.google.com/maps/contrib/109700311889926451187\">Urszula Jaroszek</a>"], "photo_reference": "AUGGfZmkDOV9vxQSHQCdqqAK927Xn_w8ql2thzJIXL0u4uLAxGSSLQq9DMAOnKXMyp22XWU_TH7iDvtu0ooX4CI-nr9_8A8lpVLJW8Pd8FSVcjvGrUqoZag10QXyd-Qk8qn6ZJVLT2SlINqOcJr7aHkfnKT-ibdErM20HlFwh4XfLAfZQH51", "width": 960}], "place_id": "ChIJh2J8a88TA0cRsd_-0HM6VD8", "plus_code": {"compound_code": "4XCW+CG Bydgoszcz, Poland", "global_code": "9F5V4XCW+CG"}, "price_level": 2, "rating": 4.8, "reference": "ChIJh2J8a88TA0cRsd_-0HM6VD8", "scope": "GOOGLE", "types": ["bar", "restaurant", "food", "point_of_interest", "establishment"], "user_ratings_total": 321, "vicinity": "We\u0142niany Rynek 9, Bydgoszcz"}, {"business_status": "OPERATIONAL", "geometry": {"location": {"lat": 53.1217817, "lng": 17.9987827}, "viewport": {"northeast": {"lat": 53.12319472989272, "lng": 18.00006857989272}, "southwest": {"lat": 53.12049507010727, "lng": 17.99736892010728}}}, "icon": "https://maps.gstatic.com/mapfiles/place_api/icons/v1/png_71/restaurant-71.png", "icon_background_color": "#FF9E67", "icon_mask_base_uri": "https://maps.gstatic.com/mapfiles/place_api/icons/v2/restaurant_pinlet", "name": "Apteka Restauracja & Koktajlbar", "opening_hours": {"open_now": true}, "photos": [{"height": 2664, "html_attributions": ["<a href=\"https://maps.google.com/maps/contrib/115446478927023591921\">Alek Gap</a>"], "photo_reference": "AUGGfZmUsMCBA75hzQU58CCLonygztgaUKheiVJzWwPPEsSK8F9tPDQdJ2CYW4IoeA9tsBTi9IlANpS6SL_zYm1ZdkIFba1b-_WneFGkfI6pgoO3-AcVKKYFnmqrAvXqzB0QbFEjQ1D8GUyufuFjKPbfvtmV_w-o5DN5hT8D5qblFiT9lSTs", "width": 3996}], "place_id": "ChIJe_iMoV8TA0cRJ0vddz-t3co", "plus_code": {"compound_code": "4XCX+PG Bydgoszcz, Poland", "global_code": "9F5V4XCX+PG"}, "price_level": 2, "rating": 4.7, "reference": "ChIJe_iMoV8TA0cRJ0vddz-t3co", "scope": "GOOGLE", "types": ["restaurant", "food", "point_of_interest", "establishment"], "user_ratings_total": 425, "vicinity": "Nied\u017awiedzia 11, Bydgoszcz"}, {"business_status": "OPERATIONAL", "geometry": {"location": {"lat": 53.12394889999999, "lng": 18.0006526}, "viewport": {"northeast": {"lat": 53.12529872989272, "lng": 18.00200242989272}, "southwest": {"lat": 53.12259907010728, "lng": 17.99930277010728}}}, "icon": "https://maps.gstatic.com/mapfiles/place_api/icons/v1/png_71/bar-71.png", "icon_background_color": "#FF9E67", "icon_mask_base_uri": "https://maps.gstatic.com/mapfiles/place_api/icons/v2/bar_pinlet", "name": "Ogr\u00f3dek Piwny Merlin", "photos": [{"height": 1848, "html_attributions": ["<a href=\"https://maps.google.com/maps/contrib/114632278637582127234\">Wlodek Meissner</a>"], "photo_reference": "AUGGfZnr5rdnS4VoGGLLZLlpcfvJdi9oELdvxpTDaq66eRFtzFnLTCNgVjQjo2-HGH6HiS4sl4L98yfxz0LTDX8hDKmXkk33AES9Qh0om0mll_WdYEt2ncNt34K-NFvzFNVtJ2Y5N4FQvtbIWKELdJ9DC7MJL1np4I9azCfZbi_rJ54Y6cGf", "width": 4000}], "place_id": "ChIJGwLg_cYTA0cRi2jKB9ElwM0", "plus_code": {"compound_code": "42F2+H7 Bydgoszcz, Poland", "global_code": "9F5W42F2+H7"}, "price_level": 1, "rating": 4.5, "reference": "ChIJGwLg_cYTA0cRi2jKB9ElwM0", "scope": "GOOGLE", "types": ["bar", "restaurant", "food", "point_of_interest", "establishment"], "user_ratings_total": 102, "vicinity": "Bydgoszcz"}, {"business_status": "OPERATIONAL", "geometry": {"location": {"lat": 53.1213896, "lng": 18.0009764}, "viewport": {"northeast": {"lat": 53.12267727989271, "lng": 18.00222692989272}, "southwest": {"lat": 53.11997762010727, "lng": 17.99952727010728}}}, "icon": "https://maps.gstatic.com/mapfiles/place_api/icons/v1/png_71/bar-71.png", "icon_background_color": "#FF9E67", "icon_mask_base_uri": "https://maps.gstatic.com/mapfiles/place_api/icons/v2/bar_pinlet", "name": "Elixir", "opening_hours": {"open_now": false}, "photos": [{"height": 502, "html_attributions": ["<a href=\"https://maps.google.com/maps/contrib/110749421858395868335\">A Google User</a>"], "photo_reference": "AUGGfZlaHukvcHU4SdATGp_X_TBI2dEz51Ni-i9LsHDZXPuhjAu_QYzGmbv7p0FkXYqrFd34kvT1GovJLu5ZN8Fym02MCRxFyD4mJJT-nsy3mYIW9XkAvlmGQYRENcE3UHf7jvlVFtNwCqx_ne-rA_An_xpsnU3JFSqbhiPPYpU1uws2AUzM", "width": 750}], "place_id": "ChIJIz4sOZcTA0cR1F24DWiHq5E", "plus_code": {"compound_code": "42C2+H9 Bydgoszcz, Poland", "global_code": "9F5W42C2+H9"}, "price_level": 2, "rating": 4.8, "reference": "ChIJIz4sOZcTA0cR1F24DWiHq5E", "scope": "GOOGLE", "types": ["bar", "liquor_store", "restaurant", "food", "store", "point_of_interest", "establishment"], "user_ratings_total": 862, "vicinity": "Teofila Magdzi\u0144skiego 2, Bydgoszcz"}, {"business_status": "OPERATIONAL", "geometry": {"location": {"lat": 53.1262122, "lng": 18.028661}, "viewport": {"northeast": {"lat": 53.12742677989273, "lng": 18.03007242989272}, "southwest": {"lat": 53.12472712010729, "lng": 18.02737277010728}}}, "icon": "https://maps.gstatic.com/mapfiles/place_api/icons/v1/png_71/restaurant-71.png", "icon_background_color": "#FF9E67", "icon_mask_base_uri": "https://maps.gstatic.com/mapfiles/place_api/icons/v2/restaurant_pinlet", "name": "Bar Kaprys", "opening_hours": {"open_now": true}, "photos": [{"height": 1080, "html_attributions": ["<a href=\"https://maps.google.com/maps/contrib/107013979306180599118\">Patryk Kulczyk</a>"], "photo_reference": "AUGGfZkeTWdIpdDZ-WquUd5mk2Zdtllsufe1ByT3pOJwOo1_SAqyZg5EfyqoL8UeAuuPcqlKjAaZou2Zd-IK-IBE76RZ0N2jpk7qPDJ00BzGxgUS_wDNB59ANkJ5dMd7K-3HE0z10D-mvX100-MSeXd_wjXnjhtpfGUEAkC3R-2LdsRWr-eO", "width": 1920}], "place_id": "ChIJWwh3UO0TA0cRJ8EvLdHy8xk", "plus_code": {"compound_code": "42GH+FF Bydgoszcz, Poland", "global_code": "9F5W42GH+FF"}, "price_level": 1, "rating": 4.4, "reference": "ChIJWwh3UO0TA0cRJ8EvLdHy8xk", "scope": "GOOGLE", "types": ["bar", "restaurant", "food", "point_of_interest", "establishment"], "user_ratings_total": 1876, "vicinity": "Marii Sk\u0142odowskiej Curie 1, Bydgoszcz"}, {"business_status": "OPERATIONAL", "geometry": {"location": {"lat": 53.121568, "lng": 18.000326}, "viewport": {"northeast": {"lat": 53.12278892989272, "lng": 18.00189727989272}, "southwest": {"lat": 53.12008927010728, "lng": 17.99919762010728}}}, "icon": "https://maps.gstatic.com/mapfiles/place_api/icons/v1/png_71/generic_business-71.png", "icon_background_color": "#7B9EB0", "icon_mask_base_uri": "https://maps.gstatic.com/mapfiles/place_api/icons/v2/generic_pinlet", "name": "Twenty. Club Bydgoszcz", "opening_hours": {"open_now": true}, "photos": [{"height": 1365, "html_attributions": ["<a href=\"https://maps.google.com/maps/contrib/117260974337112575275\">Twenty Club</a>"], "photo_reference": "AUGGfZkG9yUU4T7TcvuHX6NFQwaS1Z0tSgYeN8H4clU_TKcFpB4eqaFz2No9zVGSvkd04OuTOPJmvfLknqCXzhOtPi-bz9GGJOnwyj9FGnKRHeaZ0txD7xEeNpl7eHLjhlIJXSR3LrSG2QVKGQ_OdB6tCeCxQR60ilHZ8B2uiUTkNaAK06yC", "width": 2048}], "place_id": "ChIJDcJ-f7sTA0cRuTZvk2zXOec", "plus_code": {"compound_code": "42C2+J4 Bydgoszcz, Poland", "global_code": "9F5W42C2+J4"}, "rating": 4.1, "reference": "ChIJDcJ-f7sTA0cRuTZvk2zXOec", "scope": "GOOGLE", "types": ["bar", "night_club", "restaurant", "food", "point_of_interest", "establishment"], "user_ratings_total": 732, "vicinity": "Stary Rynek 20, Bydgoszcz"}, {"business_status": "OPERATIONAL", "geometry": {"location": {"lat": 53.1223586, "lng": 17.9977006}, "viewport": {"northeast": {"lat": 53.12366497989272, "lng": 17.99894752989272}, "southwest": {"lat": 53.12096532010727, "lng": 17.99624787010728}}}, "icon": "https://maps.gstatic.com/mapfiles/place_api/icons/v1/png_71/restaurant-71.png", "icon_background_color": "#FF9E67", "icon_mask_base_uri": "https://maps.gstatic.com/mapfiles/place_api/icons/v2/restaurant_pinlet", "name": "Karczma M\u0142y\u0144ska", "opening_hours": {"open_now": true}, "photos": [{"height": 3456, "html_attributions": ["<a href=\"https://maps.google.com/maps/contrib/110482643293259884719\">Karczma M\u0142y\u0144ska Bydgoszcz</a>"], "photo_reference": "AUGGfZlVGllt86lvqKD0J8c3Zyghm7cHEkl5zvakHqJnWXDeY9Zo2jF2TsiO2NTuEGvy8NzSHxeJO6uCSlI7qiesmZYy4RNrUoWKJPnlX0Vbghad9Y4sPmxuBDk51hb_NDdMpo5QK6hmjslvQw8cPZS8MZwrjObbmk8b2yI5onnZydJ-Wjob", "width": 5184}], "place_id": "ChIJy1nhq7sTA0cRsTKGECd7Ojg", "plus_code": {"compound_code": "4XCX+W3 Bydgoszcz, Poland", "global_code": "9F5V4XCX+W3"}, "price_level": 2, "rating": 4.4, "reference": "ChIJy1nhq7sTA0cRsTKGECd7Ojg", "scope": "GOOGLE", "types": ["restaurant", "food", "point_of_interest", "establishment"], "user_ratings_total": 3158, "vicinity": "Mennica 1, Bydgoszcz"}, {"business_status": "OPERATIONAL", "geometry": {"location": {"lat": 53.1218077, "lng": 18.0011084}, "viewport": {"northeast": {"lat": 53.12285082989272, "lng": 18.00227457989272}, "southwest": {"lat": 53.12015117010728, "lng": 17.99957492010728}}}, "icon": "https://maps.gstatic.com/mapfiles/place_api/icons/v1/png_71/generic_business-71.png", "icon_background_color": "#7B9EB0", "icon_mask_base_uri": "https://maps.gstatic.com/mapfiles/place_api/icons/v2/generic_pinlet", "name": "Prywatka Bydgoszcz", "opening_hours": {"open_now": true}, "photos": [{"height": 2592, "html_attributions": ["<a href=\"https://maps.google.com/maps/contrib/113622729983526337874\">A Google User</a>"], "photo_reference": "AUGGfZkwlzdUucy2Xvu102ucsSncr8P3AM4bY303SMvpQ7ELaLCd9D0_P9bqjiw3-SUEpYbua8qsjshVi0aN-Y_kUnB-6C-W5qRU4tFNgoESNNDmrJigvPateS-ljhtHWUr6QN4f8_k_myaUuAekIdqJjda89TFF8_5-71aERM92n43iNnah", "width": 3888}], "place_id": "ChIJn1JkiyQTA0cRbom3M_Jhnqs", "plus_code": {"compound_code": "42C2+PC Bydgoszcz, Poland", "global_code": "9F5W42C2+PC"}, "rating": 4.1, "reference": "ChIJn1JkiyQTA0cRbom3M_Jhnqs", "scope": "GOOGLE", "types": ["restaurant", "food", "point_of_interest", "establishment"], "user_ratings_total": 634, "vicinity": "Stary Rynek, Bydgoszcz"}, {"business_status": "OPERATIONAL", "geometry": {"location": {"lat": 53.1207828, "lng": 18.0019265}, "viewport": {"northeast": {"lat": 53.12207727989272, "lng": 18.00325377989272}, "southwest": {"lat": 53.11937762010728, "lng": 18.00055412010727}}}, "icon": "https://maps.gstatic.com/mapfiles/place_api/icons/v1/png_71/restaurant-71.png", "icon_background_color": "#FF9E67", "icon_mask_base_uri": "https://maps.gstatic.com/mapfiles/place_api/icons/v2/restaurant_pinlet", "name": "Lulu Bistro", "opening_hours": {"open_now": true}, "photos": [{"height": 4032, "html_attributions": ["<a href=\"https://maps.google.com/maps/contrib/112556682694144410915\">A Google User</a>"], "photo_reference": "AUGGfZn3yt7GlQCHxHIbyzu3vdCTZqMgIVcWJFtp4I05sNh3nkwfzlaAvaj1XtwHqzkglHm-ueN-9Vr5WWkEvjYR7CT8AYLX-37r2aDsGN2Q-Rs0n1ecdox4FO2WfpIbJzjN57W07ArOHwygYqH6j9Ye2YEY1d54GFk2tOjfu-Px6_H06z9B", "width": 3024}], "place_id": "ChIJ8V_001ATA0cR-jrblfe0Eto", "plus_code": {"compound_code": "42C2+8Q Bydgoszcz, Poland", "global_code": "9F5W42C2+8Q"}, "price_level": 2, "rating": 4.6, "reference": "ChIJ8V_001ATA0cR-jrblfe0Eto", "scope": "GOOGLE", "types": ["restaurant", "food", "point_of_interest", "establishment"], "user_ratings_total": 563, "vicinity": "D\u0142uga 57, Bydgoszcz"}, {"business_status": "OPERATIONAL", "geometry": {"location": {"lat": 53.1324129, "lng": 17.994201}, "viewport": {"northeast": {"lat": 53.13367812989272, "lng": 17.99571002989272}, "southwest": {"lat": 53.13097847010727, "lng": 17.99301037010728}}}, "icon": "https://maps.gstatic.com/mapfiles/place_api/icons/v1/png_71/bar-71.png", "icon_background_color": "#FF9E67", "icon_mask_base_uri": "https://maps.gstatic.com/mapfiles/place_api/icons/v2/bar_pinlet", "name": "Bar Dworcowy", "opening_hours": {"open_now": true}, "photos": [{"height": 3024, "html_attributions": ["<a href=\"https://maps.google.com/maps/contrib/104845154531682914032\">A Google User</a>"], "photo_reference": "AUGGfZmjl-IrVaR-6mHmgung57Qk7KlGPoUDo7YwnIZJAbElymt6bVOITicUTzDFGEh87NV_2778hGR-8gV2AkfvJ-q5rkSIC2I82SXkd8bRutUpise83IHgoeK-s4BtbIaHMz-iD2KMtqVIWJ4YT5Jrifb5maLN7bC_maDjsQdFLNBOW0f6", "width": 4032}], "place_id": "ChIJzdSrt8kTA0cRXKJwkeRgO6Y", "plus_code": {"compound_code": "4XJV+XM Bydgoszcz, Poland", "global_code": "9F5V4XJV+XM"}, "price_level": 1, "rating": 4.4, "reference": "ChIJzdSrt8kTA0cRXKJwkeRgO6Y", "scope": "GOOGLE", "types": ["bar", "restaurant", "food", "point_of_interest", "establishment"], "user_ratings_total": 1040, "vicinity": "Dworcowa 75, Bydgoszcz"}]