[{"business_status": "OPERATIONAL", "geometry": {"location": {"lat": 52.0589299, "lng": -9.509356700000001}, "viewport": {"northeast": {"lat": 52.06029472989272, "lng": -9.507949570107279}, "southwest": {"lat": 52.05759507010728, "lng": -9.510649229892723}}}, "icon": "https://maps.gstatic.com/mapfiles/place_api/icons/v1/png_71/bar-71.png", "icon_background_color": "#FF9E67", "icon_mask_base_uri": "https://maps.gstatic.com/mapfiles/place_api/icons/v2/bar_pinlet", "name": "J.M. Reidy's", "opening_hours": {"open_now": true}, "photos": [{"height": 2252, "html_attributions": ["<a href=\"https://maps.google.com/maps/contrib/109033626241972653664\">Patrick Moest</a>"], "photo_reference": "AUc7tXXuy2q8vvf69aFOtgJ1jXkPZkrHC70ahqPfSZU27KWf9_PlTxGJm-zrrTr7dFD9ckTnL0YZNRHWaKmvYYMnCansdwePjLRs9s-cVXDkDHdmr8ZP-u4Lmx-1BGh-BEBxzVQKaam10VwCnNbx5OzVviQJsUGYis0BqF8Kp9ya9X2c1Zrs", "width": 4000}], "place_id": "ChIJASxNlQg8RUgR0xGje-EsXl8", "plus_code": {"compound_code": "3F5R+H7 Killarney, County Kerry, Ireland", "global_code": "9C4G3F5R+H7"}, "price_level": 2, "rating": 4.7, "reference": "ChIJASxNlQg8RUgR0xGje-EsXl8", "scope": "GOOGLE", "types": ["cafe", "bar", "restaurant", "food", "point_of_interest", "establishment"], "user_ratings_total": 2469, "vicinity": "4 Main St, Killarney"}, {"business_status": "OPERATIONAL", "geometry": {"location": {"lat": 52.0597909, "lng": -9.5096069}, "viewport": {"northeast": {"lat": 52.06117572989272, "lng": -9.508317420107279}, "southwest": {"lat": 52.05847607010728, "lng": -9.511017079892722}}}, "icon": "https://maps.gstatic.com/mapfiles/place_api/icons/v1/png_71/bar-71.png", "icon_background_color": "#FF9E67", "icon_mask_base_uri": "https://maps.gstatic.com/mapfiles/place_api/icons/v2/bar_pinlet", "name": "O'Connors Traditional Pub", "opening_hours": {"open_now": true}, "photos": [{"height": 4624, "html_attributions": ["<a href=\"https://maps.google.com/maps/contrib/108712255995888003442\">Petra Albers van der Linden</a>"], "photo_reference": "AUc7tXUTmY8i2WQpt6KfZ4p3xYNsTzqo9MZ4i1BXFjIqh0BvDs7FAZ-PRXcxYWd810Z51d5BQbwcjeJj1lMTaIxSTVRk1A-mrVr7aXcki-XS__GDuAOIW93NT4TZIjURztYKNDc8s-H2R3asd9rxb9ZEqt3z3AFajr_y0rGPdCpJ-fq63vWw", "width": 3468}], "place_id": "ChIJBXd-9Ag8RUgRJf32otzfRjE", "plus_code": {"compound_code": "3F5R+W5 Killarney, County Kerry, Ireland", "global_code": "9C4G3F5R+W5"}, "price_level": 2, "rating": 4.6, "reference": "ChIJBXd-9Ag8RUgRJf32otzfRjE", "scope": "GOOGLE", "types": ["cafe", "bar", "restaurant", "food", "point_of_interest", "establishment"], "user_ratings_total": 1019, "vicinity": "7 High Street, Killarney"}, {"business_status": "OPERATIONAL", "geometry": {"location": {"lat": 52.0593845, "lng": -9.506236800000002}, "viewport": {"northeast": {"lat": 52.06076267989272, "lng": -9.505018320107279}, "southwest": {"lat": 52.05806302010728, "lng": -9.507717979892723}}}, "icon": "https://maps.gstatic.com/mapfiles/place_api/icons/v1/png_71/bar-71.png", "icon_background_color": "#FF9E67", "icon_mask_base_uri": "https://maps.gstatic.com/mapfiles/place_api/icons/v2/bar_pinlet", "name": "Murphys Bar, Restaurant & Townhouse Killarney", "opening_hours": {"open_now": true}, "photos": [{"height": 3000, "html_attributions": ["<a href=\"https://maps.google.com/maps/contrib/105680967906859164058\">Michal S</a>"], "photo_reference": "AUc7tXXogZIXUtovKVM8FfgcUZLGQ-u713DBqsyWjRf179camj7WyJBNWzrJMGrUya8NDbYEQ9s5pQ023Fa_fQ37O0sEHSiF8-_SDhRzN7MBb1coS16gElUUpwA9YqtCAnQCylUPvBLG9KHbrQI8r-aXkhg7ebbDlu2PJ-lNCr7RPykRtErU", "width": 4000}], "place_id": "ChIJE6TtEgk8RUgRDI_oR3nbrw8", "plus_code": {"compound_code": "3F5V+QF Killarney, County Kerry, Ireland", "global_code": "9C4G3F5V+QF"}, "price_level": 2, "rating": 4.5, "reference": "ChIJE6TtEgk8RUgRDI_oR3nbrw8", "scope": "GOOGLE", "types": ["bar", "restaurant", "food", "point_of_interest", "establishment"], "user_ratings_total": 2148, "vicinity": "18 College St, Killarney"}, {"business_status": "OPERATIONAL", "geometry": {"location": {"lat": 52.0601888, "lng": -9.5098188}, "viewport": {"northeast": {"lat": 52.06152837989272, "lng": -9.508525070107277}, "southwest": {"lat": 52.05882872010728, "lng": -9.51122472989272}}}, "icon": "https://maps.gstatic.com/mapfiles/place_api/icons/v1/png_71/bar-71.png", "icon_background_color": "#FF9E67", "icon_mask_base_uri": "https://maps.gstatic.com/mapfiles/place_api/icons/v2/bar_pinlet", "name": "Speakeasy Bar", "opening_hours": {"open_now": true}, "photos": [{"height": 1960, "html_attributions": ["<a href=\"https://maps.google.com/maps/contrib/101039945257995487033\">Billy O&#39;Meara</a>"], "photo_reference": "AUc7tXXjULA8CStbfGdWxkR-reLJntClkuIavkaibm-YzFf6TNM_OyTKX923dE9aAFL_dApOFYxEV-oJNqc8-7m2fyvJ1WOieJkFGwhUHd3BGm95GdTXHZ3swgvyROlZhvev7qlA8II8T_I7kGu5I4jKmnz6ZB78tDPnmonfXyIZMRRrtls8", "width": 4032}], "place_id": "ChIJaVnbXwg8RUgRWQVkD37fSYw", "plus_code": {"compound_code": "3F6R+33 Killarney, County Kerry, Ireland", "global_code": "9C4G3F6R+33"}, "rating": 4.5, "reference": "ChIJaVnbXwg8RUgRWQVkD37fSYw", "scope": "GOOGLE", "types": ["bar", "restaurant", "food", "point_of_interest", "establishment"], "user_ratings_total": 344, "vicinity": "14 High Street, Killarney"}, {"business_status": "OPERATIONAL", "geometry": {"location": {"lat": 52.0579526, "lng": -9.507354699999999}, "viewport": {"northeast": {"lat": 52.05924177989273, "lng": -9.506149720107278}, "southwest": {"lat": 52.05654212010728, "lng": -9.508849379892721}}}, "icon": "https://maps.gstatic.com/mapfiles/place_api/icons/v1/png_71/restaurant-71.png", "icon_background_color": "#FF9E67", "icon_mask_base_uri": "https://maps.gstatic.com/mapfiles/place_api/icons/v2/restaurant_pinlet", "name": "Hannigans Bar, Restaurant & Terrace", "opening_hours": {"open_now": true}, "photos": [{"height": 2268, "html_attributions": ["<a href=\"https://maps.google.com/maps/contrib/114403423012246326526\">barforough.marie</a>"], "photo_reference": "AUc7tXUJ_3VZNJsd4Z2T_oXxZZHmQv6v8XaLhN22TCRoAZfV3AxsfngwRJIPxLuOum84zRZob2_pX6l-6Va3t68XoZ6uz6xt8CzKg0HT-Xds-i3LTzQG36KlB9d0nLJhfhUKFljLH6uszMBnrbt7Nk_1lhjXxBj6mTS_MDapZ4CZG5baE7yF", "width": 4032}], "place_id": "ChIJ4R6xzQg8RUgR_1gmUhcmtXU", "plus_code": {"compound_code": "3F5V+53 Killarney, County Kerry, Ireland", "global_code": "9C4G3F5V+53"}, "price_level": 2, "rating": 4.6, "reference": "ChIJ4R6xzQg8RUgR_1gmUhcmtXU", "scope": "GOOGLE", "types": ["restaurant", "bar", "food", "point_of_interest", "establishment"], "user_ratings_total": 787, "vicinity": "Kenmare Pl, Killarney"}, {"business_status": "OPERATIONAL", "geometry": {"location": {"lat": 52.0580733, "lng": -9.507803}, "viewport": {"northeast": {"lat": 52.05943367989272, "lng": -9.506132470107277}, "southwest": {"lat": 52.05673402010728, "lng": -9.50883212989272}}}, "icon": "https://maps.gstatic.com/mapfiles/place_api/icons/v1/png_71/restaurant-71.png", "icon_background_color": "#FF9E67", "icon_mask_base_uri": "https://maps.gstatic.com/mapfiles/place_api/icons/v2/restaurant_pinlet", "name": "The Lane (Fun Food & Awesome Cocktails)", "opening_hours": {"open_now": true}, "photos": [{"height": 3072, "html_attributions": ["<a href=\"https://maps.google.com/maps/contrib/102457836280327636503\">\u0410\u043d\u0434\u0440\u0435\u0439 \u041b\u0438\u0442\u0435\u0440\u0430\u0442\u0438</a>"], "photo_reference": "AUc7tXVQLgDcA3Qg2NAfDnkzDPy90P3crONzdQChkr6MtKCV7Y7Ovxd4HkibIrShy0FS5BKoa9mc5Aaf9rq9ouNWineNrPXtSX-7MHcT2sVugwa6brKzyO3rrH8V2-m6DX3u2U_20knWmG6mhJwLP6iLkRsD4BQF8VxL9tAPOYn46gL-yakA", "width": 4080}], "place_id": "ChIJ2RmvCmQ9RUgRL0ALZknIBV4", "plus_code": {"compound_code": "3F5R+6V Killarney, County Kerry, Ireland", "global_code": "9C4G3F5R+6V"}, "price_level": 2, "rating": 4.6, "reference": "ChIJ2RmvCmQ9RUgRL0ALZknIBV4", "scope": "GOOGLE", "types": ["restaurant", "bar", "food", "point_of_interest", "establishment"], "user_ratings_total": 198, "vicinity": "2 Brewery Ln, Killarney"}, {"business_status": "OPERATIONAL", "geometry": {"location": {"lat": 52.0601346, "lng": -9.5063485}, "viewport": {"northeast": {"lat": 52.06148297989272, "lng": -9.504900820107279}, "southwest": {"lat": 52.05878332010728, "lng": -9.507600479892723}}}, "icon": "https://maps.gstatic.com/mapfiles/place_api/icons/v1/png_71/bar-71.png", "icon_background_color": "#FF9E67", "icon_mask_base_uri": "https://maps.gstatic.com/mapfiles/place_api/icons/v2/bar_pinlet", "name": "The Shire Bar & Cafe", "opening_hours": {"open_now": true}, "photos": [{"height": 2000, "html_attributions": ["<a href=\"https://maps.google.com/maps/contrib/110980678389882439887\">The Shire Bar Killarney</a>"], "photo_reference": "AUc7tXVE9QBC4cetbRwNBOJpKT93Jixf1hAAmVaQwlea7OeUVTHw76px-S82H0ybrvp4Jm0Zm2mF1CBM2Jts4ULa-GAVPxofnGNrU3njGo-9c0Vs2VKqYOIr34CS9-4BTh6drsc2VMU7PlLl-9uixS4fXqqPZxt7hCCiB0inVyLSlYh9CKQE", "width": 3000}], "place_id": "ChIJAYlWCwk8RUgRRAdUKFrBGOk", "plus_code": {"compound_code": "3F6V+3F Killarney, County Kerry, Ireland", "global_code": "9C4G3F6V+3F"}, "price_level": 2, "rating": 4.3, "reference": "ChIJAYlWCwk8RUgRRAdUKFrBGOk", "scope": "GOOGLE", "types": ["cafe", "bar", "restaurant", "food", "store", "point_of_interest", "establishment"], "user_ratings_total": 1792, "vicinity": "Michael Collins Place, Lewis Rd, Killarney"}, {"business_status": "OPERATIONAL", "geometry": {"location": {"lat": 52.059311, "lng": -9.5092938}, "viewport": {"northeast": {"lat": 52.06061227989272, "lng": -9.507978570107278}, "southwest": {"lat": 52.05791262010727, "lng": -9.510678229892722}}}, "icon": "https://maps.gstatic.com/mapfiles/place_api/icons/v1/png_71/bar-71.png", "icon_background_color": "#FF9E67", "icon_mask_base_uri": "https://maps.gstatic.com/mapfiles/place_api/icons/v2/bar_pinlet", "name": "The Laurels Pub & Restaurant", "opening_hours": {"open_now": false}, "photos": [{"height": 3468, "html_attributions": ["<a href=\"https://maps.google.com/maps/contrib/103485092146034647331\">Ajit Karve</a>"], "photo_reference": "AUc7tXX5rvGtmZ6Dp330J6oH6B45VNnZr2nGFtdCGTSMPlckke3JegBSLHKthuju2mq07ecmemzBS2M8vuvwE4wX-9zIDpNWrdCZXMMKE2NB4h7cS7czAfJ76cOo4amekWaK1NuLHgyxN5MigT6rMAKNoOM3Ko-U5a-SlPdbuWg5E15NFq4d", "width": 4624}], "place_id": "ChIJxTpb7Ag8RUgR0qJcjnYH4oo", "plus_code": {"compound_code": "3F5R+P8 Killarney, County Kerry, Ireland", "global_code": "9C4G3F5R+P8"}, "price_level": 2, "rating": 4.5, "reference": "ChIJxTpb7Ag8RUgR0qJcjnYH4oo", "scope": "GOOGLE", "types": ["bar", "restaurant", "food", "point_of_interest", "establishment"], "user_ratings_total": 2118, "vicinity": "Main St, Killarney"}, {"business_status": "OPERATIONAL", "geometry": {"location": {"lat": 52.0588141, "lng": -9.510646}, "viewport": {"northeast": {"lat": 52.06026942989272, "lng": -9.50934122010728}, "southwest": {"lat": 52.05756977010728, "lng": -9.512040879892723}}}, "icon": "https://maps.gstatic.com/mapfiles/place_api/icons/v1/png_71/bar-71.png", "icon_background_color": "#FF9E67", "icon_mask_base_uri": "https://maps.gstatic.com/mapfiles/place_api/icons/v2/bar_pinlet", "name": "Danny Mann Pub", "opening_hours": {"open_now": false}, "photos": [{"height": 3096, "html_attributions": ["<a href=\"https://maps.google.com/maps/contrib/106614755074988531486\">Jean-Michel DOLLET</a>"], "photo_reference": "AUc7tXVMYw6f13uLxpyX8tde3gkHrE_GrVshD_qWzT9coSrMvzhy3dDaf14_Dd3VotDKmIXkoBJM4i6bqS4I7-bXpTaXxLpPfaDtyPOIiR10EfIeBSDwMA5AKDSqRgNlfIkFuRwZ6w1srkonReCW8eBUumWdv3_O1D2KJQfgBiQv263RQVk", "width": 5504}], "place_id": "ChIJCzFqmQg8RUgRlubl2bM8Urk", "plus_code": {"compound_code": "3F5Q+GP Killarney, County Kerry, Ireland", "global_code": "9C4G3F5Q+GP"}, "price_level": 2, "rating": 4.2, "reference": "ChIJCzFqmQg8RUgRlubl2bM8Urk", "scope": "GOOGLE", "types": ["bar", "restaurant", "food", "point_of_interest", "establishment"], "user_ratings_total": 1295, "vicinity": "97-99 New St, Killarney"}, {"business_status": "OPERATIONAL", "geometry": {"location": {"lat": 52.0586609, "lng": -9.5072032}, "viewport": {"northeast": {"lat": 52.06008612989272, "lng": -9.505879770107278}, "southwest": {"lat": 52.05738647010728, "lng": -9.508579429892722}}}, "icon": "https://maps.gstatic.com/mapfiles/place_api/icons/v1/png_71/bar-71.png", "icon_background_color": "#FF9E67", "icon_mask_base_uri": "https://maps.gstatic.com/mapfiles/place_api/icons/v2/bar_pinlet", "name": "O'Donoghue Public House", "opening_hours": {"open_now": false}, "photos": [{"height": 1815, "html_attributions": ["<a href=\"https://maps.google.com/maps/contrib/108103008862832818828\">Nik Hall</a>"], "photo_reference": "AUc7tXUMuPpAUvItT8Wqex1H5zIgBVIz3Sbcpicvd_Cww1bpQSsvbcUvMtLjhwz-Ull48dCnC3rD271rDvK-5OHg6pKRV2TOxEMue8yEhB9KmR9Qjqxghjmdf00NPJvXqLKujU6zyQGsBRfchdLfKfC_R35TnrE3pBjlwNNzc6D4guIDZHAI", "width": 3562}], "place_id": "ChIJcyy0Iwk8RUgRlM8QkTckt_k", "plus_code": {"compound_code": "3F5V+F4 Killarney, County Kerry, Ireland", "global_code": "9C4G3F5V+F4"}, "price_level": 2, "rating": 4.5, "reference": "ChIJcyy0Iwk8RUgRlM8QkTckt_k", "scope": "GOOGLE", "types": ["bar", "restaurant", "food", "point_of_interest", "establishment"], "user_ratings_total": 727, "vicinity": "No 76, O'Donoghue Public House, College St, Killarney"}, {"business_status": "OPERATIONAL", "geometry": {"location": {"lat": 52.0593162, "lng": -9.5062996}, "viewport": {"northeast": {"lat": 52.06072022989272, "lng": -9.505080920107279}, "southwest": {"lat": 52.05802057010727, "lng": -9.507780579892723}}}, "icon": "https://maps.gstatic.com/mapfiles/place_api/icons/v1/png_71/bar-71.png", "icon_background_color": "#FF9E67", "icon_mask_base_uri": "https://maps.gstatic.com/mapfiles/place_api/icons/v2/bar_pinlet", "name": "Scotts Bar & Courtyard", "opening_hours": {"open_now": false}, "photos": [{"height": 3364, "html_attributions": ["<a href=\"https://maps.google.com/maps/contrib/107760340633224803424\">A Google User</a>"], "photo_reference": "AUc7tXVn4gj1p6ZhXc19C_WQdAMFJ1ykHWomIG8RounyP_cLX85CXg8uN_ZqALILxOicmCJu6yTejPDhlFVI6wnWWUZwXrV53ShDDW0bxDPsmNHVRtOyWXsvZTPGTAOmCYKkGnQndzu1BJ14sqke5ESkxsGQpXSMy4lcif5pTNEz28ofv6cp", "width": 6016}], "place_id": "ChIJPyNuUgI9RUgRzjPfhFQSNEY", "plus_code": {"compound_code": "3F5V+PF Killarney, County Kerry, Ireland", "global_code": "9C4G3F5V+PF"}, "price_level": 2, "rating": 4.3, "reference": "ChIJPyNuUgI9RUgRzjPfhFQSNEY", "scope": "GOOGLE", "types": ["bar", "restaurant", "food", "point_of_interest", "establishment"], "user_ratings_total": 466, "vicinity": "6 Scotts St, Killarney"}, {"business_status": "OPERATIONAL", "geometry": {"location": {"lat": 52.0607453, "lng": -9.510408}, "viewport": {"northeast": {"lat": 52.06210497989272, "lng": -9.509010870107277}, "southwest": {"lat": 52.05940532010728, "lng": -9.51171052989272}}}, "icon": "https://maps.gstatic.com/mapfiles/place_api/icons/v1/png_71/bar-71.png", "icon_background_color": "#FF9E67", "icon_mask_base_uri": "https://maps.gstatic.com/mapfiles/place_api/icons/v2/bar_pinlet", "name": "Jack C's Bar", "opening_hours": {"open_now": false}, "photos": [{"height": 2460, "html_attributions": ["<a href=\"https://maps.google.com/maps/contrib/101046720627823525244\">JC O&#39;Shea</a>"], "photo_reference": "AUc7tXVctzd0KTMBNhusCXnm_4klTarbBVsM6lwlwa9SotO9K5F1HD_tq-DHqPFKaXKI3mh8-LaJUEBSejh29EoxgjMNKALdOzGJDsoVU-3txbpnrSCV96tTQKQJCSD6vFXwMmqLiApB7ZMwAMbGqBGGj_4YUzpFpKH83Znpq9zhtmCQE5xt", "width": 3280}], "place_id": "ChIJkwUeaAg8RUgRDBqtMVBHtc4", "plus_code": {"compound_code": "3F6Q+7R Killarney, County Kerry, Ireland", "global_code": "9C4G3F6Q+7R"}, "price_level": 1, "rating": 4.8, "reference": "ChIJkwUeaAg8RUgRDBqtMVBHtc4", "scope": "GOOGLE", "types": ["bar", "restaurant", "food", "point_of_interest", "establishment"], "user_ratings_total": 142, "vicinity": "51 High Street, Killarney"}, {"business_status": "OPERATIONAL", "geometry": {"location": {"lat": 52.0600162, "lng": -9.5059221}, "viewport": {"northeast": {"lat": 52.06129037989272, "lng": -9.504516070107277}, "southwest": {"lat": 52.05859072010728, "lng": -9.507215729892721}}}, "icon": "https://maps.gstatic.com/mapfiles/place_api/icons/v1/png_71/restaurant-71.png", "icon_background_color": "#FF9E67", "icon_mask_base_uri": "https://maps.gstatic.com/mapfiles/place_api/icons/v2/restaurant_pinlet", "name": "McSweeney Arms Hotel", "photos": [{"height": 1365, "html_attributions": ["<a href=\"https://maps.google.com/maps/contrib/112457921978864036749\">McSweeney Arms Hotel</a>"], "photo_reference": "AUc7tXU2aSPdjDGcapp6BA--T1OYDz2spLNDD4dk3p3sJWdhyNcRNsnpsabFH_AbnNqi95VYzd8LC7n_sfeQUj3EU93N7_yb2V5t8J3J0geUIra5Ai3BGLQ6SwNA_aWxkI0UPAVF7Fa-o6c5a9G94vdC9PDq9QE4gsG2zRJD2JtAPPJeFGH0", "width": 2048}], "place_id": "ChIJ3QIgFwk8RUgRk_3QTmd23AQ", "plus_code": {"compound_code": "3F6V+2J Killarney, County Kerry, Ireland", "global_code": "9C4G3F6V+2J"}, "rating": 4.7, "reference": "ChIJ3QIgFwk8RUgRk_3QTmd23AQ", "scope": "GOOGLE", "types": ["restaurant", "bar", "lodging", "food", "point_of_interest", "establishment"], "user_ratings_total": 490, "vicinity": "College St, Killarney"}, {"business_status": "OPERATIONAL", "geometry": {"location": {"lat": 52.0584303, "lng": -9.5085484}, "viewport": {"northeast": {"lat": 52.05982942989272, "lng": -9.507224970107279}, "southwest": {"lat": 52.05712977010728, "lng": -9.509924629892723}}}, "icon": "https://maps.gstatic.com/mapfiles/place_api/icons/v1/png_71/lodging-71.png", "icon_background_color": "#909CE1", "icon_mask_base_uri": "https://maps.gstatic.com/mapfiles/place_api/icons/v2/hotel_pinlet", "name": "Tatler Jack", "opening_hours": {"open_now": false}, "photos": [{"height": 2448, "html_attributions": ["<a href=\"https://maps.google.com/maps/contrib/111484716485231561171\">A Google User</a>"], "photo_reference": "AUc7tXXgRFBS9Y7SZ3OTTszGNSNZuKZpuIuFFQikd3IIk5vyjr_5lciWR64IGcQ6IVs1pn4CeQq_DJ7ipqmp_YD5tM2JBRR5eWKDlpvnC6hvEfokS8Xuoa949QfjT5RwMr4nm95vIkF9KAX5ZaFPik7sas-XFuYbDkNs3LOJi_Bk_kIq8d8j", "width": 3264}], "place_id": "ChIJExQSCQw8RUgREfLpR5lxUGE", "plus_code": {"compound_code": "3F5R+9H Killarney, County Kerry, Ireland", "global_code": "9C4G3F5R+9H"}, "rating": 4.3, "reference": "ChIJExQSCQw8RUgREfLpR5lxUGE", "scope": "GOOGLE", "types": ["bar", "lodging", "restaurant", "food", "point_of_interest", "establishment"], "user_ratings_total": 1222, "vicinity": "28-29 Plunkett St, Killarney"}, {"business_status": "OPERATIONAL", "geometry": {"location": {"lat": 52.05308910000001, "lng": -9.5065221}, "viewport": {"northeast": {"lat": 52.05443467989272, "lng": -9.505360070107278}, "southwest": {"lat": 52.05173502010728, "lng": -9.508059729892722}}}, "icon": "https://maps.gstatic.com/mapfiles/place_api/icons/v1/png_71/restaurant-71.png", "icon_background_color": "#FF9E67", "icon_mask_base_uri": "https://maps.gstatic.com/mapfiles/place_api/icons/v2/restaurant_pinlet", "name": "Kayne's Bar & Brasserie", "opening_hours": {"open_now": true}, "photos": [{"height": 1367, "html_attributions": ["<a href=\"https://maps.google.com/maps/contrib/112885543744683792548\">A Google User</a>"], "photo_reference": "AUc7tXVDvu2QPebNWGXNcekUhcsptWg6OzlKviIHbckA1L8ZX46SYUTH8sn3_RghqDzian8rHYBfraAQ4740Fg5XFzJBTbeB5OphKXebynfmfESBUFu3duJxMZzEbu-oA7-Dt7kV4cNxgVJALNU2dwdXXlpgSKsTI8IxDd2sesXrX6uqzCQ", "width": 2048}], "place_id": "ChIJC6sWzg88RUgReY79pRTMCW8", "plus_code": {"compound_code": "3F3V+69 Killarney, County Kerry, Ireland", "global_code": "9C4G3F3V+69"}, "price_level": 2, "rating": 4.4, "reference": "ChIJC6sWzg88RUgReY79pRTMCW8", "scope": "GOOGLE", "types": ["restaurant", "bar", "food", "point_of_interest", "establishment"], "user_ratings_total": 469, "vicinity": "Muckross Rd, Dromhale, Killarney"}, {"business_status": "OPERATIONAL", "geometry": {"location": {"lat": 52.0589622, "lng": -9.510786399999999}, "viewport": {"northeast": {"lat": 52.06033612989272, "lng": -9.509530770107276}, "southwest": {"lat": 52.05763647010728, "lng": -9.51223042989272}}}, "icon": "https://maps.gstatic.com/mapfiles/place_api/icons/v1/png_71/lodging-71.png", "icon_background_color": "#909CE1", "icon_mask_base_uri": "https://maps.gstatic.com/mapfiles/place_api/icons/v2/hotel_pinlet", "name": "Eviston House Hotel", "photos": [{"height": 654, "html_attributions": ["<a href=\"https://maps.google.com/maps/contrib/114714466683962470427\">A Google User</a>"], "photo_reference": "AUc7tXV08Xr7i63aa7MbPwPRpGJSqlT7hVRE5oURZhaGB5Wor_PoX808kAVJISFbJvT0gG7VDymly55odf7BSvsbHYIhLk_huLQ_gz2BJC241wjwVLEB4hgEaGOBzO62UgMhOdEpwGTiZuX9aiB755q1Qk0nWGG9Ph81QpQcW-ZOnTIs1fq9", "width": 1024}], "place_id": "ChIJt7Iemgg8RUgRrfG1W2wjGWw", "plus_code": {"compound_code": "3F5Q+HM Killarney, County Kerry, Ireland", "global_code": "9C4G3F5Q+HM"}, "rating": 3.9, "reference": "ChIJt7Iemgg8RUgRrfG1W2wjGWw", "scope": "GOOGLE", "types": ["bar", "lodging", "restaurant", "food", "point_of_interest", "establishment"], "user_ratings_total": 651, "vicinity": "97 New St, Killarney"}, {"business_status": "OPERATIONAL", "geometry": {"location": {"lat": 52.05891279999999, "lng": -9.5111946}, "viewport": {"northeast": {"lat": 52.06027687989271, "lng": -9.509823520107277}, "southwest": {"lat": 52.05757722010727, "lng": -9.512523179892721}}}, "icon": "https://maps.gstatic.com/mapfiles/place_api/icons/v1/png_71/bar-71.png", "icon_background_color": "#FF9E67", "icon_mask_base_uri": "https://maps.gstatic.com/mapfiles/place_api/icons/v2/bar_pinlet", "name": "Celtic Whiskey Bar & Larder", "opening_hours": {"open_now": false}, "photos": [{"height": 3024, "html_attributions": ["<a href=\"https://maps.google.com/maps/contrib/109818545626232702927\">Seth Merritt</a>"], "photo_reference": "AUc7tXUTFpF5JQsLSx8Kmfc3k04oOaBEdCfvsk3lPWijX8VgLMiGRN2e_xOJ_xEh4MTWzRovpTn58rLIsYdyW5nIRPjVijZt7Nx4ACxVj5AuqFNLq0YTZ5S3vfelsIllYPCp6Ah_RYkDODgcnULgm1ztU1ZdO5YDJKetiRUDshYE_y1syhOu", "width": 4032}], "place_id": "ChIJg6MOIAY8RUgRMm6rp0l7Rh0", "plus_code": {"compound_code": "3F5Q+HG Killarney, County Kerry, Ireland", "global_code": "9C4G3F5Q+HG"}, "price_level": 2, "rating": 4.7, "reference": "ChIJg6MOIAY8RUgRMm6rp0l7Rh0", "scope": "GOOGLE", "types": ["bar", "restaurant", "food", "point_of_interest", "establishment"], "user_ratings_total": 921, "vicinity": "93 New St, Killarney"}, {"business_status": "OPERATIONAL", "geometry": {"location": {"lat": 52.0593185, "lng": -9.5067465}, "viewport": {"northeast": {"lat": 52.06067887989273, "lng": -9.505359770107278}, "southwest": {"lat": 52.05797922010728, "lng": -9.508059429892722}}}, "icon": "https://maps.gstatic.com/mapfiles/place_api/icons/v1/png_71/restaurant-71.png", "icon_background_color": "#FF9E67", "icon_mask_base_uri": "https://maps.gstatic.com/mapfiles/place_api/icons/v2/restaurant_pinlet", "name": "Failte Restaurant", "opening_hours": {"open_now": true}, "photos": [{"height": 3314, "html_attributions": ["<a href=\"https://maps.google.com/maps/contrib/113508591476304339352\">A Google User</a>"], "photo_reference": "AUc7tXV3CbNjTzV3Jc5xmiG29DHU6hLxFslpavip7B6D3DtBMtkELnLwus9ceIeyE6TwrncL3FtskNnPLkmC7FGC9Tk23vPcETnFNWxvNkiXbT6S3uVCUwfsZi1ficUZncuTBTshjBrOwI80ohoBZlGBusH6HvocmQt8OQ-GssUYRloM9l2U", "width": 6016}], "place_id": "ChIJCelKFwk8RUgR_xgi5M4GuD8", "plus_code": {"compound_code": "3F5V+P8 Killarney, County Kerry, Ireland", "global_code": "9C4G3F5V+P8"}, "rating": 4.4, "reference": "ChIJCelKFwk8RUgR_xgi5M4GuD8", "scope": "GOOGLE", "types": ["restaurant", "food", "point_of_interest", "establishment"], "user_ratings_total": 142, "vicinity": "33 College St, Killarney"}, {"business_status": "OPERATIONAL", "geometry": {"location": {"lat": 52.05845679999999, "lng": -9.5082807}, "viewport": {"northeast": {"lat": 52.05986837989271, "lng": -9.506963920107278}, "southwest": {"lat": 52.05716872010727, "lng": -9.509663579892722}}}, "icon": "https://maps.gstatic.com/mapfiles/place_api/icons/v1/png_71/restaurant-71.png", "icon_background_color": "#FF9E67", "icon_mask_base_uri": "https://maps.gstatic.com/mapfiles/place_api/icons/v2/restaurant_pinlet", "name": "Porterhouse Restaurant", "opening_hours": {"open_now": false}, "photos": [{"height": 3648, "html_attributions": ["<a href=\"https://maps.google.com/maps/contrib/108064570796610585088\">Matias Melo</a>"], "photo_reference": "AUc7tXV_lHnOz5aHxoJA78soiri72eaqmf1wI9rCpT48sQe988z6ICIXI5u7aTKEDuX-GbZuZDwCi4a1cl-aPmHipIvbhVM4YshE6q6PvIcBkQ2g51kdj6cm4-3Vjt5XvBtGKNmtI8wy0ymxIoGs4klInwBdbWFZwo-PED8KCY967uMvM1k3", "width": 2736}], "place_id": "ChIJiSxn2wg8RUgR1G1rc-xobOM", "plus_code": {"compound_code": "3F5R+9M Killarney, County Kerry, Ireland", "global_code": "9C4G3F5R+9M"}, "price_level": 2, "rating": 4.5, "reference": "ChIJiSxn2wg8RUgR1G1rc-xobOM", "scope": "GOOGLE", "types": ["restaurant", "food", "point_of_interest", "establishment"], "user_ratings_total": 1303, "vicinity": "26 Plunkett St, Killarney"}, {"business_status": "OPERATIONAL", "geometry": {"location": {"lat": 52.05431919999999, "lng": -9.5071056}, "viewport": {"northeast": {"lat": 52.05567092989272, "lng": -9.505704620107279}, "southwest": {"lat": 52.05297127010728, "lng": -9.508404279892723}}}, "icon": "https://maps.gstatic.com/mapfiles/place_api/icons/v1/png_71/generic_business-71.png", "icon_background_color": "#7B9EB0", "icon_mask_base_uri": "https://maps.gstatic.com/mapfiles/place_api/icons/v2/generic_pinlet", "name": "The Taproom at Killarney Brewing & Distilling Co.", "opening_hours": {"open_now": false}, "photos": [{"height": 654, "html_attributions": ["<a href=\"https://maps.google.com/maps/contrib/108103008862832818828\">Nik Hall</a>"], "photo_reference": "AUc7tXUXUYYS1-Dg9lkvF-FOnZVZBT-n_Yiak583WHn_RXMYBljBeJpQZ2sb8cwdLRyk4KTF5xPfFMx0juvmHF1sfHpInXN2BhxKg_wabuy8ACQ7D6VhZyCDH2W-qhDw4Giyw-wPwlPxG2ofOi95tDRd53ZCig_VOzPlbYTsgpnEb0i1cMOL", "width": 1280}], "place_id": "ChIJYRJLpQ88RUgRuoskyifnEuI", "plus_code": {"compound_code": "3F3V+P5 Killarney, County Kerry, Ireland", "global_code": "9C4G3F3V+P5"}, "price_level": 2, "rating": 4.7, "reference": "ChIJYRJLpQ88RUgRuoskyifnEuI", "scope": "GOOGLE", "types": ["tourist_attraction", "bar", "restaurant", "food", "point_of_interest", "establishment"], "user_ratings_total": 1197, "vicinity": "Muckross Rd, Scrahane, Killarney"}, {"business_status": "OPERATIONAL", "geometry": {"location": {"lat": 52.05801, "lng": -9.5044901}, "viewport": {"northeast": {"lat": 52.05926132989272, "lng": -9.503304170107276}, "southwest": {"lat": 52.05656167010728, "lng": -9.50600382989272}}}, "icon": "https://maps.gstatic.com/mapfiles/place_api/icons/v1/png_71/restaurant-71.png", "icon_background_color": "#FF9E67", "icon_mask_base_uri": "https://maps.gstatic.com/mapfiles/place_api/icons/v2/restaurant_pinlet", "name": "The Garden Bar & Terrace", "opening_hours": {"open_now": false}, "photos": [{"height": 2723, "html_attributions": ["<a href=\"https://maps.google.com/maps/contrib/111145456892345385117\">Kaptain Kerr</a>"], "photo_reference": "AUc7tXUm-RKup2utfh2rAaftfEcrqjP9JeWD36denjHGXdh30nAlvsqer_4Dm7OQ4s7xx4M9LAwWsPOVm5f89g9tCFJM1cFHV2ftb_4_6JGnmGeK6sXZIjhm8kVCFo_DL9e5aDMw0JSmxMXLztOtfcNXibxza0RjyGojxiYEJfu_sJtGsBF-", "width": 3325}], "place_id": "ChIJc6tACpA9RUgRI3PCv0r_KYg", "plus_code": {"compound_code": "3F5W+46 Killarney, County Kerry, Ireland", "global_code": "9C4G3F5W+46"}, "rating": 4.2, "reference": "ChIJc6tACpA9RUgRI3PCv0r_KYg", "scope": "GOOGLE", "types": ["restaurant", "bar", "food", "point_of_interest", "establishment"], "user_ratings_total": 6, "vicinity": "Town Centre, East Ave, Dromhale, Killarney"}, {"business_status": "OPERATIONAL", "geometry": {"location": {"lat": 52.05905929999999, "lng": -9.5097607}, "viewport": {"northeast": {"lat": 52.06043557989271, "lng": -9.508409820107277}, "southwest": {"lat": 52.05773592010727, "lng": -9.51110947989272}}}, "icon": "https://maps.gstatic.com/mapfiles/place_api/icons/v1/png_71/restaurant-71.png", "icon_background_color": "#FF9E67", "icon_mask_base_uri": "https://maps.gstatic.com/mapfiles/place_api/icons/v2/restaurant_pinlet", "name": "Caragh Restaurant & Lounge Bar", "opening_hours": {"open_now": false}, "photos": [{"height": 3264, "html_attributions": ["<a href=\"https://maps.google.com/maps/contrib/110880578501932833868\">Ojegbenro Olamide Moyosore</a>"], "photo_reference": "AUc7tXV6nKEh1noe2AqY8WsyP65WE-HnidaaeUrLYkom18PGEIXL4jx4-G2lyhDzwfzYsN8RrE8cCwpxvLKmo8wxmE-AXnRHUWTD2CXuCJGvcK5hxQVaipQKlS3Efp5OnPYDUwCRda58nM30-baXXMvucGWSyxZgEpjUcm7CgHydnRgay5Rp", "width": 2448}], "place_id": "ChIJB8uKlAg8RUgROqXhMhLpeV8", "plus_code": {"compound_code": "3F5R+J3 Killarney, County Kerry, Ireland", "global_code": "9C4G3F5R+J3"}, "price_level": 1, "rating": 4.5, "reference": "ChIJB8uKlAg8RUgROqXhMhLpeV8", "scope": "GOOGLE", "types": ["restaurant", "food", "point_of_interest", "establishment"], "user_ratings_total": 875, "vicinity": "106 New St, Killarney"}, {"business_status": "OPERATIONAL", "geometry": {"location": {"lat": 52.05941550000001, "lng": -9.5066983}, "viewport": {"northeast": {"lat": 52.06072992989272, "lng": -9.505307220107278}, "southwest": {"lat": 52.05803027010728, "lng": -9.508006879892722}}}, "icon": "https://maps.gstatic.com/mapfiles/place_api/icons/v1/png_71/restaurant-71.png", "icon_background_color": "#FF9E67", "icon_mask_base_uri": "https://maps.gstatic.com/mapfiles/place_api/icons/v2/restaurant_pinlet", "name": "Cronins Restaurant", "opening_hours": {"open_now": false}, "photos": [{"height": 1080, "html_attributions": ["<a href=\"https://maps.google.com/maps/contrib/109733626706830087518\">Cronins Restaurant</a>"], "photo_reference": "AUc7tXV_ooU6s9Xo8lWP2vNdo-0nxQ6wfw4p5HH4CRlusHeo1kV3_Ta1mKNtV73TjQIG5nGicyQ3aUF7kjOvUXg6FQKFO8v7mGGpr5zBggLl4iBNc2-DcS6lscD5S8ajnJg-XRfLUbG6Zj9q-GzDGZa6qYoCVf-PbXeT-tJr71iugw1qL8DL", "width": 1620}], "place_id": "ChIJxdLJEgk8RUgRkuTdVLUsz3U", "plus_code": {"compound_code": "3F5V+Q8 Killarney, County Kerry, Ireland", "global_code": "9C4G3F5V+Q8"}, "price_level": 2, "rating": 4.7, "reference": "ChIJxdLJEgk8RUgRkuTdVLUsz3U", "scope": "GOOGLE", "types": ["restaurant", "food", "point_of_interest", "establishment"], "user_ratings_total": 1021, "vicinity": "College St, Killarney"}, {"business_status": "OPERATIONAL", "geometry": {"location": {"lat": 52.05984979999999, "lng": -9.5096366}, "viewport": {"northeast": {"lat": 52.06120497989271, "lng": -9.508344020107279}, "southwest": {"lat": 52.05850532010727, "lng": -9.511043679892722}}}, "icon": "https://maps.gstatic.com/mapfiles/place_api/icons/v1/png_71/restaurant-71.png", "icon_background_color": "#FF9E67", "icon_mask_base_uri": "https://maps.gstatic.com/mapfiles/place_api/icons/v2/restaurant_pinlet", "name": "Murphy Brownes", "opening_hours": {"open_now": false}, "photos": [{"height": 2448, "html_attributions": ["<a href=\"https://maps.google.com/maps/contrib/110880578501932833868\">Ojegbenro Olamide Moyosore</a>"], "photo_reference": "AUc7tXW8VR1dEFKFoJz3hPiTIw6j0asLX3Rm5M-XYPwycH62yU1_O8LprsLJxRm2rOQlhN-xKW1VUDqInEklJbR8-nqEGWIMZAA9UqTCK7ROM8Dxh2nqTAl0pDrErqK8jLxhlLj5vYgAISCjN01ZHoWJYOe6OeG2aX6zpVPZF2IOrQHHWNSF", "width": 3264}], "place_id": "ChIJn3gp2HM9RUgRL0E125rTDXg", "plus_code": {"compound_code": "3F5R+W4 Killarney, County Kerry, Ireland", "global_code": "9C4G3F5R+W4"}, "rating": 4.6, "reference": "ChIJn3gp2HM9RUgRL0E125rTDXg", "scope": "GOOGLE", "types": ["restaurant", "food", "point_of_interest", "establishment"], "user_ratings_total": 287, "vicinity": "8 High Street, Killarney"}, {"business_status": "OPERATIONAL", "geometry": {"location": {"lat": 52.0688215, "lng": -9.515661}, "viewport": {"northeast": {"lat": 52.07013637989272, "lng": -9.514502970107278}, "southwest": {"lat": 52.06743672010727, "lng": -9.517202629892722}}}, "icon": "https://maps.gstatic.com/mapfiles/place_api/icons/v1/png_71/restaurant-71.png", "icon_background_color": "#FF9E67", "icon_mask_base_uri": "https://maps.gstatic.com/mapfiles/place_api/icons/v2/restaurant_pinlet", "name": "Mc Gillicuddy's Carvery Lunch", "photos": [{"height": 4000, "html_attributions": ["<a href=\"https://maps.google.com/maps/contrib/105915489647649199847\">pawe\u0142 Piotrowski</a>"], "photo_reference": "AUc7tXWmrsgXWyjkASaKIgxmcS84XzIek9Y6nBQuhFx_6bICFWYSwXcCMK-qKjaDYzelYWw_j3tbbFZGDk_gQrCrSRqxpLOr1C95OEpuM6aHna7A-Xv1-PFh2SYw4MKb3l2nhlt9ikQ1MMMB5y9IzD1_aPTuumKSqMpOxn5mD995-a51SR4e", "width": 3000}], "place_id": "ChIJ70NhDfo7RUgRc3IgSForyXI", "plus_code": {"compound_code": "3F9M+GQ Killarney, County Kerry, Ireland", "global_code": "9C4G3F9M+GQ"}, "rating": 3.8, "reference": "ChIJ70NhDfo7RUgRc3IgSForyXI", "scope": "GOOGLE", "types": ["restaurant", "food", "point_of_interest", "establishment"], "user_ratings_total": 4, "vicinity": "Tralee Road, Ardnamweely, Killarney"}, {"business_status": "OPERATIONAL", "geometry": {"location": {"lat": 52.0610109, "lng": -9.510014199999999}, "viewport": {"northeast": {"lat": 52.06232437989272, "lng": -9.50883462010728}, "southwest": {"lat": 52.05962472010727, "lng": -9.511534279892723}}}, "icon": "https://maps.gstatic.com/mapfiles/place_api/icons/v1/png_71/restaurant-71.png", "icon_background_color": "#FF9E67", "icon_mask_base_uri": "https://maps.gstatic.com/mapfiles/place_api/icons/v2/restaurant_pinlet", "name": "Bric\u00edn Restaurant and Boxty House", "opening_hours": {"open_now": false}, "photos": [{"height": 3024, "html_attributions": ["<a href=\"https://maps.google.com/maps/contrib/101659732396918428263\">Daniel Davis</a>"], "photo_reference": "AUc7tXX9YrqKm-eQI14CczD-wXdR635_aaAV-n61tg5dFdGBBYIO5tvSrSb9f1hPoJvgbK9xoP7aXFusX1qY6TlMcwMQbW9NwXNBdmuGJZrZQH5G2B-2GmNNiiLZZHf2AgRON_A4qRcglmOY_2amQUMdDoeW71zR2EJyp6Mo1nWfyoAnLxqa", "width": 4032}], "place_id": "ChIJv4lBQgg8RUgRM5WzEkQmgE0", "plus_code": {"compound_code": "3F6Q+CX Killarney, County Kerry, Ireland", "global_code": "9C4G3F6Q+CX"}, "price_level": 2, "rating": 4.8, "reference": "ChIJv4lBQgg8RUgRM5WzEkQmgE0", "scope": "GOOGLE", "types": ["restaurant", "food", "point_of_interest", "establishment"], "user_ratings_total": 805, "vicinity": "26 High Street, Killarney"}, {"business_status": "OPERATIONAL", "geometry": {"location": {"lat": 52.0583852, "lng": -9.5091594}, "viewport": {"northeast": {"lat": 52.05970957989272, "lng": -9.507725820107279}, "southwest": {"lat": 52.05700992010728, "lng": -9.510425479892723}}}, "icon": "https://maps.gstatic.com/mapfiles/place_api/icons/v1/png_71/restaurant-71.png", "icon_background_color": "#FF9E67", "icon_mask_base_uri": "https://maps.gstatic.com/mapfiles/place_api/icons/v2/restaurant_pinlet", "name": "Flesk Bar & Restaurant", "opening_hours": {"open_now": false}, "photos": [{"height": 3251, "html_attributions": ["<a href=\"https://maps.google.com/maps/contrib/108647844726619762544\">Vanja Paji\u0107</a>"], "photo_reference": "AUc7tXUhtQXczih_J97mjSKzrSYgpfgPyt9UH-5DHxbxEO1Krnc6TFWGAnY3RC6PR5bcR1kYUhDzbTLFKAFLFUl4G1CflqcCn23jw9BcKF244HbBhliy3mQrAHu1lkhDyhVnSY2UfsenoFoht8i4HkIrQ5UlYwU--wxyFzCp8C70qI50WXc7", "width": 3000}], "place_id": "ChIJo5Hdxgg8RUgRxm1r4Ucy3a4", "plus_code": {"compound_code": "3F5R+99 Killarney, County Kerry, Ireland", "global_code": "9C4G3F5R+99"}, "price_level": 2, "rating": 4.3, "reference": "ChIJo5Hdxgg8RUgRxm1r4Ucy3a4", "scope": "GOOGLE", "types": ["restaurant", "food", "point_of_interest", "establishment"], "user_ratings_total": 406, "vicinity": "14 Main St, Killarney"}, {"business_status": "OPERATIONAL", "geometry": {"location": {"lat": 52.05732399999999, "lng": -9.506217099999999}, "viewport": {"northeast": {"lat": 52.05863822989272, "lng": -9.504912720107278}, "southwest": {"lat": 52.05593857010728, "lng": -9.507612379892722}}}, "icon": "https://maps.gstatic.com/mapfiles/place_api/icons/v1/png_71/lodging-71.png", "icon_background_color": "#909CE1", "icon_mask_base_uri": "https://maps.gstatic.com/mapfiles/place_api/icons/v2/hotel_pinlet", "name": "Killarney Avenue Hotel", "photos": [{"height": 481, "html_attributions": ["<a href=\"https://maps.google.com/maps/contrib/106708483448372387378\">Killarney Avenue Hotel</a>"], "photo_reference": "AUc7tXWlaVZIo75W1FnessQoLx_elQZSSc0pBi72uokOHhoTg-jLGznFKfRPTwJBQEfvpIRdw_XJxmWPl_l0EQIgN69BZF2SFSEZMWNJeKPjouwHQEOiGHNApfElOr9UphdNZHzCLFqCKCMynjzRcNjhDRbjFvevkww-WJbQ2WDDasRdFrbm", "width": 800}], "place_id": "ChIJE8ydzQ48RUgR9GSyuwjDMPU", "plus_code": {"compound_code": "3F4V+WG Killarney, County Kerry, Ireland", "global_code": "9C4G3F4V+WG"}, "rating": 4.6, "reference": "ChIJE8ydzQ48RUgR9GSyuwjDMPU", "scope": "GOOGLE", "types": ["lodging", "bar", "restaurant", "food", "point_of_interest", "establishment"], "user_ratings_total": 805, "vicinity": "Town Centre, Kenmare Place, Avenue, Killarney"}, {"business_status": "OPERATIONAL", "geometry": {"location": {"lat": 52.057893, "lng": -9.507648999999999}, "viewport": {"northeast": {"lat": 52.05921197989272, "lng": -9.506271920107277}, "southwest": {"lat": 52.05651232010728, "lng": -9.508971579892721}}}, "icon": "https://maps.gstatic.com/mapfiles/place_api/icons/v1/png_71/lodging-71.png", "icon_background_color": "#909CE1", "icon_mask_base_uri": "https://maps.gstatic.com/mapfiles/place_api/icons/v2/hotel_pinlet", "name": "The Ross", "opening_hours": {"open_now": true}, "photos": [{"height": 1868, "html_attributions": ["<a href=\"https://maps.google.com/maps/contrib/115146016393966298170\">Kimberly Tracy</a>"], "photo_reference": "AUc7tXU4dZHkGQdy6AyFvltoletkmLCS7mqk77IRpFxVEMvwRMnDyTFKjCJ8_V3pmVYaUnJKTwoYOYPHWWu55f8ypwcaoDEWAjRnDQkDUm_dORvhRPMdd6cYxkfCBQZCEqrsDmPe76cKzLzHIbxvrYHtQ6loehcXKDMrWcOxOYbYqkbncsZn", "width": 4000}], "place_id": "ChIJz2KcHAY8RUgRyoUCiR6P9GA", "plus_code": {"compound_code": "3F5R+5W Killarney, County Kerry, Ireland", "global_code": "9C4G3F5R+5W"}, "rating": 4.7, "reference": "ChIJz2KcHAY8RUgRyoUCiR6P9GA", "scope": "GOOGLE", "types": ["night_club", "lodging", "bar", "restaurant", "food", "point_of_interest", "establishment"], "user_ratings_total": 410, "vicinity": "East Ave, Killarney"}, {"business_status": "OPERATIONAL", "geometry": {"location": {"lat": 52.0587369, "lng": -9.5093747}, "viewport": {"northeast": {"lat": 52.06009862989272, "lng": -9.507941320107278}, "southwest": {"lat": 52.05739897010728, "lng": -9.510640979892722}}}, "icon": "https://maps.gstatic.com/mapfiles/place_api/icons/v1/png_71/restaurant-71.png", "icon_background_color": "#FF9E67", "icon_mask_base_uri": "https://maps.gstatic.com/mapfiles/place_api/icons/v2/restaurant_pinlet", "name": "Hilliard's Killarney", "opening_hours": {"open_now": false}, "photos": [{"height": 4080, "html_attributions": ["<a href=\"https://maps.google.com/maps/contrib/106252119063061891580\">Killian Mullen</a>"], "photo_reference": "AUc7tXU1aYHPmLDu8vs3evgk9PiXxHcUAvJWPU7oTAxdTA4gUELvH1gmJmrPpYVpVKyjA2v8HexWymbn3TXikAjeIz5l-4WKMEvT2rWYvjiG4B5pV2rHkdur8jGOpOTzcMOzjI4cLWcD6etMqvntLBHzzitDSSTlj__t-vAiHZbQHh56Vkud", "width": 3072}], "place_id": "ChIJG0l-6gg8RUgR-R6sqdnocsQ", "plus_code": {"compound_code": "3F5R+F6 Killarney, County Kerry, Ireland", "global_code": "9C4G3F5R+F6"}, "rating": 4.7, "reference": "ChIJG0l-6gg8RUgR-R6sqdnocsQ", "scope": "GOOGLE", "types": ["restaurant", "bar", "food", "point_of_interest", "establishment"], "user_ratings_total": 162, "vicinity": "6/7 Main St, Killarney"}, {"business_status": "OPERATIONAL", "geometry": {"location": {"lat": 52.06067909999999, "lng": -9.5099051}, "viewport": {"northeast": {"lat": 52.06199862989271, "lng": -9.508687120107275}, "southwest": {"lat": 52.05929897010727, "lng": -9.51138677989272}}}, "icon": "https://maps.gstatic.com/mapfiles/place_api/icons/v1/png_71/restaurant-71.png", "icon_background_color": "#FF9E67", "icon_mask_base_uri": "https://maps.gstatic.com/mapfiles/place_api/icons/v2/restaurant_pinlet", "name": "Foley's Townhouse & Restaurant Killarney", "opening_hours": {"open_now": false}, "photos": [{"height": 3456, "html_attributions": ["<a href=\"https://maps.google.com/maps/contrib/115772539608634533703\">Lee Graham</a>"], "photo_reference": "AUc7tXW3GAZqAlwp0AyxYQ4nkarpl4u7-0LoFWhespkhnrQviWFGjuiOfhniwMj0GcmRKgu87PPf5gozGHMzTP1dBc_3xrvpgmzhE0Eo299Iz8XligrMVpuyF5Q9Hu0h6IbnB6b8efzCTml5yAeE2w031didoIwIhz3uQuIEC4U0IuZ-e7v4", "width": 4608}], "place_id": "ChIJ7dB3XQg8RUgRcagyvL5rvFI", "plus_code": {"compound_code": "3F6R+72 Killarney, County Kerry, Ireland", "global_code": "9C4G3F6R+72"}, "rating": 4.5, "reference": "ChIJ7dB3XQg8RUgRcagyvL5rvFI", "scope": "GOOGLE", "types": ["restaurant", "lodging", "bar", "food", "point_of_interest", "establishment"], "user_ratings_total": 327, "vicinity": "22-24, High Street, Killarney"}, {"business_status": "OPERATIONAL", "geometry": {"location": {"lat": 52.058381, "lng": -9.5112204}, "viewport": {"northeast": {"lat": 52.05977147989272, "lng": -9.509951170107279}, "southwest": {"lat": 52.05707182010728, "lng": -9.512650829892722}}}, "icon": "https://maps.gstatic.com/mapfiles/place_api/icons/v1/png_71/cafe-71.png", "icon_background_color": "#FF9E67", "icon_mask_base_uri": "https://maps.gstatic.com/mapfiles/place_api/icons/v2/cafe_pinlet", "name": "Mug & Bean", "opening_hours": {"open_now": true}, "photos": [{"height": 3024, "html_attributions": ["<a href=\"https://maps.google.com/maps/contrib/115907149127057429996\">Bronson Kurtz</a>"], "photo_reference": "AUc7tXUcthhAIunQOGHrLMZNBkWlgA3i3HvdMfolVzeZXftFYrr8pQCBKIP9FyIYNDqNFe39sjlG-E8-E-lr7G-IXEp0xxh2qEgQXxoF50LGB9_TwBRZ6XBtuYbsR-GJpSr1QY59ylBs5gCp5DU9lgq_y62Jm03AkpptQZigD6klliWvba8-", "width": 4032}], "place_id": "ChIJ4Tdynwg8RUgREAOqK-g37DQ", "plus_code": {"compound_code": "3F5Q+9G Killarney, County Kerry, Ireland", "global_code": "9C4G3F5Q+9G"}, "price_level": 1, "rating": 4.1, "reference": "ChIJ4Tdynwg8RUgREAOqK-g37DQ", "scope": "GOOGLE", "types": ["cafe", "restaurant", "food", "point_of_interest", "store", "establishment"], "user_ratings_total": 352, "vicinity": "Killarney Shopping Arcade, Beech Road, Demesne, Killarney"}, {"business_status": "OPERATIONAL", "geometry": {"location": {"lat": 52.05936879999999, "lng": -9.509751999999999}, "viewport": {"northeast": {"lat": 52.06074227989272, "lng": -9.508287970107277}, "southwest": {"lat": 52.05804262010728, "lng": -9.510987629892721}}}, "icon": "https://maps.gstatic.com/mapfiles/place_api/icons/v1/png_71/restaurant-71.png", "icon_background_color": "#FF9E67", "icon_mask_base_uri": "https://maps.gstatic.com/mapfiles/place_api/icons/v2/restaurant_pinlet", "name": "Quinlan's Seafood Bar", "opening_hours": {"open_now": false}, "photos": [{"height": 2160, "html_attributions": ["<a href=\"https://maps.google.com/maps/contrib/101426646903947587699\">Anthony Gorman</a>"], "photo_reference": "AUc7tXX61EifYrsymOTAdy9nndYlaZCKC4QnGL2mQZHZdOKMAHBU6nD7e9nhj6YQBSLn5961dqKz5fKuHOn0ZDbe_EiaiZ9mkIxvEuoixWpD60LNNg8uvGkNLpbYzupbNwseVVZkKpjnygwoEGuniR8vzAhz5fOI-jJ5YD6hOrI04iYg7cTB", "width": 3840}], "place_id": "ChIJFxa8kgg8RUgRR68Mu_2qfuI", "plus_code": {"compound_code": "3F5R+P3 Killarney, County Kerry, Ireland", "global_code": "9C4G3F5R+P3"}, "price_level": 2, "rating": 4.5, "reference": "ChIJFxa8kgg8RUgRR68Mu_2qfuI", "scope": "GOOGLE", "types": ["restaurant", "food", "point_of_interest", "store", "establishment"], "user_ratings_total": 1665, "vicinity": "77 High Street, Killarney"}, {"business_status": "OPERATIONAL", "geometry": {"location": {"lat": 52.058833, "lng": -9.50352}, "viewport": {"northeast": {"lat": 52.06036122989272, "lng": -9.50221737010728}, "southwest": {"lat": 52.05766157010728, "lng": -9.504917029892724}}}, "icon": "https://maps.gstatic.com/mapfiles/place_api/icons/v1/png_71/lodging-71.png", "icon_background_color": "#909CE1", "icon_mask_base_uri": "https://maps.gstatic.com/mapfiles/place_api/icons/v2/hotel_pinlet", "name": "Great Southern Killarney", "opening_hours": {"open_now": true}, "photos": [{"height": 1146, "html_attributions": ["<a href=\"https://maps.google.com/maps/contrib/112409724908513232151\">A Google User</a>"], "photo_reference": "AUc7tXUMaRfLppljynnIB0BXrfQ-fe0lk1XE4NNdudSzWu_KG149c-qD42NTAX-ZSizEGvnhxXyGducZJTOpch_Ta_e0u6kmizE5ac474iY18NDeazntlRDgkWiGfR6bcrt6jcBFky1lTRLjCGcwzK9cQ28032_37Sf-GxWAxONKcm-PRLU3", "width": 2048}], "place_id": "ChIJN-oV3ws8RUgRCiGoBc890Fg", "plus_code": {"compound_code": "3F5W+GH Killarney, County Kerry, Ireland", "global_code": "9C4G3F5W+GH"}, "rating": 4.6, "reference": "ChIJN-oV3ws8RUgRCiGoBc890Fg", "scope": "GOOGLE", "types": ["lodging", "restaurant", "food", "point_of_interest", "establishment"], "user_ratings_total": 2239, "vicinity": "Town Centre, Avenue, Killarney"}, {"business_status": "OPERATIONAL", "geometry": {"location": {"lat": 52.05920039999999, "lng": -9.5102057}, "viewport": {"northeast": {"lat": 52.06049757989272, "lng": -9.508835570107278}, "southwest": {"lat": 52.05779792010727, "lng": -9.511535229892722}}}, "icon": "https://maps.gstatic.com/mapfiles/place_api/icons/v1/png_71/restaurant-71.png", "icon_background_color": "#FF9E67", "icon_mask_base_uri": "https://maps.gstatic.com/mapfiles/place_api/icons/v2/restaurant_pinlet", "name": "Eddie Rocket's", "opening_hours": {"open_now": false}, "photos": [{"height": 3036, "html_attributions": ["<a href=\"https://maps.google.com/maps/contrib/102551879906229478984\">Vicky Walker</a>"], "photo_reference": "AUc7tXWwHp5nnKi9VsPkNmy5x04xsgsgw96C-LisXcSjsp3KauPghRvfsF0IxQVrzWhSYzU75J72VT6NJ-1YzmSoIVSdkGKzHBsrXZLIjXBEm3gUNyV9YmBkw0RsJ2LUpuVi2Z70Bn_XfZRZzT7yT9eGO4iDgEbV80O0JNe_uBDlmvilr_ZU", "width": 4048}], "place_id": "ChIJSXIWPwY8RUgRCTctkglbWcI", "plus_code": {"compound_code": "3F5Q+MW Killarney, County Kerry, Ireland", "global_code": "9C4G3F5Q+MW"}, "price_level": 2, "rating": 4.5, "reference": "ChIJSXIWPwY8RUgRCTctkglbWcI", "scope": "GOOGLE", "types": ["restaurant", "food", "point_of_interest", "establishment"], "user_ratings_total": 1151, "vicinity": "7 New St, Killarney"}, {"business_status": "OPERATIONAL", "geometry": {"location": {"lat": 52.05332800000001, "lng": -9.50642}, "viewport": {"northeast": {"lat": 52.05468072989272, "lng": -9.505136420107277}, "southwest": {"lat": 52.05198107010727, "lng": -9.507836079892721}}}, "icon": "https://maps.gstatic.com/mapfiles/place_api/icons/v1/png_71/lodging-71.png", "icon_background_color": "#909CE1", "icon_mask_base_uri": "https://maps.gstatic.com/mapfiles/place_api/icons/v2/hotel_pinlet", "name": "Dromhall Hotel", "opening_hours": {"open_now": true}, "photos": [{"height": 1068, "html_attributions": ["<a href=\"https://maps.google.com/maps/contrib/103933813292049750055\">Dromhall Hotel Killarney</a>"], "photo_reference": "AUc7tXXzQVRcESC1GJCleiNqj7ipcL0IkfSnia_IfhT6CdLrDeFi5_2VLmdzZ0yj5vQ1G5LGSBI52b9I6Fejlm3IYljdS6nVmvgKpoXkwlGN_3OXQdHFGgDw11VUH-Vp06N4bxZshkCdHzq5qsbfMiH0GDPfzRnp1YHl4pm0LmmAFeawIegL", "width": 1600}], "place_id": "ChIJJcdszw88RUgRGzMiRr-Ap_o", "plus_code": {"compound_code": "3F3V+8C Killarney, County Kerry, Ireland", "global_code": "9C4G3F3V+8C"}, "rating": 4.6, "reference": "ChIJJcdszw88RUgRGzMiRr-Ap_o", "scope": "GOOGLE", "types": ["lodging", "restaurant", "food", "point_of_interest", "establishment"], "user_ratings_total": 992, "vicinity": "Muckross Rd, Dromhale, Killarney"}, {"business_status": "OPERATIONAL", "geometry": {"location": {"lat": 52.058649, "lng": -9.5083446}, "viewport": {"northeast": {"lat": 52.05998932989272, "lng": -9.506988370107278}, "southwest": {"lat": 52.05728967010728, "lng": -9.509688029892722}}}, "icon": "https://maps.gstatic.com/mapfiles/place_api/icons/v1/png_71/restaurant-71.png", "icon_background_color": "#FF9E67", "icon_mask_base_uri": "https://maps.gstatic.com/mapfiles/place_api/icons/v2/restaurant_pinlet", "name": "Rob's Ranch House Killarney", "opening_hours": {"open_now": false}, "photos": [{"height": 3024, "html_attributions": ["<a href=\"https://maps.google.com/maps/contrib/112987083435169273735\">Ronan Hegarty</a>"], "photo_reference": "AUc7tXWw9wxWWwVCVzoPQ_ARh2HE8YsobUwz0YJz6F83ZrvsuMeSUw6oV8lr3P6bjZqQ7lUvSNOb5YG9_gUMvN6vGE1r0DarD77yzboEm1aLjJE2YhrmZVE0zhexAhFcPsUqeKVKOubRzHYHdtC9WsRgpVvYHSTH8WWzUazH2z0vGgl9TwmG", "width": 4032}], "place_id": "ChIJfc783Ag8RUgRA5Cf4inOp4M", "plus_code": {"compound_code": "3F5R+FM Killarney, County Kerry, Ireland", "global_code": "9C4G3F5R+FM"}, "price_level": 2, "rating": 4.3, "reference": "ChIJfc783Ag8RUgRA5Cf4inOp4M", "scope": "GOOGLE", "types": ["restaurant", "food", "point_of_interest", "establishment"], "user_ratings_total": 935, "vicinity": "9 Plunkett St, Killarney"}, {"business_status": "OPERATIONAL", "geometry": {"location": {"lat": 52.0599735, "lng": -9.5097272}, "viewport": {"northeast": {"lat": 52.06126777989272, "lng": -9.508363420107278}, "southwest": {"lat": 52.05856812010727, "lng": -9.511063079892722}}}, "icon": "https://maps.gstatic.com/mapfiles/place_api/icons/v1/png_71/restaurant-71.png", "icon_background_color": "#FF9E67", "icon_mask_base_uri": "https://maps.gstatic.com/mapfiles/place_api/icons/v2/restaurant_pinlet", "name": "Salvadors & Robertinos Killarney", "opening_hours": {"open_now": false}, "photos": [{"height": 3280, "html_attributions": ["<a href=\"https://maps.google.com/maps/contrib/111422225367685351188\">Radoslav Vajda</a>"], "photo_reference": "AUc7tXWBHOes2hWZTy5QngWwFFmzCZ71epOkJ47YrD4HLwvNncRm0AFvmYsZ_GsyOdKr-8xHDml8wQGcarr7pVyzxvsoA1Z7YOqVTRnnZNN3NCs6wF5w0TiaTCVeWRuJR6PXbUOyR-ZyRzHoqiDPH3VRyoNgk6_MEt75Avy84B0Rr4yqVNyH", "width": 3280}], "place_id": "ChIJN1ODTmQ9RUgRhsEJtXX9_Os", "plus_code": {"compound_code": "3F5R+X4 Killarney, County Kerry, Ireland", "global_code": "9C4G3F5R+X4"}, "price_level": 2, "rating": 4.3, "reference": "ChIJN1ODTmQ9RUgRhsEJtXX9_Os", "scope": "GOOGLE", "types": ["restaurant", "food", "point_of_interest", "establishment"], "user_ratings_total": 1053, "vicinity": "9 High Street, Killarney"}, {"business_status": "OPERATIONAL", "geometry": {"location": {"lat": 52.0600657, "lng": -9.508493999999999}, "viewport": {"northeast": {"lat": 52.06131067989271, "lng": -9.507213070107278}, "southwest": {"lat": 52.05861102010727, "lng": -9.509912729892722}}}, "icon": "https://maps.gstatic.com/mapfiles/place_api/icons/v1/png_71/restaurant-71.png", "icon_background_color": "#FF9E67", "icon_mask_base_uri": "https://maps.gstatic.com/mapfiles/place_api/icons/v2/restaurant_pinlet", "name": "Secret Restaurant & Bar", "opening_hours": {"open_now": false}, "photos": [{"height": 2400, "html_attributions": ["<a href=\"https://maps.google.com/maps/contrib/101337733896995574939\">A Google User</a>"], "photo_reference": "AUc7tXXO68416uf_qu8Sw_oTd4xjvVP7FSW09cdN8cOSm1wthlEUvOOr0IhFa_J_keJodkqlG78ZiFS8zblbhAWa9_hldskL678iFHqbs7JngIlXDn_vgoaer8jDt1TFI7LP179MLmoRbhz47Vb3uYlUY4OIAo7320CJav3UDZn7_eM2JTe8", "width": 3600}], "place_id": "ChIJ90XzTZw9RUgR3_0tKIzNAWA", "plus_code": {"compound_code": "3F6R+2J Killarney, County Kerry, Ireland", "global_code": "9C4G3F6R+2J"}, "rating": 4.3, "reference": "ChIJ90XzTZw9RUgR3_0tKIzNAWA", "scope": "GOOGLE", "types": ["restaurant", "food", "point_of_interest", "establishment"], "user_ratings_total": 31, "vicinity": "5 New Market Ln, Killarney"}, {"business_status": "OPERATIONAL", "geometry": {"location": {"lat": 52.05941439999999, "lng": -9.508276799999999}, "viewport": {"northeast": {"lat": 52.06074142989272, "lng": -9.506919320107277}, "southwest": {"lat": 52.05804177010727, "lng": -9.509618979892721}}}, "icon": "https://maps.gstatic.com/mapfiles/place_api/icons/v1/png_71/restaurant-71.png", "icon_background_color": "#FF9E67", "icon_mask_base_uri": "https://maps.gstatic.com/mapfiles/place_api/icons/v2/restaurant_pinlet", "name": "Manna Cafe & Bistro", "opening_hours": {"open_now": true}, "photos": [{"height": 3024, "html_attributions": ["<a href=\"https://maps.google.com/maps/contrib/103714529203135199968\">A Google User</a>"], "photo_reference": "AUc7tXVcYVeCzwzozgDE-hMJ1asmhpqvJLp2KVZquao4Y1ttKg4-j39gPBwsSORV-5igCpiayThvjSO2QS-wRdnREhYodm2hlMcVnGBHByS_AOO6POSctuDzSQWjtK2gmouzLx_3uUJI_50UxLyphY9ie0AvGEfHFVFDmHDhB_1YetXC4oZV", "width": 4032}], "place_id": "ChIJ7fsjTmY9RUgR2IURaYYFHkY", "plus_code": {"compound_code": "3F5R+QM Killarney, County Kerry, Ireland", "global_code": "9C4G3F5R+QM"}, "price_level": 2, "rating": 4.8, "reference": "ChIJ7fsjTmY9RUgR2IURaYYFHkY", "scope": "GOOGLE", "types": ["restaurant", "food", "point_of_interest", "establishment"], "user_ratings_total": 392, "vicinity": "5 Old Market Ln, Killarney"}, {"business_status": "OPERATIONAL", "geometry": {"location": {"lat": 52.0585858, "lng": -9.5080327}, "viewport": {"northeast": {"lat": 52.05995812989272, "lng": -9.506694870107275}, "southwest": {"lat": 52.05725847010728, "lng": -9.509394529892718}}}, "icon": "https://maps.gstatic.com/mapfiles/place_api/icons/v1/png_71/restaurant-71.png", "icon_background_color": "#FF9E67", "icon_mask_base_uri": "https://maps.gstatic.com/mapfiles/place_api/icons/v2/restaurant_pinlet", "name": "The Mad Monk by Quinlans", "opening_hours": {"open_now": false}, "photos": [{"height": 4033, "html_attributions": ["<a href=\"https://maps.google.com/maps/contrib/104377860325939605664\">A Google User</a>"], "photo_reference": "AUc7tXUC_V7kbXpT0wi2q2wbivSA3aQJGZVq-TGhaIvbWAc8i24bI6wxN2btuVkIYEbPR-hZDykgYciulog8Q0QrTYVcibqvOOf6f2Ffx32PQrpUqRty5v1hD3EjZkanURCRHYHN51FOo9CSYVc1frOFj0NOOFP1jeEJUfPXmKveoeIv0wbr", "width": 6065}], "place_id": "ChIJ2yRqNK89RUgRApUVNQdJ-CE", "plus_code": {"compound_code": "3F5R+CQ Killarney, County Kerry, Ireland", "global_code": "9C4G3F5R+CQ"}, "price_level": 2, "rating": 4.6, "reference": "ChIJ2yRqNK89RUgRApUVNQdJ-CE", "scope": "GOOGLE", "types": ["restaurant", "food", "point_of_interest", "establishment"], "user_ratings_total": 652, "vicinity": "21-22 Plunkett St, Killarney"}, {"business_status": "OPERATIONAL", "geometry": {"location": {"lat": 52.0598988, "lng": -9.5090407}, "viewport": {"northeast": {"lat": 52.06118437989272, "lng": -9.508028520107278}, "southwest": {"lat": 52.05848472010728, "lng": -9.510728179892721}}}, "icon": "https://maps.gstatic.com/mapfiles/place_api/icons/v1/png_71/restaurant-71.png", "icon_background_color": "#FF9E67", "icon_mask_base_uri": "https://maps.gstatic.com/mapfiles/place_api/icons/v2/restaurant_pinlet", "name": "Little Italy Pizzeria Cafe Gelateria", "opening_hours": {"open_now": true}, "photos": [{"height": 3024, "html_attributions": ["<a href=\"https://maps.google.com/maps/contrib/113721252527399024781\">Iuvali Cazacu</a>"], "photo_reference": "AUc7tXX_1lAmLcfBwNHQ-8RMcZMYUBpT6f8VBSO0-QeiMtl3uim3lYyXdnJT2_YFmDyoIa7raprUthfgmxY03wjDOWGlb93_2UzJ3MJLvYZpGYwq7fRS-F8uLtHAqeug7F5ZdPhGypLtYhE8AdWrUEiKuo3jDcgZNJHKpPZK-ZZZcxE_Q_RA", "width": 4032}], "place_id": "ChIJ90dtKKE9RUgRFK4FvMh1aVY", "plus_code": {"compound_code": "3F5R+X9 Killarney, County Kerry, Ireland", "global_code": "9C4G3F5R+X9"}, "price_level": 2, "rating": 4.1, "reference": "ChIJ90dtKKE9RUgRFK4FvMh1aVY", "scope": "GOOGLE", "types": ["restaurant", "food", "point_of_interest", "establishment"], "user_ratings_total": 418, "vicinity": "Off, 2 New Market Lane (Old Milk, Market Ln, High Street, Killarney"}, {"business_status": "OPERATIONAL", "geometry": {"location": {"lat": 52.0582121, "lng": -9.5092071}, "viewport": {"northeast": {"lat": 52.05958017989273, "lng": -9.507728370107278}, "southwest": {"lat": 52.05688052010728, "lng": -9.510428029892722}}}, "icon": "https://maps.gstatic.com/mapfiles/place_api/icons/v1/png_71/restaurant-71.png", "icon_background_color": "#FF9E67", "icon_mask_base_uri": "https://maps.gstatic.com/mapfiles/place_api/icons/v2/restaurant_pinlet", "name": "Milano", "opening_hours": {"open_now": false}, "photos": [{"height": 900, "html_attributions": ["<a href=\"https://maps.google.com/maps/contrib/118226861296365223264\">Milano</a>"], "photo_reference": "AUc7tXXntgLYIMem7repUGiWlYw1JOCbdgpPDJpt9FWScpSF_0v5qMOqeetKT9upM_gPzPdWGOQP30z8nDEWTSk0G6Ij8uUVRj2bQxgEBp3yScTmsnRZQeuVVDDq691zwWYAv8ys7O-5JzGjk6rJn71TclS8-FE8hSjYu_x4zEh6VFDzEAyQ", "width": 1600}], "place_id": "ChIJ8Ve-xwg8RUgRNM9WIqPuOJ4", "plus_code": {"compound_code": "3F5R+78 Killarney, County Kerry, Ireland", "global_code": "9C4G3F5R+78"}, "price_level": 2, "rating": 4.1, "reference": "ChIJ8Ve-xwg8RUgRNM9WIqPuOJ4", "scope": "GOOGLE", "types": ["restaurant", "food", "point_of_interest", "establishment"], "user_ratings_total": 813, "vicinity": "16 Main St, Killarney"}, {"business_status": "OPERATIONAL", "geometry": {"location": {"lat": 52.0600923, "lng": -9.5100187}, "viewport": {"northeast": {"lat": 52.06144327989272, "lng": -9.508650870107278}, "southwest": {"lat": 52.05874362010728, "lng": -9.511350529892722}}}, "icon": "https://maps.gstatic.com/mapfiles/place_api/icons/v1/png_71/restaurant-71.png", "icon_background_color": "#FF9E67", "icon_mask_base_uri": "https://maps.gstatic.com/mapfiles/place_api/icons/v2/restaurant_pinlet", "name": "Treyvaud's Restaurant", "opening_hours": {"open_now": false}, "photos": [{"height": 4608, "html_attributions": ["<a href=\"https://maps.google.com/maps/contrib/114101156130195685077\">Noble Paul</a>"], "photo_reference": "AUc7tXUZWkb3Uq8RjsGj-iDhtkt5AyJKKLtFhajycxgTtjUO5cqfIYnERlTt0Hx2yVtIftBDE2m90JDxF78R-FhAAdbOwLV7Y2VgrwuM-2TIAvSrLdqXmKTHIfvyxvCXr1J6_jnNQ7rySwZVWZ77cBz3fBDtqUOqOfqhwqrWj9WRBJLMchsK", "width": 3456}], "place_id": "ChIJk8esigg8RUgR2HwD7uPiEpE", "plus_code": {"compound_code": "3F6Q+2X Killarney, County Kerry, Ireland", "global_code": "9C4G3F6Q+2X"}, "price_level": 2, "rating": 4.4, "reference": "ChIJk8esigg8RUgR2HwD7uPiEpE", "scope": "GOOGLE", "types": ["restaurant", "food", "point_of_interest", "establishment"], "user_ratings_total": 421, "vicinity": "62 High Street, Killarney"}, {"business_status": "OPERATIONAL", "geometry": {"location": {"lat": 52.0600119, "lng": -9.505571699999999}, "viewport": {"northeast": {"lat": 52.06131157989272, "lng": -9.504204270107277}, "southwest": {"lat": 52.05861192010727, "lng": -9.50690392989272}}}, "icon": "https://maps.gstatic.com/mapfiles/place_api/icons/v1/png_71/lodging-71.png", "icon_background_color": "#909CE1", "icon_mask_base_uri": "https://maps.gstatic.com/mapfiles/place_api/icons/v2/hotel_pinlet", "name": "Killarney Royal Hotel", "opening_hours": {"open_now": true}, "photos": [{"height": 2146, "html_attributions": ["<a href=\"https://maps.google.com/maps/contrib/117943020049179422440\">A Google User</a>"], "photo_reference": "AUc7tXU5l09ZnupgiUb-xmqamx3T7RZ0MUHhfhelPDQ2g1OSrAcds9Jfki1wN9XaBzdTfBrSfB0PsRP3FuBwsgcEQbbDIIvJGQ_S-YeFjETAP0DoSzyly17kOruTA84pKP0KcSDraYpqf19Ck9w99UxQFWpXTGrNZz8sescgai7ajGxpdLhl", "width": 2114}], "place_id": "ChIJ3QIgFwk8RUgRY_4zMd2DZNo", "plus_code": {"compound_code": "3F6V+2Q Killarney, County Kerry, Ireland", "global_code": "9C4G3F6V+2Q"}, "rating": 4.6, "reference": "ChIJ3QIgFwk8RUgRY_4zMd2DZNo", "scope": "GOOGLE", "types": ["bar", "lodging", "restaurant", "food", "point_of_interest", "establishment"], "user_ratings_total": 626, "vicinity": "College St, Killarney"}, {"business_status": "OPERATIONAL", "geometry": {"location": {"lat": 52.0599108, "lng": -9.5088466}, "viewport": {"northeast": {"lat": 52.06123162989272, "lng": -9.507500870107279}, "southwest": {"lat": 52.05853197010727, "lng": -9.510200529892723}}}, "icon": "https://maps.gstatic.com/mapfiles/place_api/icons/v1/png_71/cafe-71.png", "icon_background_color": "#FF9E67", "icon_mask_base_uri": "https://maps.gstatic.com/mapfiles/place_api/icons/v2/cafe_pinlet", "name": "Curious Cat Caf\u00e9", "opening_hours": {"open_now": true}, "photos": [{"height": 3024, "html_attributions": ["<a href=\"https://maps.google.com/maps/contrib/102321751590852965687\">jerry f clifford</a>"], "photo_reference": "AUc7tXWvPqRKq_rrz9yY2qbGQpZyboM_Sc98AiHYZG6zdlxH_dNJqCGxyjsYgtztDMAkxdLi_5hKv6i3LJ2t5-FCNL1xCRurhAKwHW494LhkV8WviNHtbZK2McHLwhdflqAT9CE70veSKkVCTqN3xXmwLs6dFmqTw-FiInUX2LJ_HRGvUK2J", "width": 4032}], "place_id": "ChIJ8acmX_M9RUgR2IoMLXxJgik", "plus_code": {"compound_code": "3F5R+XF Killarney, County Kerry, Ireland", "global_code": "9C4G3F5R+XF"}, "rating": 4.5, "reference": "ChIJ8acmX_M9RUgR2IoMLXxJgik", "scope": "GOOGLE", "types": ["cafe", "restaurant", "food", "point_of_interest", "store", "establishment"], "user_ratings_total": 600, "vicinity": "1 New Market Ln, Killarney"}, {"business_status": "OPERATIONAL", "geometry": {"location": {"lat": 52.0600261, "lng": -9.5055456}, "viewport": {"northeast": {"lat": 52.06137592989271, "lng": -9.504195770107277}, "southwest": {"lat": 52.05867627010727, "lng": -9.50689542989272}}}, "icon": "https://maps.gstatic.com/mapfiles/place_api/icons/v1/png_71/restaurant-71.png", "icon_background_color": "#FF9E67", "icon_mask_base_uri": "https://maps.gstatic.com/mapfiles/place_api/icons/v2/restaurant_pinlet", "name": "Vendricks Restaurant", "opening_hours": {"open_now": false}, "photos": [{"height": 3024, "html_attributions": ["<a href=\"https://maps.google.com/maps/contrib/114394334984281930220\">Dave Yeates lreland Tour&#39;s</a>"], "photo_reference": "AUc7tXWphis48MH3Hl0-I-FWZBESe3YlhKyxpHVJwXozFj4VxMpe92uCf7lqIJkfCifNWrufagtQFOeMnSjLKask1puXcxrls2csugMqecmP1vnTkKecdE0iQ2SPZiZ-VMhZTVsxbtkGiIOUvHr_KZerdaG8V9DE1IpBy8uFMFVZh0RR4GPG", "width": 4032}], "place_id": "ChIJ31llegk8RUgRAlcaKDAx83M", "plus_code": {"compound_code": "3F6V+2Q Killarney, County Kerry, Ireland", "global_code": "9C4G3F6V+2Q"}, "price_level": 2, "rating": 4.4, "reference": "ChIJ31llegk8RUgRAlcaKDAx83M", "scope": "GOOGLE", "types": ["restaurant", "bar", "food", "point_of_interest", "establishment"], "user_ratings_total": 213, "vicinity": "Unit 3/4, The Courtyard, Fair Hill, Killarney"}, {"business_status": "OPERATIONAL", "geometry": {"location": {"lat": 52.0458033, "lng": -9.504563899999999}, "viewport": {"northeast": {"lat": 52.04711057989271, "lng": -9.503310070107275}, "southwest": {"lat": 52.04441092010727, "lng": -9.50600972989272}}}, "icon": "https://maps.gstatic.com/mapfiles/place_api/icons/v1/png_71/restaurant-71.png", "icon_background_color": "#FF9E67", "icon_mask_base_uri": "https://maps.gstatic.com/mapfiles/place_api/icons/v2/restaurant_pinlet", "name": "Dan\u00fa at The Brehon", "place_id": "ChIJT0XCkHM9RUgR5IpunBYHMBQ", "plus_code": {"compound_code": "2FWW+85 Killarney, County Kerry, Ireland", "global_code": "9C4G2FWW+85"}, "rating": 4.3, "reference": "ChIJT0XCkHM9RUgR5IpunBYHMBQ", "scope": "GOOGLE", "types": ["restaurant", "food", "point_of_interest", "establishment"], "user_ratings_total": 3, "vicinity": "Muckross Rd, Poulnamuck, Killarney"}, {"business_status": "OPERATIONAL", "geometry": {"location": {"lat": 52.0497075, "lng": -9.507005999999999}, "viewport": {"northeast": {"lat": 52.05101717989272, "lng": -9.505568820107277}, "southwest": {"lat": 52.04831752010728, "lng": -9.50826847989272}}}, "icon": "https://maps.gstatic.com/mapfiles/place_api/icons/v1/png_71/restaurant-71.png", "icon_background_color": "#FF9E67", "icon_mask_base_uri": "https://maps.gstatic.com/mapfiles/place_api/icons/v2/restaurant_pinlet", "name": "The Restaurant @ the Parkavon", "photos": [{"height": 1920, "html_attributions": ["<a href=\"https://maps.google.com/maps/contrib/103222872240647494048\">kyler teague</a>"], "photo_reference": "AUc7tXVDUknODTv38w6lw_aWtWEtBTemVR0ldD5CJ_vJjxufc3RpzH3NXy0sSZ3yjqWfwzw8EsIkZQFkDk-OU2_EBZxPQseVcGPpfTmffhg0vlbUb0HC4DaRYOgiBEjL51O5l-_BBPfrhJ1TI39nRDqy3zjD2E4x5DmbuN4or4pGUAACRSNy", "width": 1080}], "place_id": "ChIJCzAu-0Q9RUgRScbhTd1Yqlo", "plus_code": {"compound_code": "2FXV+V5 Killarney, County Kerry, Ireland", "global_code": "9C4G2FXV+V5"}, "rating": 2, "reference": "ChIJCzAu-0Q9RUgRScbhTd1Yqlo", "scope": "GOOGLE", "types": ["restaurant", "food", "point_of_interest", "establishment"], "user_ratings_total": 4, "vicinity": "Muckross Rd, Scrahane, Killarney"}, {"business_status": "OPERATIONAL", "geometry": {"location": {"lat": 52.057947, "lng": -9.507294}, "viewport": {"northeast": {"lat": 52.05923897989272, "lng": -9.506119370107276}, "southwest": {"lat": 52.05653932010728, "lng": -9.50881902989272}}}, "icon": "https://maps.gstatic.com/mapfiles/place_api/icons/v1/png_71/lodging-71.png", "icon_background_color": "#909CE1", "icon_mask_base_uri": "https://maps.gstatic.com/mapfiles/place_api/icons/v2/hotel_pinlet", "name": "International Hotel Killarney & Hannigan's Bar, Restaurant & Terrace", "opening_hours": {"open_now": true}, "photos": [{"height": 1595, "html_attributions": ["<a href=\"https://maps.google.com/maps/contrib/108654613627955724533\">A Google User</a>"], "photo_reference": "AUc7tXVBc8XlvjotOyab2pgeOSRJWJ84vX-jEkHVoy2fR4q_r4gaefxMJOv3HefLEVhfXKQFWJNf2fHQp3XukRE9ArO38jGBqCTEUZwp59uRxzsOSB4_e7Sji6LeAyp2YMf-ShBoSmt4vdu_LhPDNdAb-vX6IGozc2JNWewdr5Tbi0nZASKi", "width": 2314}], "place_id": "ChIJ9X1p1Ag8RUgRs7f46TcJzCc", "plus_code": {"compound_code": "3F5V+53 Killarney, County Kerry, Ireland", "global_code": "9C4G3F5V+53"}, "rating": 4.6, "reference": "ChIJ9X1p1Ag8RUgRs7f46TcJzCc", "scope": "GOOGLE", "types": ["lodging", "restaurant", "food", "point_of_interest", "establishment"], "user_ratings_total": 936, "vicinity": "Kenmare Pl, Killarney"}, {"business_status": "OPERATIONAL", "geometry": {"location": {"lat": 52.05764079999999, "lng": -9.5084973}, "viewport": {"northeast": {"lat": 52.05899807989272, "lng": -9.507023570107277}, "southwest": {"lat": 52.05629842010728, "lng": -9.509723229892721}}}, "icon": "https://maps.gstatic.com/mapfiles/place_api/icons/v1/png_71/cafe-71.png", "icon_background_color": "#FF9E67", "icon_mask_base_uri": "https://maps.gstatic.com/mapfiles/place_api/icons/v2/cafe_pinlet", "name": "Caf\u00e9 Du Parc", "opening_hours": {"open_now": true}, "photos": [{"height": 6000, "html_attributions": ["<a href=\"https://maps.google.com/maps/contrib/116279561547734944535\">A Google User</a>"], "photo_reference": "AUc7tXUKUmZ-OvXRCaXvoMV3Vm0i6ihaK0BUKmtTQpym6NdSwCip6sWogj0awxdu0RVXy3ocPjThV6EEM9UR6MqgJrW0JwCehmJEqP41OmuOhuZ415lBJ13m9fLshRQPp8uZoWjya7BKFQ-d_xXR5QHE5ZNcM0OMcC4JK-hy6R-lucfKdH70", "width": 4902}], "place_id": "ChIJD2_jzAg8RUgRWOX9UYxsH_k", "plus_code": {"compound_code": "3F5R+3J Killarney, County Kerry, Ireland", "global_code": "9C4G3F5R+3J"}, "price_level": 2, "rating": 4.4, "reference": "ChIJD2_jzAg8RUgRWOX9UYxsH_k", "scope": "GOOGLE", "types": ["cafe", "restaurant", "food", "point_of_interest", "establishment"], "user_ratings_total": 587, "vicinity": "Killarney Plaza Hotel & Spa, Kenmare Placa, Killarney"}, {"business_status": "OPERATIONAL", "geometry": {"location": {"lat": 52.06006259999999, "lng": -9.5083182}, "viewport": {"northeast": {"lat": 52.06135767989272, "lng": -9.506964020107278}, "southwest": {"lat": 52.05865802010727, "lng": -9.509663679892721}}}, "icon": "https://maps.gstatic.com/mapfiles/place_api/icons/v1/png_71/restaurant-71.png", "icon_background_color": "#FF9E67", "icon_mask_base_uri": "https://maps.gstatic.com/mapfiles/place_api/icons/v2/restaurant_pinlet", "name": "Uptown Restaurant Killarney", "opening_hours": {"open_now": false}, "photos": [{"height": 4032, "html_attributions": ["<a href=\"https://maps.google.com/maps/contrib/104218518334404109734\">Uptown restaurant</a>"], "photo_reference": "AUc7tXVr1idjbjd_zUf0B5j6VMZYwwpJD9I22iD3kVV6OaczdYdcWSxFLhkdh55BT2_i7xvftzhm-OwL6Jkhw6FrKHUcYje66mx_xcrq5A7Qf6G6fRfxcJAY9_S8Lpc0MdhsHRfDpfs2_SUVebXOq05bOzDyrsShQaAG3AAGgWB4OyRbIT9W", "width": 3024}], "place_id": "ChIJxdZg_gg8RUgRWKbl1R-aVkU", "plus_code": {"compound_code": "3F6R+2M Killarney, County Kerry, Ireland", "global_code": "9C4G3F6R+2M"}, "rating": 4.2, "reference": "ChIJxdZg_gg8RUgRWKbl1R-aVkU", "scope": "GOOGLE", "types": ["meal_takeaway", "restaurant", "food", "point_of_interest", "establishment"], "user_ratings_total": 374, "vicinity": "The Old Milk Market, Glebe Lane, Killarney"}, {"business_status": "OPERATIONAL", "geometry": {"location": {"lat": 52.06106459999999, "lng": -9.5100406}, "viewport": {"northeast": {"lat": 52.06237767989272, "lng": -9.508863170107277}, "southwest": {"lat": 52.05967802010728, "lng": -9.511562829892721}}}, "icon": "https://maps.gstatic.com/mapfiles/place_api/icons/v1/png_71/restaurant-71.png", "icon_background_color": "#FF9E67", "icon_mask_base_uri": "https://maps.gstatic.com/mapfiles/place_api/icons/v2/restaurant_pinlet", "name": "Harrow Killarney", "opening_hours": {"open_now": false}, "photos": [{"height": 1931, "html_attributions": ["<a href=\"https://maps.google.com/maps/contrib/108103008862832818828\">Nik Hall</a>"], "photo_reference": "AUc7tXXAxFuvSdOzzMk_JLOpnyV8tKaoSGd_T1zur4o5Y3hBPKgk6V9eQvvvsUL4x-1jblNn1EDG_OQPnSArM09MItoeTIDTuyZCqmvn2-KbfqnA-EhZBQBKd8jBkuvH4K43UbMzfvVu9LXUCEhXu0x3Gdqk8K08fXabVZjZtbiHcwK60-JX", "width": 3891}], "place_id": "ChIJ5bIMzWk9RUgRERzN9iQxUs4", "plus_code": {"compound_code": "3F6Q+CX Killarney, County Kerry, Ireland", "global_code": "9C4G3F6Q+CX"}, "rating": 4.8, "reference": "ChIJ5bIMzWk9RUgRERzN9iQxUs4", "scope": "GOOGLE", "types": ["restaurant", "food", "point_of_interest", "establishment"], "user_ratings_total": 112, "vicinity": "27 High Street, Killarney"}, {"business_status": "OPERATIONAL", "geometry": {"location": {"lat": 52.0590324, "lng": -9.511842099999999}, "viewport": {"northeast": {"lat": 52.06031342989272, "lng": -9.510467870107277}, "southwest": {"lat": 52.05761377010727, "lng": -9.513167529892721}}}, "icon": "https://maps.gstatic.com/mapfiles/place_api/icons/v1/png_71/restaurant-71.png", "icon_background_color": "#FF9E67", "icon_mask_base_uri": "https://maps.gstatic.com/mapfiles/place_api/icons/v2/restaurant_pinlet", "name": "Kitty's Kitchen", "opening_hours": {"open_now": true}, "photos": [{"height": 4032, "html_attributions": ["<a href=\"https://maps.google.com/maps/contrib/103842879188238878281\">FRED MASSE</a>"], "photo_reference": "AUc7tXVax7Jk8AotxKmyS2ysLPOoGyvicSUKTT459L7mgGLp4ytOZgNlpSEBeF7AZuG2EVQIpXO1XfoWpnzwncaDWmpa3uTjL0VgPpJgjKvI-t3LvjcszpS9qvK8rJwXQ1SDDDoo73JTvhnOrqHh-BlpDlzF0MWdBiVTIRiUwcvXKY7A2e2y", "width": 3024}], "place_id": "ChIJp5ZVNrs9RUgRAWFTWZ0gBjQ", "plus_code": {"compound_code": "3F5Q+J7 Killarney, County Kerry, Ireland", "global_code": "9C4G3F5Q+J7"}, "rating": 4.8, "reference": "ChIJp5ZVNrs9RUgRAWFTWZ0gBjQ", "scope": "GOOGLE", "types": ["restaurant", "food", "point_of_interest", "establishment"], "user_ratings_total": 86, "vicinity": "17 New St, Monearmore, Killarney"}, {"business_status": "OPERATIONAL", "geometry": {"location": {"lat": 52.05999749999999, "lng": -9.5109093}, "viewport": {"northeast": {"lat": 52.06132447989272, "lng": -9.509951020107279}, "southwest": {"lat": 52.05862482010728, "lng": -9.512650679892722}}}, "icon": "https://maps.gstatic.com/mapfiles/place_api/icons/v1/png_71/restaurant-71.png", "icon_background_color": "#FF9E67", "icon_mask_base_uri": "https://maps.gstatic.com/mapfiles/place_api/icons/v2/restaurant_pinlet", "name": "Stonechat Restaurant", "opening_hours": {"open_now": false}, "photos": [{"height": 1734, "html_attributions": ["<a href=\"https://maps.google.com/maps/contrib/108103008862832818828\">Nik Hall</a>"], "photo_reference": "AUc7tXWmpbTM6FbQV9KKO4Uk49bx_oi238dKWLDSDR1BKZ1S9F-wGLn1ld-bgQlfS_uHUv-Xhz40354r-7jMo1FKFlA06mKVxDhjstVreLBPPzGhXuiLSCefsDg3PEnE_1MnXH18pX4gPDTGTtRkzxy2x7suDBgvRafLVKSKDJZviyU3ejeO", "width": 3353}], "place_id": "ChIJmxLBgAg8RUgRTlO7oGRiaCM", "plus_code": {"compound_code": "3F5Q+XJ Killarney, County Kerry, Ireland", "global_code": "9C4G3F5Q+XJ"}, "price_level": 3, "rating": 4.6, "reference": "ChIJmxLBgAg8RUgRTlO7oGRiaCM", "scope": "GOOGLE", "types": ["restaurant", "bar", "cafe", "food", "point_of_interest", "establishment"], "user_ratings_total": 397, "vicinity": "8 Fleming's Ln, Killarney"}, {"business_status": "OPERATIONAL", "geometry": {"location": {"lat": 52.0584461, "lng": -9.509288399999999}, "viewport": {"northeast": {"lat": 52.05974267989272, "lng": -9.507804320107278}, "southwest": {"lat": 52.05704302010727, "lng": -9.510503979892722}}}, "icon": "https://maps.gstatic.com/mapfiles/place_api/icons/v1/png_71/restaurant-71.png", "icon_background_color": "#FF9E67", "icon_mask_base_uri": "https://maps.gstatic.com/mapfiles/place_api/icons/v2/restaurant_pinlet", "name": "KBK Killarney Burger Kitchen", "opening_hours": {"open_now": false}, "photos": [{"height": 3780, "html_attributions": ["<a href=\"https://maps.google.com/maps/contrib/112548969595753095622\">A Google User</a>"], "photo_reference": "AUc7tXVc9NicpWAAzgPxBm1qQKLLsu7xMQ4U0K3kysyNVy8ko3Z7bq2EC0uzjRODCbi8W8PIc4KQo_jf5gNyhSwy01f96a66AZdrpDS-dU1_LaAjwxJ48DGNg1k16hdwzZqtrIZVT51eIqscI8D9mc-gf2Kw6j8SvryKXHUNLVEuBvQJfIpF", "width": 3024}], "place_id": "ChIJC-vXYhE9RUgRby5wcIpP_hU", "plus_code": {"compound_code": "3F5R+97 Killarney, County Kerry, Ireland", "global_code": "9C4G3F5R+97"}, "rating": 4.5, "reference": "ChIJC-vXYhE9RUgRby5wcIpP_hU", "scope": "GOOGLE", "types": ["restaurant", "food", "point_of_interest", "establishment"], "user_ratings_total": 86, "vicinity": "12 Main St, Killarney"}, {"business_status": "OPERATIONAL", "geometry": {"location": {"lat": 52.04397280000001, "lng": -9.5015027}, "viewport": {"northeast": {"lat": 52.04519907989272, "lng": -9.500356070107276}, "southwest": {"lat": 52.04249942010728, "lng": -9.50305572989272}}}, "icon": "https://maps.gstatic.com/mapfiles/place_api/icons/v1/png_71/lodging-71.png", "icon_background_color": "#909CE1", "icon_mask_base_uri": "https://maps.gstatic.com/mapfiles/place_api/icons/v2/hotel_pinlet", "name": "The Gleneagle Hotel & Apartments", "photos": [{"height": 4207, "html_attributions": ["<a href=\"https://maps.google.com/maps/contrib/100106872142157411166\">A Google User</a>"], "photo_reference": "AUc7tXWf_7ETb9hkMiERH6BHwlBq-nC1O0lvG1prv3OzPwQVumoenKnVscOnXzvoTsi8Pjj-NC_qJcxTQbAr_64x3c6lP09--Gr72-x10i31Xm2FsYf5oRkWUGheHhErTjOmjHu1AQrA2dHike6dldXgshhR4xjXJmjuDDT9aRXVgJo7Q04L", "width": 6609}], "place_id": "ChIJf2PFVhY8RUgRh3Gr1kGQBd8", "plus_code": {"compound_code": "2FVX+H9 Killarney, County Kerry, Ireland", "global_code": "9C4G2FVX+H9"}, "rating": 4.3, "reference": "ChIJf2PFVhY8RUgRh3Gr1kGQBd8", "scope": "GOOGLE", "types": ["lodging", "restaurant", "food", "point_of_interest", "establishment"], "user_ratings_total": 2508, "vicinity": "Muckross Rd, Poulnamuck, Killarney"}, {"business_status": "OPERATIONAL", "geometry": {"location": {"lat": 52.0578476, "lng": -9.5047429}, "viewport": {"northeast": {"lat": 52.05926362989272, "lng": -9.503457270107278}, "southwest": {"lat": 52.05656397010728, "lng": -9.506156929892722}}}, "icon": "https://maps.gstatic.com/mapfiles/place_api/icons/v1/png_71/lodging-71.png", "icon_background_color": "#909CE1", "icon_mask_base_uri": "https://maps.gstatic.com/mapfiles/place_api/icons/v2/hotel_pinlet", "name": "The Killarney Park", "opening_hours": {"open_now": true}, "photos": [{"height": 466, "html_attributions": ["<a href=\"https://maps.google.com/maps/contrib/110326482744813785996\">A Google User</a>"], "photo_reference": "AUc7tXVQAuk3xrNB_9zJAU2aI0RCQaANZvl88Z3I3swnqtMD2mK6fPVRkMuEL2Fgk_GFMqKMk1RSZHDbkDL8mlJ29iWLkE4npT5jRv-WkFNvu4QqlAKUKmeXbM5d9JPAcgR0pvjGBtv5xRFH-DJLx8shIPpdvojJLyJX9pcGBzAvyJR-jw", "width": 828}], "place_id": "ChIJN10ARQk8RUgRjh5YGymWl7k", "plus_code": {"compound_code": "3F5W+44 Killarney, County Kerry, Ireland", "global_code": "9C4G3F5W+44"}, "rating": 4.8, "reference": "ChIJN10ARQk8RUgRjh5YGymWl7k", "scope": "GOOGLE", "types": ["bar", "spa", "lodging", "restaurant", "food", "point_of_interest", "establishment"], "user_ratings_total": 879, "vicinity": "Town Centre, East Ave, Avenue, Killarney"}, {"business_status": "OPERATIONAL", "geometry": {"location": {"lat": 52.058513, "lng": -9.5055122}, "viewport": {"northeast": {"lat": 52.05977922989272, "lng": -9.504149370107276}, "southwest": {"lat": 52.05707957010728, "lng": -9.50684902989272}}}, "icon": "https://maps.gstatic.com/mapfiles/place_api/icons/v1/png_71/restaurant-71.png", "icon_background_color": "#FF9E67", "icon_mask_base_uri": "https://maps.gstatic.com/mapfiles/place_api/icons/v2/restaurant_pinlet", "name": "Golden Chopsticks", "opening_hours": {"open_now": false}, "photos": [{"height": 3024, "html_attributions": ["<a href=\"https://maps.google.com/maps/contrib/104402603978783217704\">MELODY LIN</a>"], "photo_reference": "AUc7tXUlLShb3-SZ_7PxKFbHmP6e870FYpfCXxeLLzuyW25zdWzkJ5WRLY2hnIB3tcxo_EOIfSBGthE0s7M3PWe1GZ1wVymTfLQLZ89d1SteXYByVnyLUKPV61g7KKau568ALNxiiBUn6QoqAl8qQ2od-_GHkfBDe71s2AXd3vvNj0C1N44H", "width": 4032}], "place_id": "ChIJKzw4Rgk8RUgRfejNSb2g3vw", "plus_code": {"compound_code": "3F5V+CQ Killarney, County Kerry, Ireland", "global_code": "9C4G3F5V+CQ"}, "price_level": 2, "rating": 4.1, "reference": "ChIJKzw4Rgk8RUgRfejNSb2g3vw", "scope": "GOOGLE", "types": ["meal_delivery", "meal_takeaway", "restaurant", "food", "point_of_interest", "establishment"], "user_ratings_total": 320, "vicinity": "Unit 6B Scotts St, East Ave, Killarney"}, {"business_status": "OPERATIONAL", "geometry": {"location": {"lat": 52.0586721, "lng": -9.5112442}, "viewport": {"northeast": {"lat": 52.05988742989272, "lng": -9.509955320107279}, "southwest": {"lat": 52.05718777010728, "lng": -9.512654979892723}}}, "icon": "https://maps.gstatic.com/mapfiles/place_api/icons/v1/png_71/restaurant-71.png", "icon_background_color": "#FF9E67", "icon_mask_base_uri": "https://maps.gstatic.com/mapfiles/place_api/icons/v2/restaurant_pinlet", "name": "Piccolo Pizza", "opening_hours": {"open_now": false}, "photos": [{"height": 4032, "html_attributions": ["<a href=\"https://maps.google.com/maps/contrib/110978801427893487988\">A Google User</a>"], "photo_reference": "AUc7tXVYYuZN3cco4sjRVC6GsrrobcD8bStlcXCWdgDcYA7alczskkVc0XkwDnYtyRMbcQVeBO-vl0c8n3i9TYYboKzk3f_hl4ATnYOps6pmPZJf6G76QKFDKBilKsoCxmI7XlxRqPNUWoJayhm0YMR84n3bzuJtNwZznoOQvXcHAJBEsxRe", "width": 3024}], "place_id": "ChIJi0EsAwY8RUgROIfuPmHApv0", "plus_code": {"compound_code": "3F5Q+FG Killarney, County Kerry, Ireland", "global_code": "9C4G3F5Q+FG"}, "price_level": 2, "rating": 4.7, "reference": "ChIJi0EsAwY8RUgROIfuPmHApv0", "scope": "GOOGLE", "types": ["restaurant", "food", "point_of_interest", "establishment"], "user_ratings_total": 250, "vicinity": "Piccolo Pizza, 91 New St, Killarney"}]