[{"business_status": "OPERATIONAL", "geometry": {"location": {"lat": 48.8528501, "lng": 2.3388301}, "viewport": {"northeast": {"lat": 48.85419757989272, "lng": 2.340166729892722}, "southwest": {"lat": 48.85149792010728, "lng": 2.337467070107278}}}, "icon": "https://maps.gstatic.com/mapfiles/place_api/icons/v1/png_71/bar-71.png", "icon_background_color": "#FF9E67", "icon_mask_base_uri": "https://maps.gstatic.com/mapfiles/place_api/icons/v2/bar_pinlet", "name": "PUB St GERMAIN", "opening_hours": {"open_now": true}, "photos": [{"height": 2268, "html_attributions": ["<a href=\"https://maps.google.com/maps/contrib/115352636738166082187\">Cindy Marais</a>"], "photo_reference": "AUGGfZk2mstaFpHPDUmBSN72BmsE7UtFtERres6gaFnvgXwtjm8uBoWwEbl7EsiV0tr8O4IJUrzmf9DlEGSvpGoGmk1XnkvwSZSmPQrzLLiJOwWfOE9mjB893RQ61IYsT4DHspyuwsw9baabgbK4Xl-mgOoy7guSQ56ssEiZwB50UNhXVfkL", "width": 4032}], "place_id": "ChIJy_qyzt5x5kcRGsixM4SWxoY", "plus_code": {"compound_code": "V83Q+4H Paris, France", "global_code": "8FW4V83Q+4H"}, "price_level": 2, "rating": 4.5, "reference": "ChIJy_qyzt5x5kcRGsixM4SWxoY", "scope": "GOOGLE", "types": ["bar", "restaurant", "food", "point_of_interest", "establishment"], "user_ratings_total": 4304, "vicinity": "17 Rue de l'Ancienne Com\u00e9die, Paris"}, {"business_status": "OPERATIONAL", "geometry": {"location": {"lat": 48.84579670000001, "lng": 2.3539644}, "viewport": {"northeast": {"lat": 48.84717612989273, "lng": 2.355307529892722}, "southwest": {"lat": 48.84447647010728, "lng": 2.352607870107278}}}, "icon": "https://maps.gstatic.com/mapfiles/place_api/icons/v1/png_71/bar-71.png", "icon_background_color": "#FF9E67", "icon_mask_base_uri": "https://maps.gstatic.com/mapfiles/place_api/icons/v2/bar_pinlet", "name": "Baker Street Pub", "opening_hours": {"open_now": true}, "photos": [{"height": 2268, "html_attributions": ["<a href=\"https://maps.google.com/maps/contrib/112136114751748552379\">Julien Condom</a>"], "photo_reference": "AUGGfZkTpokUsH3Obc_Nz-0VoKDk_QWmsGl6SRBh0NLWz22bckflZ1yEyZQeBgH_eU5LngYvhT0XuO8xTgT-Wt6QDTNdNbQhZsUjEua80MFQKCn0mXIH4k29ddFIjgf4tYIUGUkCcDq_v579N414Ht-wXE9A7G_8N031fiOc5t3bRoQU47uf", "width": 4032}], "place_id": "ChIJT7IB9-9x5kcRBdOba3TC3u8", "plus_code": {"compound_code": "R9W3+8H Paris, France", "global_code": "8FW4R9W3+8H"}, "price_level": 2, "rating": 4.4, "reference": "ChIJT7IB9-9x5kcRBdOba3TC3u8", "scope": "GOOGLE", "types": ["bar", "point_of_interest", "establishment"], "user_ratings_total": 628, "vicinity": "9 Rue des Boulangers, Paris"}, {"business_status": "OPERATIONAL", "geometry": {"location": {"lat": 48.8553434, "lng": 2.3591323}, "viewport": {"northeast": {"lat": 48.85673607989273, "lng": 2.360462529892723}, "southwest": {"lat": 48.85403642010728, "lng": 2.357762870107278}}}, "icon": "https://maps.gstatic.com/mapfiles/place_api/icons/v1/png_71/bar-71.png", "icon_background_color": "#FF9E67", "icon_mask_base_uri": "https://maps.gstatic.com/mapfiles/place_api/icons/v2/bar_pinlet", "name": "The Auld Alliance", "opening_hours": {"open_now": true}, "photos": [{"height": 1944, "html_attributions": ["<a href=\"https://maps.google.com/maps/contrib/105902944581320182498\">The Auld Alliance</a>"], "photo_reference": "AUGGfZlWnTlGuNX4kJxnEbjGiGfSfzEEFbVeld5Z2WLLZkHQUvAnvJzNsf_PPS5xCrNeNmqowLgtguFc72qArrlDSVOHHDq_3gaY4jMyoc-RWhZxWuRLGX8cAbcBroP86CYGYrTXfXQzUBUUprITulOo44cnaFrEZSfc8n9WXPdsrlL_fz1V", "width": 2896}], "place_id": "ChIJ0Q7tj_1x5kcR-M7FGSl4giI", "plus_code": {"compound_code": "V945+4M Paris, France", "global_code": "8FW4V945+4M"}, "price_level": 2, "rating": 4.2, "reference": "ChIJ0Q7tj_1x5kcR-M7FGSl4giI", "scope": "GOOGLE", "types": ["bar", "point_of_interest", "establishment"], "user_ratings_total": 1023, "vicinity": "80 Rue Fran\u00e7ois Miron, Paris"}, {"business_status": "OPERATIONAL", "geometry": {"location": {"lat": 48.8560327, "lng": 2.3396896}, "viewport": {"northeast": {"lat": 48.85738432989272, "lng": 2.341150579892723}, "southwest": {"lat": 48.85468467010728, "lng": 2.338450920107278}}}, "icon": "https://maps.gstatic.com/mapfiles/place_api/icons/v1/png_71/bar-71.png", "icon_background_color": "#FF9E67", "icon_mask_base_uri": "https://maps.gstatic.com/mapfiles/place_api/icons/v2/bar_pinlet", "name": "The Highlander", "opening_hours": {"open_now": true}, "photos": [{"height": 3646, "html_attributions": ["<a href=\"https://maps.google.com/maps/contrib/113937294926673606737\">The Highlander</a>"], "photo_reference": "AUGGfZmiKax-6w1U4OKdJ8i55HeyXgvhbmnxjvW5lZDWDfG0oYL-Rb-9RG9gN1vENpqb67u2qnzxRT8M3694Mw7_CkQfVY-0rBm24uQuXeyVycCMKqOapT--CVeOna-uXD6BCD5qZKAWv2Plyhd7D-Hi9gP6OTIwegc9s0S4iSzvRkEBIBJB", "width": 5470}], "place_id": "ChIJfT8WXN9x5kcRRrvWCbACyzA", "plus_code": {"compound_code": "V84Q+CV Paris, France", "global_code": "8FW4V84Q+CV"}, "price_level": 2, "rating": 4.4, "reference": "ChIJfT8WXN9x5kcRRrvWCbACyzA", "scope": "GOOGLE", "types": ["bar", "point_of_interest", "establishment"], "user_ratings_total": 1616, "vicinity": "8 Rue de Nevers, Paris"}, {"business_status": "OPERATIONAL", "geometry": {"location": {"lat": 48.85052049999999, "lng": 2.3489995}, "viewport": {"northeast": {"lat": 48.85184667989272, "lng": 2.350285129892722}, "southwest": {"lat": 48.84914702010727, "lng": 2.347585470107278}}}, "icon": "https://maps.gstatic.com/mapfiles/place_api/icons/v1/png_71/bar-71.png", "icon_background_color": "#FF9E67", "icon_mask_base_uri": "https://maps.gstatic.com/mapfiles/place_api/icons/v2/bar_pinlet", "name": "The Long Hop", "opening_hours": {"open_now": true}, "photos": [{"height": 3024, "html_attributions": ["<a href=\"https://maps.google.com/maps/contrib/117878078346783952542\">Nato Scottaroo</a>"], "photo_reference": "AUGGfZmyYtnedNmrZsDx-M2--6DEQWv9QBujFWiL2XHiy8knL4NdsYHh20b-4yXhnNw6c9gkmVBTZwahRGRAauzeKKbcNLfkPT9oxoXDQkTRjhuDDz1FnZAGSFPbqnGt3ZWzQI10IzHjcDQoO4PwWdPAt6pdD2IPgDccabW1l0oALsV0NZ3b", "width": 4032}], "place_id": "ChIJ2VSRr-Zx5kcRsy5bO-HbFgM", "plus_code": {"compound_code": "V82X+6J Paris, France", "global_code": "8FW4V82X+6J"}, "price_level": 2, "rating": 4.2, "reference": "ChIJ2VSRr-Zx5kcRsy5bO-HbFgM", "scope": "GOOGLE", "types": ["bar", "restaurant", "food", "point_of_interest", "establishment"], "user_ratings_total": 1529, "vicinity": "25 Rue Fr\u00e9d\u00e9ric Sauton, Paris"}, {"business_status": "OPERATIONAL", "geometry": {"location": {"lat": 48.8732134, "lng": 2.3241585}, "viewport": {"northeast": {"lat": 48.87458797989272, "lng": 2.325530729892722}, "southwest": {"lat": 48.87188832010727, "lng": 2.322831070107277}}}, "icon": "https://maps.gstatic.com/mapfiles/place_api/icons/v1/png_71/bar-71.png", "icon_background_color": "#FF9E67", "icon_mask_base_uri": "https://maps.gstatic.com/mapfiles/place_api/icons/v2/bar_pinlet", "name": "The Cricketer", "opening_hours": {"open_now": true}, "photos": [{"height": 3024, "html_attributions": ["<a href=\"https://maps.google.com/maps/contrib/105129235294208350902\">A Google User</a>"], "photo_reference": "AUGGfZnRpv4QwX22MtgKsWqoxh3F4hyee56QZRypH9OvLXF9rNbz6lpX3lUmXZ8Ff3dU3ttsVQKJOCHoJyy17aA4xFMUerGTPndzjR3LePrI1I4aSI-mI0Qh12LemFw5KJBDM6wlh2h-uEh46zeNjRSL4m3r-gSeYmt5XfRZrXTCBEO0xDt2", "width": 4032}], "place_id": "ChIJO08KxjRu5kcRlfvf3yjgd2I", "plus_code": {"compound_code": "V8FF+7J Paris, France", "global_code": "8FW4V8FF+7J"}, "price_level": 2, "rating": 4.3, "reference": "ChIJO08KxjRu5kcRlfvf3yjgd2I", "scope": "GOOGLE", "types": ["bar", "point_of_interest", "establishment"], "user_ratings_total": 893, "vicinity": "41 Rue des Mathurins, Paris"}, {"business_status": "OPERATIONAL", "geometry": {"location": {"lat": 48.8542692, "lng": 2.3428733}, "viewport": {"northeast": {"lat": 48.85558442989272, "lng": 2.344335629892722}, "southwest": {"lat": 48.85288477010728, "lng": 2.341635970107278}}}, "icon": "https://maps.gstatic.com/mapfiles/place_api/icons/v1/png_71/bar-71.png", "icon_background_color": "#FF9E67", "icon_mask_base_uri": "https://maps.gstatic.com/mapfiles/place_api/icons/v2/bar_pinlet", "name": "The Great Canadian Pub", "opening_hours": {"open_now": true}, "photos": [{"height": 2476, "html_attributions": ["<a href=\"https://maps.google.com/maps/contrib/104873836389579070300\">LimiTs</a>"], "photo_reference": "AUGGfZmLYkHOgX49ijZvSuRD6Zxe7tzwsNl6KK-WwluJNE4iUjoZV9JUf6Cn3xVHx2vE2uGDQrbrs-iBOIhYsTCNCnpI3g7w0ww7dxbMgJmi7ni8lCjcd7buP1YotzKiZxMKOOvyPBTYbPpIxLLg-2ElHupHle7nge1DGZ3g22sv2-R--5NO", "width": 5010}], "place_id": "ChIJL7rqyN9x5kcRk59hv935rB0", "plus_code": {"compound_code": "V83V+P4 Paris, France", "global_code": "8FW4V83V+P4"}, "price_level": 2, "rating": 4.1, "reference": "ChIJL7rqyN9x5kcRk59hv935rB0", "scope": "GOOGLE", "types": ["bar", "restaurant", "food", "point_of_interest", "establishment"], "user_ratings_total": 2123, "vicinity": "25 Quai des Grands Augustins, Paris"}, {"business_status": "OPERATIONAL", "geometry": {"location": {"lat": 48.85335, "lng": 2.3455151}, "viewport": {"northeast": {"lat": 48.85474987989272, "lng": 2.346830929892723}, "southwest": {"lat": 48.85205022010727, "lng": 2.344131270107278}}}, "icon": "https://maps.gstatic.com/mapfiles/place_api/icons/v1/png_71/bar-71.png", "icon_background_color": "#FF9E67", "icon_mask_base_uri": "https://maps.gstatic.com/mapfiles/place_api/icons/v2/bar_pinlet", "name": "Pub Saint-Michel", "opening_hours": {"open_now": true}, "photos": [{"height": 1080, "html_attributions": ["<a href=\"https://maps.google.com/maps/contrib/105488646378219020026\">Boo Gaming</a>"], "photo_reference": "AUGGfZlDYW0bWIWHBwt5iIa02E28funTlTFpJ4sEE6DbUm0SvxemZuQcS8YG_uAFGK9sNYiE7XKopaKPkqY8cZ29tWLn0yQGv6Uy5q31qbJ0g9ySdQbsmOQA-Up86y-7jkcr_UJDt2ktYRKJIuWYz5YiF73VdLUG2GLgzHbt7Q415Z7vefNc", "width": 1920}], "place_id": "ChIJKbUtiuBx5kcRfNAOkxa3U7o", "plus_code": {"compound_code": "V83W+86 Paris, France", "global_code": "8FW4V83W+86"}, "price_level": 2, "rating": 4, "reference": "ChIJKbUtiuBx5kcRfNAOkxa3U7o", "scope": "GOOGLE", "types": ["bar", "restaurant", "food", "point_of_interest", "establishment"], "user_ratings_total": 1286, "vicinity": "19 Quai Saint-Michel, Paris"}, {"business_status": "OPERATIONAL", "geometry": {"location": {"lat": 48.8484156, "lng": 2.3405129}, "viewport": {"northeast": {"lat": 48.84978192989272, "lng": 2.341943479892722}, "southwest": {"lat": 48.84708227010728, "lng": 2.339243820107277}}}, "icon": "https://maps.gstatic.com/mapfiles/place_api/icons/v1/png_71/bar-71.png", "icon_background_color": "#FF9E67", "icon_mask_base_uri": "https://maps.gstatic.com/mapfiles/place_api/icons/v2/bar_pinlet", "name": "Pub O'Prince", "opening_hours": {"open_now": true}, "photos": [{"height": 4032, "html_attributions": ["<a href=\"https://maps.google.com/maps/contrib/110020922099165569447\">Tracey K Denholm</a>"], "photo_reference": "AUGGfZl4UqLgbxIle0HrN3-sx2vPn_fbZuRTFCnT2NfmeqaP7MutJHkeNS9PzK0AVCsc2Br-enMKHG0iiIUymRSwrrjn8gO7wn0jm6fIL5uQhXnRm8M6R5aNR8Yd7MWH7bGHs_EifYG1hucPuBRcq-Ak9aS8gq9XNbbpZxsqhy0TpbYy061R", "width": 3024}], "place_id": "ChIJsRVH-dxx5kcRN-V5vBOYljg", "plus_code": {"compound_code": "R8XR+96 Paris, France", "global_code": "8FW4R8XR+96"}, "price_level": 2, "rating": 4.6, "reference": "ChIJsRVH-dxx5kcRN-V5vBOYljg", "scope": "GOOGLE", "types": ["bar", "night_club", "restaurant", "food", "point_of_interest", "establishment"], "user_ratings_total": 317, "vicinity": "52 Rue Monsieur le Prince, Paris"}, {"business_status": "OPERATIONAL", "geometry": {"location": {"lat": 48.8765647, "lng": 2.3231303}, "viewport": {"northeast": {"lat": 48.87794497989272, "lng": 2.324611029892722}, "southwest": {"lat": 48.87524532010728, "lng": 2.321911370107277}}}, "icon": "https://maps.gstatic.com/mapfiles/place_api/icons/v1/png_71/bar-71.png", "icon_background_color": "#FF9E67", "icon_mask_base_uri": "https://maps.gstatic.com/mapfiles/place_api/icons/v2/bar_pinlet", "name": "PUB 27", "opening_hours": {"open_now": true}, "photos": [{"height": 3456, "html_attributions": ["<a href=\"https://maps.google.com/maps/contrib/114407108451564153609\">Gilles Dupont</a>"], "photo_reference": "AUGGfZkHQvA_0M1UCYDcAaFnV-IcsGs8XZAYE1vbLCF-qgr5HP5AP1_HcF18BPD3nLD7rQPN0B4cxOVZI1OaE0Zp7TvgezUpjKCZRO9UPL9LnRhNFiDapLCQG8Z1uYuPnR9PgMMc4pQ-kaFuNlXkuAZPNblF3nUBucJy3kFjH001wMEpAmG1", "width": 4608}], "place_id": "ChIJsfjnqMpv5kcRwQVHm6CLavM", "plus_code": {"compound_code": "V8GF+J7 Paris, France", "global_code": "8FW4V8GF+J7"}, "price_level": 2, "rating": 4.1, "reference": "ChIJsfjnqMpv5kcRwQVHm6CLavM", "scope": "GOOGLE", "types": ["bar", "restaurant", "food", "point_of_interest", "establishment"], "user_ratings_total": 581, "vicinity": "27 Rue de Rome, Paris"}, {"business_status": "OPERATIONAL", "geometry": {"location": {"lat": 48.8550214, "lng": 2.3626661}, "viewport": {"northeast": {"lat": 48.85637282989272, "lng": 2.364009379892722}, "southwest": {"lat": 48.85367317010728, "lng": 2.361309720107277}}}, "icon": "https://maps.gstatic.com/mapfiles/place_api/icons/v1/png_71/bar-71.png", "icon_background_color": "#FF9E67", "icon_mask_base_uri": "https://maps.gstatic.com/mapfiles/place_api/icons/v2/bar_pinlet", "name": "The Pub", "opening_hours": {"open_now": true}, "photos": [{"height": 3024, "html_attributions": ["<a href=\"https://maps.google.com/maps/contrib/102274741567931375691\">A Google User</a>"], "photo_reference": "AUGGfZnkW5C35TEEYpn3vu6d5aJ6l1sNxgBFkCU5dA66o_PG-4eAkJdiLR33KacqBycc3sGTvTDKNph6ReE_XGvKnLrIn5TNUAfjJkK3gXVIx4kpMT8Dxd8LmIb9erZ7lSFtkHjfSFZBSPZO15NVWm9m1Ml515jUkUuYt_gD34Mb7x2x3Sk0", "width": 4032}], "place_id": "ChIJe4AnJBVx5kcRahbrHUVt2r4", "plus_code": {"compound_code": "V947+23 Paris, France", "global_code": "8FW4V947+23"}, "rating": 5, "reference": "ChIJe4AnJBVx5kcRahbrHUVt2r4", "scope": "GOOGLE", "types": ["bar", "point_of_interest", "establishment"], "user_ratings_total": 143, "vicinity": "4 Rue Caron, Paris"}, {"business_status": "OPERATIONAL", "geometry": {"location": {"lat": 48.8539569, "lng": 2.3435894}, "viewport": {"northeast": {"lat": 48.85534777989271, "lng": 2.344980529892722}, "southwest": {"lat": 48.85264812010727, "lng": 2.342280870107277}}}, "icon": "https://maps.gstatic.com/mapfiles/place_api/icons/v1/png_71/bar-71.png", "icon_background_color": "#FF9E67", "icon_mask_base_uri": "https://maps.gstatic.com/mapfiles/place_api/icons/v2/bar_pinlet", "name": "Galway Irish Pub", "opening_hours": {"open_now": true}, "photos": [{"height": 3000, "html_attributions": ["<a href=\"https://maps.google.com/maps/contrib/107489367030167933908\">Augustin 13</a>"], "photo_reference": "AUGGfZlLTFfCiWhvjKW0rehFXCNsB63jcz1jb_bQ4rW-ZeT8zNGIUGbwOnf1jTusG21zvO1-3d0JcWhQ295pJSPkSCw0lxa9WdY-0ROkBNzIi7Xzd3_ghSvGhi35tDpoY3cCABZ47HUBp8D-9l80gJ-yES2hyI7Bu8xxFI3_jbDrQ8oWLkt-", "width": 4512}], "place_id": "ChIJqd6Ezd9x5kcRoceJxMkitQ0", "plus_code": {"compound_code": "V83V+HC Paris, France", "global_code": "8FW4V83V+HC"}, "price_level": 2, "rating": 4.4, "reference": "ChIJqd6Ezd9x5kcRoceJxMkitQ0", "scope": "GOOGLE", "types": ["bar", "restaurant", "food", "point_of_interest", "establishment"], "user_ratings_total": 1700, "vicinity": "13 Quai des Grands Augustins, Paris"}, {"business_status": "OPERATIONAL", "geometry": {"location": {"lat": 48.85955260000001, "lng": 2.3483578}, "viewport": {"northeast": {"lat": 48.86093787989272, "lng": 2.349933779892722}, "southwest": {"lat": 48.85823822010727, "lng": 2.347234120107277}}}, "icon": "https://maps.gstatic.com/mapfiles/place_api/icons/v1/png_71/bar-71.png", "icon_background_color": "#FF9E67", "icon_mask_base_uri": "https://maps.gstatic.com/mapfiles/place_api/icons/v2/bar_pinlet", "name": "Temple Rock Tavern", "opening_hours": {"open_now": true}, "photos": [{"height": 1200, "html_attributions": ["<a href=\"https://maps.google.com/maps/contrib/117664043837024164013\">A Google User</a>"], "photo_reference": "AUGGfZmAf3FXTM1S3BNiWoz5Eb2LZMPuYOe0eJXTSzb4esdU4zEaZGPHPhg9555CbXWLcl8r_BfR2FpMdLEQLQFHwLdj5-3uaHTAM-cKYdq4hmSWfGmJ9jN7MEjd6odeyqcaN6eTT9tWgHNl1-EDxLne_vnk-xoSApEe8P0ig3YrCf958asc", "width": 1600}], "place_id": "ChIJ451g7B5u5kcR-QIvF7BC1kI", "plus_code": {"compound_code": "V85X+R8 Paris, France", "global_code": "8FW4V85X+R8"}, "price_level": 2, "rating": 4.1, "reference": "ChIJ451g7B5u5kcR-QIvF7BC1kI", "scope": "GOOGLE", "types": ["bar", "restaurant", "food", "point_of_interest", "establishment"], "user_ratings_total": 3094, "vicinity": "31bis Rue des Lombards, Paris"}, {"business_status": "OPERATIONAL", "geometry": {"location": {"lat": 48.8610218, "lng": 2.348915}, "viewport": {"northeast": {"lat": 48.86228787989273, "lng": 2.350517279892722}, "southwest": {"lat": 48.85958822010728, "lng": 2.347817620107278}}}, "icon": "https://maps.gstatic.com/mapfiles/place_api/icons/v1/png_71/bar-71.png", "icon_background_color": "#FF9E67", "icon_mask_base_uri": "https://maps.gstatic.com/mapfiles/place_api/icons/v2/bar_pinlet", "name": "McBrides Irish Pub", "opening_hours": {"open_now": true}, "photos": [{"height": 1365, "html_attributions": ["<a href=\"https://maps.google.com/maps/contrib/105243763447646187580\">McBrides Irish Pub</a>"], "photo_reference": "AUGGfZk1esfquWmPA3qrTpWVhshDlj1PXfce8qJZ4hn8JjSbPv4rEUl-HjPgEFo3NMcwj4DJJ2qpv85N278_Q2g9jJE4pWd8HeH-hysNeR_tol5cRrVuiG7AGhKdBFpqxtXWPcbDa8Dkro-vyuWQ1D4gUOWrLdUig6cOmzIeBT4FyAhKm7_3", "width": 2048}], "place_id": "ChIJtXZUyh5u5kcRnGJqrOnyif0", "plus_code": {"compound_code": "V86X+CH Paris, France", "global_code": "8FW4V86X+CH"}, "price_level": 2, "rating": 4, "reference": "ChIJtXZUyh5u5kcRnGJqrOnyif0", "scope": "GOOGLE", "types": ["bar", "restaurant", "food", "point_of_interest", "establishment"], "user_ratings_total": 1839, "vicinity": "54 Rue St Denis, Paris"}, {"business_status": "OPERATIONAL", "geometry": {"location": {"lat": 48.8573551, "lng": 2.3496389}, "viewport": {"northeast": {"lat": 48.85866457989273, "lng": 2.351032579892722}, "southwest": {"lat": 48.85596492010728, "lng": 2.348332920107278}}}, "icon": "https://maps.gstatic.com/mapfiles/place_api/icons/v1/png_71/bar-71.png", "icon_background_color": "#FF9E67", "icon_mask_base_uri": "https://maps.gstatic.com/mapfiles/place_api/icons/v2/bar_pinlet", "name": "The Green Linnet", "opening_hours": {"open_now": true}, "photos": [{"height": 3024, "html_attributions": ["<a href=\"https://maps.google.com/maps/contrib/105261057084834579055\">A Google User</a>"], "photo_reference": "AUGGfZkJzYUgozKWigG-1CLQo35Olq1NlJN4pIcUX6-uUG54l-mEYQ_c-TN2HCa5X4a3cuGEEwD2GvOUttAny3T0b_MiIKjWWTGGj2Srb43ZmMbx2hb8O86HrFAFGu6oMtoma-uEW9IjyY_U-l8H0JKfUWzKZXu9hN06S4vbK3oOBU2dBEI-", "width": 4032}], "place_id": "ChIJF8zPDB5u5kcRmBaLg05zaG4", "plus_code": {"compound_code": "V84X+WV Paris, France", "global_code": "8FW4V84X+WV"}, "price_level": 1, "rating": 4.2, "reference": "ChIJF8zPDB5u5kcRmBaLg05zaG4", "scope": "GOOGLE", "types": ["bar", "restaurant", "food", "point_of_interest", "establishment"], "user_ratings_total": 792, "vicinity": "8 Av. Victoria, Paris"}, {"business_status": "OPERATIONAL", "geometry": {"location": {"lat": 48.844872, "lng": 2.3498725}, "viewport": {"northeast": {"lat": 48.84620357989272, "lng": 2.351148479892722}, "southwest": {"lat": 48.84350392010727, "lng": 2.348448820107278}}}, "icon": "https://maps.gstatic.com/mapfiles/place_api/icons/v1/png_71/bar-71.png", "icon_background_color": "#FF9E67", "icon_mask_base_uri": "https://maps.gstatic.com/mapfiles/place_api/icons/v2/bar_pinlet", "name": "Rollin's Pub", "opening_hours": {"open_now": true}, "photos": [{"height": 3000, "html_attributions": ["<a href=\"https://maps.google.com/maps/contrib/116640909208538765850\">Peter Lacres</a>"], "photo_reference": "AUGGfZkFnYfhfyx5Xb7VD-dtq2AWog4aS7x-gJf4XYEicesFxlXC2rBySBwbaLXZZKmj0Xo4EtrY-ZRAYw5wScIt5btJTyujtG2LoCmMk0kuSRXWXZ4Gws5HW2c0SnNX6ewN3RXvVpmZYKQTt9ZrcJCIsRbk8cxLzVCy95jpC98x6_BDJaKg", "width": 4000}], "place_id": "ChIJBRnfR-9x5kcRdz8YVHRZnSQ", "plus_code": {"compound_code": "R8VX+WW Paris, France", "global_code": "8FW4R8VX+WW"}, "price_level": 2, "rating": 4.1, "reference": "ChIJBRnfR-9x5kcRdz8YVHRZnSQ", "scope": "GOOGLE", "types": ["bar", "restaurant", "food", "point_of_interest", "establishment"], "user_ratings_total": 393, "vicinity": "18 Rue Rollin, Paris"}, {"business_status": "OPERATIONAL", "geometry": {"location": {"lat": 48.8471571, "lng": 2.3485502}, "viewport": {"northeast": {"lat": 48.84850632989272, "lng": 2.349943679892722}, "southwest": {"lat": 48.84580667010728, "lng": 2.347244020107278}}}, "icon": "https://maps.gstatic.com/mapfiles/place_api/icons/v1/png_71/bar-71.png", "icon_background_color": "#FF9E67", "icon_mask_base_uri": "https://maps.gstatic.com/mapfiles/place_api/icons/v2/bar_pinlet", "name": "Hurling Pub", "opening_hours": {"open_now": true}, "photos": [{"height": 2976, "html_attributions": ["<a href=\"https://maps.google.com/maps/contrib/110704475668457644635\">Gaetan Van Delft</a>"], "photo_reference": "AUGGfZlL1VyY8XphsoNPzkD4_1mqQeNrN8ZWCihkXlomgZQQXJNqDCSfvU1pxHFed3ayovYCIKfcn02ZAXwdVz_xnlncKSe4WfOmuau_cir0jcshgowkZERULPHtEZ30FTiXMcxwQSS5IgK6FmuioK_XdOvHK93aMJ4C-EhN_73peoNlzXw", "width": 3968}], "place_id": "ChIJZT99EuZx5kcRVigcsg_9hTg", "plus_code": {"compound_code": "R8WX+VC Paris, France", "global_code": "8FW4R8WX+VC"}, "price_level": 2, "rating": 4.4, "reference": "ChIJZT99EuZx5kcRVigcsg_9hTg", "scope": "GOOGLE", "types": ["bar", "point_of_interest", "establishment"], "user_ratings_total": 606, "vicinity": "8 Rue Descartes, Paris"}, {"business_status": "OPERATIONAL", "geometry": {"location": {"lat": 48.8522313, "lng": 2.3344077}, "viewport": {"northeast": {"lat": 48.85358882989271, "lng": 2.335813179892722}, "southwest": {"lat": 48.85088917010727, "lng": 2.333113520107278}}}, "icon": "https://maps.gstatic.com/mapfiles/place_api/icons/v1/png_71/bar-71.png", "icon_background_color": "#FF9E67", "icon_mask_base_uri": "https://maps.gstatic.com/mapfiles/place_api/icons/v2/bar_pinlet", "name": "Little Temple Bar", "opening_hours": {"open_now": true}, "photos": [{"height": 667, "html_attributions": ["<a href=\"https://maps.google.com/maps/contrib/104899328881623237251\">Little temple Bar</a>"], "photo_reference": "AUGGfZkeUikVDWWtPpsz6pKgj5CVXWnoeFwKYg4SA4ucfBmIeIDp4m6hJJrI_Qo7Y_NCTroUCUgZ8nX8q6LlbQuP-y9konfWBIidI2V_9fwZH95l0-Njb4xJxv7VoPxIJM1ODAOg1FgX7-2dSSxp5YYClGnPuETDdPNDbjG_Sy4tp0EM6xsa", "width": 1000}], "place_id": "ChIJK0-HlNlx5kcRMQtyHERHxj0", "plus_code": {"compound_code": "V82M+VQ Paris, France", "global_code": "8FW4V82M+VQ"}, "price_level": 2, "rating": 4.3, "reference": "ChIJK0-HlNlx5kcRMQtyHERHxj0", "scope": "GOOGLE", "types": ["bar", "restaurant", "food", "point_of_interest", "establishment"], "user_ratings_total": 724, "vicinity": "12 Rue Princesse, Paris"}, {"business_status": "OPERATIONAL", "geometry": {"location": {"lat": 48.861452, "lng": 2.3641423}, "viewport": {"northeast": {"lat": 48.86278542989272, "lng": 2.365503279892722}, "southwest": {"lat": 48.86008577010728, "lng": 2.362803620107277}}}, "icon": "https://maps.gstatic.com/mapfiles/place_api/icons/v1/png_71/bar-71.png", "icon_background_color": "#FF9E67", "icon_mask_base_uri": "https://maps.gstatic.com/mapfiles/place_api/icons/v2/bar_pinlet", "name": "The Cambridge Public House", "opening_hours": {"open_now": true}, "photos": [{"height": 4320, "html_attributions": ["<a href=\"https://maps.google.com/maps/contrib/115271195823960384495\">A Google User</a>"], "photo_reference": "AUGGfZnodLE5v_nv1horIKHdKLTAfQvN_mdIEggi6lR6SomvEZWpNtAt8sY4ryDCHdCusP0TQfxGeXBuiCR5mIHL_KYbbbstHxNwVrXZtlOLdRUKjFEDRhKb39lnzzk08A3BKGF5NFpwN6pT0PJoMY0Mbm5wZbnQx2t9Xd45aZg3A0fNFZdT", "width": 6477}], "place_id": "ChIJf1PlS6hv5kcRfxnt_fDSpyE", "plus_code": {"compound_code": "V967+HM Paris, France", "global_code": "8FW4V967+HM"}, "price_level": 2, "rating": 4.8, "reference": "ChIJf1PlS6hv5kcRfxnt_fDSpyE", "scope": "GOOGLE", "types": ["bar", "point_of_interest", "establishment"], "user_ratings_total": 636, "vicinity": "8 Rue de Poitou, Paris"}, {"business_status": "OPERATIONAL", "geometry": {"location": {"lat": 48.8468589, "lng": 2.3477011}, "viewport": {"northeast": {"lat": 48.84817292989273, "lng": 2.349021679892723}, "southwest": {"lat": 48.84547327010728, "lng": 2.346322020107278}}}, "icon": "https://maps.gstatic.com/mapfiles/place_api/icons/v1/png_71/bar-71.png", "icon_background_color": "#FF9E67", "icon_mask_base_uri": "https://maps.gstatic.com/mapfiles/place_api/icons/v2/bar_pinlet", "name": "The Bombardier English Pub Paris", "opening_hours": {"open_now": true}, "photos": [{"height": 3024, "html_attributions": ["<a href=\"https://maps.google.com/maps/contrib/105943473679349438650\">Johnny Fakhry</a>"], "photo_reference": "AUGGfZnD7CVxFbWCXAwawcRDUwPxISKCotTTUYdYx8W2aa-AEeTCBaO9ujyNT8owhTHAj0kF9aKW2YvbMmc2sLULiRv5rPOkjr0QNFI8kyrl93M2NpSs83Xx8Xphdm9BpEthTGEeID7PrW-BllDEpbEM0F0cErgUzIrucIjHpOPARbycBgFy", "width": 4032}], "place_id": "ChIJFdMXPeZx5kcRH0WDxmuFT2s", "plus_code": {"compound_code": "R8WX+P3 Paris, France", "global_code": "8FW4R8WX+P3"}, "price_level": 2, "rating": 4.4, "reference": "ChIJFdMXPeZx5kcRH0WDxmuFT2s", "scope": "GOOGLE", "types": ["bar", "restaurant", "food", "point_of_interest", "establishment"], "user_ratings_total": 2134, "vicinity": "Place du Pantheon, 2 Pl. du Panth\u00e9on, Paris"}]