[{"business_status": "OPERATIONAL", "geometry": {"location": {"lat": 53.5495627, "lng": 9.9940295}, "viewport": {"northeast": {"lat": 53.55088587989272, "lng": 9.99539542989272}, "southwest": {"lat": 53.54818622010728, "lng": 9.992695770107277}}}, "icon": "https://maps.gstatic.com/mapfiles/place_api/icons/v1/png_71/bar-71.png", "icon_background_color": "#FF9E67", "icon_mask_base_uri": "https://maps.gstatic.com/mapfiles/place_api/icons/v2/bar_pinlet", "name": "Paddy's Bar", "opening_hours": {"open_now": true}, "photos": [{"height": 3024, "html_attributions": ["<a href=\"https://maps.google.com/maps/contrib/115351399376830072177\">Chris T</a>"], "photo_reference": "AUGGfZmpo-Z-9KlLnXbIU4DKGcpWyWeCHhQKwI-6g6_MExO9W9_wqCnAGTebH8cCyU91ta0ZBW1ATdRIbGALKz5lWuXdX3jgEo1pvVluaHJUeG5NyoZTsTtUNDIMp9Oo544OTubF_EStTYRdh3pxK9sGDsRkhQGg_BWFww0e_y9NUj9BNb3C", "width": 4032}], "place_id": "ChIJX5h38RyPsUcR2K2f12WKWlM", "price_level": 2, "rating": 4.4, "reference": "ChIJX5h38RyPsUcR2K2f12WKWlM", "scope": "GOOGLE", "types": ["bar", "restaurant", "point_of_interest", "food", "establishment"], "user_ratings_total": 1438, "vicinity": "Schauenburgerstra\u00dfe 40, Hamburg"}, {"business_status": "OPERATIONAL", "geometry": {"location": {"lat": 53.5487372, "lng": 9.9923662}, "viewport": {"northeast": {"lat": 53.55011962989272, "lng": 9.993762029892721}, "southwest": {"lat": 53.54741997010728, "lng": 9.991062370107278}}}, "icon": "https://maps.gstatic.com/mapfiles/place_api/icons/v1/png_71/bar-71.png", "icon_background_color": "#FF9E67", "icon_mask_base_uri": "https://maps.gstatic.com/mapfiles/place_api/icons/v2/bar_pinlet", "name": "Irish Pub in the Fleetenkieker", "opening_hours": {"open_now": true}, "photos": [{"height": 3594, "html_attributions": ["<a href=\"https://maps.google.com/maps/contrib/103006387407651155720\">Dipl.Ing.Alexander.Lind</a>"], "photo_reference": "AUGGfZkNSsLnDXc8-sfXpequnCNxPCH0arBgaM04ltG9FU-WEQotBomkLwKzjQDKM40lLIyZJiXkqZN61L2ttmJWEXE7mrC586zHjIXn62_R-KpAFUS5ibyOpddCAqycrzEjz5Avmu73hn5c4RtVjnK8RaisNM4XPecIM2jsdl9E50KxSkXs", "width": 2696}], "place_id": "ChIJ3-WSohyPsUcRR_xnaGomk3c", "price_level": 2, "rating": 4.4, "reference": "ChIJ3-WSohyPsUcRR_xnaGomk3c", "scope": "GOOGLE", "types": ["bar", "restaurant", "point_of_interest", "food", "establishment"], "user_ratings_total": 2016, "vicinity": "B\u00f6rsenbr\u00fccke 10, Hamburg"}, {"business_status": "OPERATIONAL", "geometry": {"location": {"lat": 53.5507262, "lng": 9.980886199999999}, "viewport": {"northeast": {"lat": 53.55206212989272, "lng": 9.98206112989272}, "southwest": {"lat": 53.54936247010727, "lng": 9.979361470107277}}}, "icon": "https://maps.gstatic.com/mapfiles/place_api/icons/v1/png_71/bar-71.png", "icon_background_color": "#FF9E67", "icon_mask_base_uri": "https://maps.gstatic.com/mapfiles/place_api/icons/v2/bar_pinlet", "name": "The Irish Rover", "opening_hours": {"open_now": true}, "photos": [{"height": 2818, "html_attributions": ["<a href=\"https://maps.google.com/maps/contrib/102772769295637701430\">Petra Weniger</a>"], "photo_reference": "AUGGfZkOjK1sQte4Lt_1EMcsWQsHUQDrb1QaKS2HIAV0TCI0VWEEJ3f9UcfMc3cDouiE8aVRoF4WIoLmlabh_u7hMBtiQPtcZQpio2MyIreNbrUK0nVBPxscqY4waZsx3nTyDgsDADQQOURjaUGUSIMInLHXQLSztLofksEFaFpBxeBY84zc", "width": 3024}], "place_id": "ChIJEagorBGPsUcRjYL2NJBn0Co", "price_level": 2, "rating": 4.5, "reference": "ChIJEagorBGPsUcRjYL2NJBn0Co", "scope": "GOOGLE", "types": ["bar", "restaurant", "point_of_interest", "food", "establishment"], "user_ratings_total": 1395, "vicinity": "Gro\u00dfneumarkt 8, Hamburg"}, {"business_status": "OPERATIONAL", "geometry": {"location": {"lat": 53.5485457, "lng": 9.9613011}, "viewport": {"northeast": {"lat": 53.54986282989272, "lng": 9.962660529892721}, "southwest": {"lat": 53.54716317010728, "lng": 9.959960870107277}}}, "icon": "https://maps.gstatic.com/mapfiles/place_api/icons/v1/png_71/bar-71.png", "icon_background_color": "#FF9E67", "icon_mask_base_uri": "https://maps.gstatic.com/mapfiles/place_api/icons/v2/bar_pinlet", "name": "Murphy's Irish Pub", "opening_hours": {"open_now": true}, "photos": [{"height": 3968, "html_attributions": ["<a href=\"https://maps.google.com/maps/contrib/117150714171616060751\">Marian Mommer</a>"], "photo_reference": "AUGGfZlgU6afLAUqtUUPAw9tjds25er2taRMNyZXy-pnjdKYl7XP6ssKU-LmRcRhogSuEtynsXny0EspAMBh1C8_m071gQsb3YtjpSpgZW5hvhZnueeJXjVobeYzupFTjulyitNxDM-qEQTonE0Z8JFVYIG-8OmTGmRbLGIJv2RqiAjBiRBU", "width": 2976}], "place_id": "ChIJ08hiIHKPsUcRu7MG__YRF5U", "price_level": 2, "rating": 4.4, "reference": "ChIJ08hiIHKPsUcRu7MG__YRF5U", "scope": "GOOGLE", "types": ["bar", "restaurant", "point_of_interest", "food", "establishment"], "user_ratings_total": 1121, "vicinity": "Friedrichstra\u00dfe 24, Hamburg"}, {"business_status": "OPERATIONAL", "geometry": {"location": {"lat": 53.5712124, "lng": 10.0281435}, "viewport": {"northeast": {"lat": 53.57246607989272, "lng": 10.02958767989272}, "southwest": {"lat": 53.56976642010728, "lng": 10.02688802010727}}}, "icon": "https://maps.gstatic.com/mapfiles/place_api/icons/v1/png_71/bar-71.png", "icon_background_color": "#FF9E67", "icon_mask_base_uri": "https://maps.gstatic.com/mapfiles/place_api/icons/v2/bar_pinlet", "name": "Freundlich+kompetent Bar", "opening_hours": {"open_now": true}, "photos": [{"height": 3168, "html_attributions": ["<a href=\"https://maps.google.com/maps/contrib/116610171461953349811\">A Google User</a>"], "photo_reference": "AUGGfZmtbsMp5lMy1My1y_CUOr1jzXNJPkLgdtdtw81MafA5f14WGW6FOgh1ybfp6RYuGsCW-zY4vOOFh-lNP9m_yGq0HPWF2kl5GjDpyI1vnrauWNI2Y6miyJVZWQ5-u_m1nAtUKCmg8h73S6vhuFziblZUcF8DiDoofZyflv-mI83OtksX", "width": 4752}], "place_id": "ChIJf289yle7Y0ERW1GZqi9Zdao", "price_level": 2, "rating": 4.4, "reference": "ChIJf289yle7Y0ERW1GZqi9Zdao", "scope": "GOOGLE", "types": ["bar", "point_of_interest", "establishment"], "user_ratings_total": 1011, "vicinity": "Hamburger Str. 13, Hamburg"}, {"business_status": "OPERATIONAL", "geometry": {"location": {"lat": 53.55735499999999, "lng": 9.9727217}, "viewport": {"northeast": {"lat": 53.55870742989273, "lng": 9.973963279892722}, "southwest": {"lat": 53.55600777010728, "lng": 9.971263620107278}}}, "icon": "https://maps.gstatic.com/mapfiles/place_api/icons/v1/png_71/bar-71.png", "icon_background_color": "#FF9E67", "icon_mask_base_uri": "https://maps.gstatic.com/mapfiles/place_api/icons/v2/bar_pinlet", "name": "Shamrock Irish Pub", "opening_hours": {"open_now": true}, "photos": [{"height": 3024, "html_attributions": ["<a href=\"https://maps.google.com/maps/contrib/105280660387671034338\">Helmut Gugger-W\u00f6hrmann</a>"], "photo_reference": "AUGGfZmfufg4jC9BD3BB4tH8WQyv27lTXnKFyYwWMVmJ0jjNsc20EsAqdUesj4_hxR-kJdpoRiHB_S1f-ihi8L38iR7Z2FrK8BPVtuQ9aYDbuoJgv1iETlnUrRhPQkNYBuesfGsWBnrCM_p-LovmjKZD4WvfygYUP4PIIIPBigt5gZxqyxBi", "width": 4032}], "place_id": "ChIJCZlLJmuPsUcReBN4J_tshm0", "price_level": 2, "rating": 4.3, "reference": "ChIJCZlLJmuPsUcReBN4J_tshm0", "scope": "GOOGLE", "types": ["bar", "restaurant", "point_of_interest", "food", "establishment"], "user_ratings_total": 475, "vicinity": "Glash\u00fcttenstra\u00dfe 116, Hamburg"}, {"business_status": "OPERATIONAL", "geometry": {"location": {"lat": 53.5497149, "lng": 9.9683633}, "viewport": {"northeast": {"lat": 53.55120592989272, "lng": 9.969726279892722}, "southwest": {"lat": 53.54850627010727, "lng": 9.967026620107278}}}, "icon": "https://maps.gstatic.com/mapfiles/place_api/icons/v1/png_71/bar-71.png", "icon_background_color": "#FF9E67", "icon_mask_base_uri": "https://maps.gstatic.com/mapfiles/place_api/icons/v2/bar_pinlet", "name": "BrewDog St. Pauli", "opening_hours": {"open_now": true}, "photos": [{"height": 3024, "html_attributions": ["<a href=\"https://maps.google.com/maps/contrib/101078984599769374576\">C From G</a>"], "photo_reference": "AUGGfZn_kwyNE91i32A4SuoqqoyhteE3HLsirRrFrOBRrUAvGRCaXOFuyhQk5-vgNdsyJWOFsOUJ2C-Yzy-2ekalAEsq1Rb8k6yIMKAIgCxyr0xZjE61ti6CqlN1HENc2yyqiQY1TeYtafkTGjFtru2a0XEtT1UVfWxAZ9D8qYKrAKpGgMAs", "width": 4032}], "place_id": "ChIJGY8c72-PsUcRy79IOiJWCpA", "price_level": 2, "rating": 3.9, "reference": "ChIJGY8c72-PsUcRy79IOiJWCpA", "scope": "GOOGLE", "types": ["bar", "restaurant", "point_of_interest", "food", "establishment"], "user_ratings_total": 1349, "vicinity": "Reeperbahn 1, Hamburg"}, {"business_status": "OPERATIONAL", "geometry": {"location": {"lat": 53.57117, "lng": 9.9848345}, "viewport": {"northeast": {"lat": 53.57248087989272, "lng": 9.986367179892722}, "southwest": {"lat": 53.56978122010728, "lng": 9.983667520107279}}}, "icon": "https://maps.gstatic.com/mapfiles/place_api/icons/v1/png_71/bar-71.png", "icon_background_color": "#FF9E67", "icon_mask_base_uri": "https://maps.gstatic.com/mapfiles/place_api/icons/v2/bar_pinlet", "name": "The Baby Goat House", "opening_hours": {"open_now": true}, "photos": [{"height": 870, "html_attributions": ["<a href=\"https://maps.google.com/maps/contrib/105986250512995411349\">A Google User</a>"], "photo_reference": "AUGGfZm0VYWcAibjixfd3yidxUdkQL1nZ0IqsQ747SPTnTbTHlMKnrAgAiXaJ2H1bWuj0Afm8ueX5gd3bUcpwOmRbEoc361Q3ydyoOpFMY0i6LCPgU0KQC3TkB1vNbPeoiknkCLMfxhrimeksQ3UwIg05eQZz_SdpwVQitJZy99BqhsXaKpO", "width": 870}], "place_id": "ChIJm3cHp9mPsUcRnBYQHBMuj1o", "price_level": 2, "rating": 4.7, "reference": "ChIJm3cHp9mPsUcRnBYQHBMuj1o", "scope": "GOOGLE", "types": ["bar", "restaurant", "point_of_interest", "food", "establishment"], "user_ratings_total": 235, "vicinity": "Grindelhof 85, Hamburg"}, {"business_status": "OPERATIONAL", "geometry": {"location": {"lat": 53.5468499, "lng": 9.9697911}, "viewport": {"northeast": {"lat": 53.54806702989272, "lng": 9.970727729892722}, "southwest": {"lat": 53.54536737010728, "lng": 9.968028070107279}}}, "icon": "https://maps.gstatic.com/mapfiles/place_api/icons/v1/png_71/bar-71.png", "icon_background_color": "#FF9E67", "icon_mask_base_uri": "https://maps.gstatic.com/mapfiles/place_api/icons/v2/bar_pinlet", "name": "Willi's Bierstube & Lounge", "opening_hours": {"open_now": true}, "photos": [{"height": 2998, "html_attributions": ["<a href=\"https://maps.google.com/maps/contrib/105013300739243728765\">Walter Strimmer</a>"], "photo_reference": "AUGGfZmG6Ds-uiP7i8PBHsHdSUIhq49EUFK-H-QOyloktZWPB_McUtoiLi_ZuI28nSnIZartiT19atkauLZnYGQlosuBITa2HqqRu271UjIYCiox_1oY6YEuoUq1u2sR4nrANxINET5iB_Rt3nGs8wYh3VswoDUf8AbTiCygxY_cnj-2nHGZ", "width": 5335}], "place_id": "ChIJdaTaFg2PsUcRauZf9GXDlPo", "rating": 4.5, "reference": "ChIJdaTaFg2PsUcRauZf9GXDlPo", "scope": "GOOGLE", "types": ["bar", "restaurant", "point_of_interest", "food", "establishment"], "user_ratings_total": 19, "vicinity": "Seewartenstra\u00dfe 9, Hamburg"}, {"business_status": "OPERATIONAL", "geometry": {"location": {"lat": 53.5669548, "lng": 9.9570492}, "viewport": {"northeast": {"lat": 53.56829762989272, "lng": 9.958553929892723}, "southwest": {"lat": 53.56559797010728, "lng": 9.95585427010728}}}, "icon": "https://maps.gstatic.com/mapfiles/place_api/icons/v1/png_71/bar-71.png", "icon_background_color": "#FF9E67", "icon_mask_base_uri": "https://maps.gstatic.com/mapfiles/place_api/icons/v2/bar_pinlet", "name": "The Pub formerly known as Froggys", "opening_hours": {"open_now": true}, "photos": [{"height": 624, "html_attributions": ["<a href=\"https://maps.google.com/maps/contrib/103061002481322985678\">drogand</a>"], "photo_reference": "AUGGfZnZrzCM6VhnhK0t5FpAaNHndxWIuVyuvgZZWa7ylQDJCCnyGey2ikvkhd2wxWMAaOl5v-Lu70QZrStL6ffKjX0ndfWXqv8xgxfJ4ji9M7-I7sys_fjXaCIgYWbTTgSziCvgO5XYT-gdxr136EA87q9OK5__9FDDVYOIQZTUgPZRVCgL", "width": 984}], "place_id": "ChIJ_0PKf1uPsUcR-TBK8GItCek", "price_level": 2, "rating": 4.4, "reference": "ChIJ_0PKf1uPsUcR-TBK8GItCek", "scope": "GOOGLE", "types": ["meal_takeaway", "bar", "restaurant", "point_of_interest", "food", "establishment"], "user_ratings_total": 326, "vicinity": "Eimsb\u00fctteler Chaussee 29, Hamburg"}, {"business_status": "OPERATIONAL", "geometry": {"location": {"lat": 53.5646564, "lng": 9.9766228}, "viewport": {"northeast": {"lat": 53.56595177989272, "lng": 9.977923629892722}, "southwest": {"lat": 53.56325212010728, "lng": 9.975223970107278}}}, "icon": "https://maps.gstatic.com/mapfiles/place_api/icons/v1/png_71/bar-71.png", "icon_background_color": "#FF9E67", "icon_mask_base_uri": "https://maps.gstatic.com/mapfiles/place_api/icons/v2/bar_pinlet", "name": "Ratsherrn Klause", "opening_hours": {"open_now": true}, "photos": [{"height": 2268, "html_attributions": ["<a href=\"https://maps.google.com/maps/contrib/113235793210222606388\">113235793210222606388</a>"], "photo_reference": "AUGGfZkT_VFeaVlNHfXgLINmhNauUt1tNeXJYroIWJ3bKL67ddnURdeD1Ge6Uk6sBkOKE5WqlqyFnfZZqjbuvl3pLckmQtuF9l6lAPXHy_2hnX2-Gxh2JAzfWN30oHbGJA3q_nOgxcV9IR29YioOJXkLDqXXDUy_PBtaN6P4nD4bFgt2fiiR", "width": 4032}], "place_id": "ChIJRWCYST-PsUcRPOiQjwXQhnk", "price_level": 1, "rating": 4.5, "reference": "ChIJRWCYST-PsUcRPOiQjwXQhnk", "scope": "GOOGLE", "types": ["bar", "restaurant", "point_of_interest", "food", "establishment"], "user_ratings_total": 181, "vicinity": "Schr\u00f6derstiftstra\u00dfe 9, Hamburg"}, {"business_status": "OPERATIONAL", "geometry": {"location": {"lat": 53.5642653, "lng": 9.9839144}, "viewport": {"northeast": {"lat": 53.56564862989272, "lng": 9.985378829892722}, "southwest": {"lat": 53.56294897010728, "lng": 9.982679170107279}}}, "icon": "https://maps.gstatic.com/mapfiles/place_api/icons/v1/png_71/restaurant-71.png", "icon_background_color": "#FF9E67", "icon_mask_base_uri": "https://maps.gstatic.com/mapfiles/place_api/icons/v2/restaurant_pinlet", "name": "Bar Down Under", "opening_hours": {"open_now": true}, "photos": [{"height": 3024, "html_attributions": ["<a href=\"https://maps.google.com/maps/contrib/104735681126758998168\">Elias Shahoud</a>"], "photo_reference": "AUGGfZmGE1L7ErC5ok9eSYwzm8pdx-IxbWOH2SmE1pPV4GSXq6B1Q2oLQHTK2ty9X92YYYunRWeaWvkRWtno_LAyUhGaW49Du7VhTtVNXRqUEm5jEuFdPeVJpP1drKtbuoh_2ROyY6lYbRdM9GY6kOBFrXMoGXF34uWqq7Dfwh3Wpg36jlxN", "width": 4032}], "place_id": "ChIJRSAgCzyPsUcRtCZB2PUSe7s", "price_level": 2, "rating": 4, "reference": "ChIJRSAgCzyPsUcRtCZB2PUSe7s", "scope": "GOOGLE", "types": ["bar", "restaurant", "point_of_interest", "food", "establishment"], "user_ratings_total": 1601, "vicinity": "Grindelallee 1, Hamburg"}, {"business_status": "OPERATIONAL", "geometry": {"location": {"lat": 53.5486818, "lng": 9.9964879}, "viewport": {"northeast": {"lat": 53.55004332989273, "lng": 9.99798042989272}, "southwest": {"lat": 53.54734367010729, "lng": 9.995280770107277}}}, "icon": "https://maps.gstatic.com/mapfiles/place_api/icons/v1/png_71/restaurant-71.png", "icon_background_color": "#FF9E67", "icon_mask_base_uri": "https://maps.gstatic.com/mapfiles/place_api/icons/v2/restaurant_pinlet", "name": "Brooklyn Burger Bar", "opening_hours": {"open_now": true}, "photos": [{"height": 3544, "html_attributions": ["<a href=\"https://maps.google.com/maps/contrib/115944748336276741229\">A Google User</a>"], "photo_reference": "AUGGfZmQ-ww-NE6gSxAeQ56o9GY3SABbco6J5ocy2tQkvYeFAJYRPu_j2nvSHkcxFurQ2-uAtSBCoUbzvf1ruOKpwP52SohKghXB8yP1rBQ5w6r6434PpqMNyE2aUQVYxA6Ev3XjMaGKo0Mzz6mj-jw2_BGnMTbr-ef3oR_ZUSLRwtliKnTp", "width": 5315}], "place_id": "ChIJk_0WFx2PsUcR3X-hbZL1UC0", "price_level": 2, "rating": 4.3, "reference": "ChIJk_0WFx2PsUcR3X-hbZL1UC0", "scope": "GOOGLE", "types": ["bar", "restaurant", "point_of_interest", "food", "establishment"], "user_ratings_total": 2938, "vicinity": "Alter Fischmarkt 3, Hamburg"}, {"business_status": "OPERATIONAL", "geometry": {"location": {"lat": 53.548434, "lng": 9.9617779}, "viewport": {"northeast": {"lat": 53.54981892989272, "lng": 9.96313832989272}, "southwest": {"lat": 53.54711927010727, "lng": 9.960438670107276}}}, "icon": "https://maps.gstatic.com/mapfiles/place_api/icons/v1/png_71/bar-71.png", "icon_background_color": "#FF9E67", "icon_mask_base_uri": "https://maps.gstatic.com/mapfiles/place_api/icons/v2/bar_pinlet", "name": "Osborn St.Pauli", "opening_hours": {"open_now": true}, "photos": [{"height": 2160, "html_attributions": ["<a href=\"https://maps.google.com/maps/contrib/110138265657213594241\">Jochen Sendel</a>"], "photo_reference": "AUGGfZkWWUt0lhVkmO9OQdWWZFyKPXAAZeOMdtWZHfYmoYBqMfUsvrZWPQ4E76Hd9ZRCBpHLIydrjTpvb5prhLhISlkV4pGU3NiD4274SkCYtjLnxqhc6oPT5_tWhCuRVSuLIQzxynR32uvHbWQDUHgTRvR1rPiFEVxM57DCKzJ6bITy9FnE", "width": 3840}], "place_id": "ChIJ4crJI3KPsUcRjjZKG0T7_P4", "price_level": 1, "rating": 4.6, "reference": "ChIJ4crJI3KPsUcRjjZKG0T7_P4", "scope": "GOOGLE", "types": ["bar", "restaurant", "point_of_interest", "food", "establishment"], "user_ratings_total": 214, "vicinity": "Friedrichstra\u00dfe 7b, Hamburg"}, {"business_status": "OPERATIONAL", "geometry": {"location": {"lat": 53.55007, "lng": 9.9660537}, "viewport": {"northeast": {"lat": 53.55134472989272, "lng": 9.967409429892722}, "southwest": {"lat": 53.54864507010728, "lng": 9.964709770107278}}}, "icon": "https://maps.gstatic.com/mapfiles/place_api/icons/v1/png_71/bar-71.png", "icon_background_color": "#FF9E67", "icon_mask_base_uri": "https://maps.gstatic.com/mapfiles/place_api/icons/v2/bar_pinlet", "name": "Cowboy und Indianer Gastro GmbH", "opening_hours": {"open_now": true}, "photos": [{"height": 3024, "html_attributions": ["<a href=\"https://maps.google.com/maps/contrib/107941574096041567080\">Vogel Michael</a>"], "photo_reference": "AUGGfZn8sn8YVguJBaTDLLT4dyMyn1_rWbFdKN8tDE9wJhqiJFeOs0NwyC0f52gMknHcmP9HHVSKVXoODdGpy30WfNBvPJ46AmCB12ZWTlJzcixnJcYe1ykLqLWcgsVMoZTLoDmsEC8NdQudRz_GZrq3TqcM6raE0TEvie01I_pycKv-9NAq", "width": 4032}], "place_id": "ChIJXTIgeW2PsUcRO86HbsN79W4", "price_level": 2, "rating": 4.6, "reference": "ChIJXTIgeW2PsUcRO86HbsN79W4", "scope": "GOOGLE", "types": ["bar", "restaurant", "point_of_interest", "food", "establishment"], "user_ratings_total": 742, "vicinity": "Reeperbahn 25, Hamburg"}, {"business_status": "OPERATIONAL", "geometry": {"location": {"lat": 53.5481194, "lng": 9.98195}, "viewport": {"northeast": {"lat": 53.54940637989272, "lng": 9.983423629892721}, "southwest": {"lat": 53.54670672010728, "lng": 9.980723970107277}}}, "icon": "https://maps.gstatic.com/mapfiles/place_api/icons/v1/png_71/bar-71.png", "icon_background_color": "#FF9E67", "icon_mask_base_uri": "https://maps.gstatic.com/mapfiles/place_api/icons/v2/bar_pinlet", "name": "Gastst\u00e4tte Dreyer", "opening_hours": {"open_now": true}, "photos": [{"height": 3024, "html_attributions": ["<a href=\"https://maps.google.com/maps/contrib/101346890909972668867\">Mihai Tarmure</a>"], "photo_reference": "AUGGfZlJG8VSVcM4hqShUBEmZ5HABD3I389oRoor-wwBbCXLFpRkblWGdSwMMTdjjyZLuhlEGKBd6dkvaOL5FGTRPeNkwAqcphip0yseKHFe6xb9bLYBXt3m_G9_tIxdv61thLw13wcGXKKL8v_hUm7XREXFcfZOVoKDJEkIXmT0lyVGplLU", "width": 4032}], "place_id": "ChIJs0Ni4A-PsUcR7dNeFQUp7To", "price_level": 1, "rating": 4.7, "reference": "ChIJs0Ni4A-PsUcR7dNeFQUp7To", "scope": "GOOGLE", "types": ["bar", "restaurant", "point_of_interest", "food", "establishment"], "user_ratings_total": 361, "vicinity": "Martin-Luther-Stra\u00dfe 4, Hamburg"}, {"business_status": "OPERATIONAL", "geometry": {"location": {"lat": 53.5455569, "lng": 9.9760083}, "viewport": {"northeast": {"lat": 53.54691667989272, "lng": 9.977399979892722}, "southwest": {"lat": 53.54421702010728, "lng": 9.974700320107278}}}, "icon": "https://maps.gstatic.com/mapfiles/place_api/icons/v1/png_71/bar-71.png", "icon_background_color": "#FF9E67", "icon_mask_base_uri": "https://maps.gstatic.com/mapfiles/place_api/icons/v2/bar_pinlet", "name": "O Cantinho do Antonio", "opening_hours": {"open_now": true}, "photos": [{"height": 3472, "html_attributions": ["<a href=\"https://maps.google.com/maps/contrib/110119173684599925438\">Dan Pfizenmayer</a>"], "photo_reference": "AUGGfZnlCP6EjFfr4AcrW0xqT6U-ZUNkG026P9i3Fgx8810TzvbQI8V3XVX_WRkk6ykYePmykaYKcuo0JnxDmlq1Btflb0_zBrZTK30KVJDQn4akwD6iTdybm_FVvkydEMjwncALlUKrBqog4AFcQJrmLR2w8g55CoVl1wbYk2joITaQTQPQ", "width": 4624}], "place_id": "ChIJMeIChQ6PsUcRLSw-IGgHjII", "price_level": 1, "rating": 4.6, "reference": "ChIJMeIChQ6PsUcRLSw-IGgHjII", "scope": "GOOGLE", "types": ["bar", "restaurant", "point_of_interest", "food", "establishment"], "user_ratings_total": 179, "vicinity": "Rambachstra\u00dfe 11, Hamburg"}, {"business_status": "OPERATIONAL", "geometry": {"location": {"lat": 53.5505964, "lng": 9.9598327}, "viewport": {"northeast": {"lat": 53.55192482989272, "lng": 9.96136302989272}, "southwest": {"lat": 53.54922517010728, "lng": 9.958663370107276}}}, "icon": "https://maps.gstatic.com/mapfiles/place_api/icons/v1/png_71/bar-71.png", "icon_background_color": "#FF9E67", "icon_mask_base_uri": "https://maps.gstatic.com/mapfiles/place_api/icons/v2/bar_pinlet", "name": "Utspann", "opening_hours": {"open_now": true}, "photos": [{"height": 3024, "html_attributions": ["<a href=\"https://maps.google.com/maps/contrib/104568680415455194299\">\u9ad8\u744b\u7433</a>"], "photo_reference": "AUGGfZlW6rR-z32hWfqc2ilo-ltUehmtYxhaNASkZ9ctlHXxj23wfUkfvUG5a5iYVJPEHC-ZLgP8R-7FN6ti400nHdI7dGR9ik9SKYGmpnzRjv828M4pQumLcTD_tYpx5qlmC4XY9LhrJO6f6abXyjlmyw-j_pK_PCYSxfLzInKo9TvpRFCz", "width": 4032}], "place_id": "ChIJjSjvIW6PsUcRGCyFERgCsxE", "price_level": 1, "rating": 4.6, "reference": "ChIJjSjvIW6PsUcRGCyFERgCsxE", "scope": "GOOGLE", "types": ["bar", "restaurant", "point_of_interest", "food", "establishment"], "user_ratings_total": 180, "vicinity": "Talstra\u00dfe 25, Hamburg"}, {"business_status": "OPERATIONAL", "geometry": {"location": {"lat": 53.5505389, "lng": 9.969394399999999}, "viewport": {"northeast": {"lat": 53.55180832989272, "lng": 9.970815029892723}, "southwest": {"lat": 53.54910867010728, "lng": 9.968115370107279}}}, "icon": "https://maps.gstatic.com/mapfiles/place_api/icons/v1/png_71/bar-71.png", "icon_background_color": "#FF9E67", "icon_mask_base_uri": "https://maps.gstatic.com/mapfiles/place_api/icons/v2/bar_pinlet", "name": "ZWICK St. Pauli", "opening_hours": {"open_now": true}, "photos": [{"height": 3024, "html_attributions": ["<a href=\"https://maps.google.com/maps/contrib/108124403589290460098\">Thomas Herrmann</a>"], "photo_reference": "AUGGfZnRuhAv7Wtr58ZOBNHhFlRElyrczLsCd0u9os_GRqU41XSYimzBTYkorjtD-9wW8VpGF3TC3piD-oTfHFWTX9jx0quRF4esC9fo29wriBNwHoe-1xLHOXJENteAtcwj7Gm2p0L6Kp-hxd5sdAw2G3I7WHKOM1DaQFV0IvdJ5ICk4oMe", "width": 4032}], "place_id": "ChIJ5QPXTm2PsUcRYy9STaD39B0", "price_level": 2, "rating": 4.4, "reference": "ChIJ5QPXTm2PsUcRYy9STaD39B0", "scope": "GOOGLE", "types": ["bar", "night_club", "restaurant", "point_of_interest", "food", "establishment"], "user_ratings_total": 5495, "vicinity": "Millerntorpl. 1, Hamburg"}, {"business_status": "OPERATIONAL", "geometry": {"location": {"lat": 53.5487013, "lng": 9.997661899999999}, "viewport": {"northeast": {"lat": 53.55009237989272, "lng": 9.998982829892723}, "southwest": {"lat": 53.54739272010728, "lng": 9.99628317010728}}}, "icon": "https://maps.gstatic.com/mapfiles/place_api/icons/v1/png_71/restaurant-71.png", "icon_background_color": "#FF9E67", "icon_mask_base_uri": "https://maps.gstatic.com/mapfiles/place_api/icons/v2/restaurant_pinlet", "name": "Einstein City", "opening_hours": {"open_now": true}, "photos": [{"height": 3744, "html_attributions": ["<a href=\"https://maps.google.com/maps/contrib/105772704493303485434\">A Google User</a>"], "photo_reference": "AUGGfZlf3KCPEmGIApQEsz5N6qRdtsOzE4isGkdb48Nt1HLLpo2fFsGbUQWUbV5-E5XR9t7GgX8G_tuCpJgLpj3o2Yd1ITGyGwlb3UPXsvSWeMIeNZKoaD720YjMhOPrd_J7eqnn8bUIhwK2JY88aqO_XwcU2mVPPkUzRpIBnU3Hl3z5ZoAe", "width": 5616}], "place_id": "ChIJ-ZMgbB2PsUcRLygtPvszUZQ", "price_level": 2, "rating": 4.4, "reference": "ChIJ-ZMgbB2PsUcRLygtPvszUZQ", "scope": "GOOGLE", "types": ["restaurant", "night_club", "bar", "point_of_interest", "food", "establishment"], "user_ratings_total": 1673, "vicinity": "Schopenstehl 32, Hamburg"}, {"business_status": "OPERATIONAL", "geometry": {"location": {"lat": 53.5681804, "lng": 9.9951739}, "viewport": {"northeast": {"lat": 53.56957062989272, "lng": 9.996556929892721}, "southwest": {"lat": 53.56687097010728, "lng": 9.993857270107277}}}, "icon": "https://maps.gstatic.com/mapfiles/place_api/icons/v1/png_71/bar-71.png", "icon_background_color": "#FF9E67", "icon_mask_base_uri": "https://maps.gstatic.com/mapfiles/place_api/icons/v2/bar_pinlet", "name": "KEMP'S English Pub", "opening_hours": {"open_now": true}, "photos": [{"height": 4032, "html_attributions": ["<a href=\"https://maps.google.com/maps/contrib/105996818822325036587\">Patricia Rudat</a>"], "photo_reference": "AUGGfZkqsKf0OGocmwdxprpTvlru8GlTfn-hhpHDW-OaxY7rEl8iwXNilC-MOVNW-ZlRecmY4W__eHhC8fNb8ofFo0XQGXD2dhUO4xoac0lgRCJwRq2AH-fD4PXZLY01_e-LkTokJMt0gmm_ZOn8V1Hp33b0MAFCuQ6RjgNWWZ_b_vciJt-1", "width": 3024}], "place_id": "ChIJJ9kcdiWPsUcRVqKtSyP0QzY", "price_level": 2, "rating": 4.6, "reference": "ChIJJ9kcdiWPsUcRVqKtSyP0QzY", "scope": "GOOGLE", "types": ["bar", "restaurant", "food", "point_of_interest", "establishment"], "user_ratings_total": 175, "vicinity": "Mittelweg 27, Hamburg"}, {"business_status": "OPERATIONAL", "geometry": {"location": {"lat": 53.55269149999999, "lng": 10.0090904}, "viewport": {"northeast": {"lat": 53.55407987989273, "lng": 10.01025882989272}, "southwest": {"lat": 53.55138022010728, "lng": 10.00755917010728}}}, "icon": "https://maps.gstatic.com/mapfiles/place_api/icons/v1/png_71/restaurant-71.png", "icon_background_color": "#FF9E67", "icon_mask_base_uri": "https://maps.gstatic.com/mapfiles/place_api/icons/v2/restaurant_pinlet", "name": "NAGEL Restaurant and Pub", "opening_hours": {"open_now": true}, "photos": [{"height": 2340, "html_attributions": ["<a href=\"https://maps.google.com/maps/contrib/111247623608967188122\">\u0410\u043d\u0434\u0440\u0435\u0439 \u0412\u043e\u0440\u043e\u043d\u043e\u0432</a>"], "photo_reference": "AUGGfZnlyxR_eBid0sut9eaH1UtJ9v4kITcpJCUWYAGOASnO79LKUHpSO0wMoSTDjg9ZUJXrQGscD4cCHkHUfeQ-NBI_eTYjKIkHB6ApcKu5SSk_yj_6vxs9SFxmLoOtvUtoD9Ez9NaljnydTwERp7aSWEjPto-9CM4hVtIfUYtFnM3fJB2w", "width": 4160}], "place_id": "ChIJHTQ6t-aOsUcRD68Hmzzyyy8", "price_level": 2, "rating": 4.3, "reference": "ChIJHTQ6t-aOsUcRD68Hmzzyyy8", "scope": "GOOGLE", "types": ["bar", "restaurant", "food", "point_of_interest", "establishment"], "user_ratings_total": 3256, "vicinity": "Kirchenallee 57, Hamburg"}, {"business_status": "OPERATIONAL", "geometry": {"location": {"lat": 53.5635123, "lng": 9.990170899999999}, "viewport": {"northeast": {"lat": 53.56501067989272, "lng": 9.991714529892722}, "southwest": {"lat": 53.56231102010727, "lng": 9.989014870107278}}}, "icon": "https://maps.gstatic.com/mapfiles/place_api/icons/v1/png_71/bar-71.png", "icon_background_color": "#FF9E67", "icon_mask_base_uri": "https://maps.gstatic.com/mapfiles/place_api/icons/v2/bar_pinlet", "name": "Bourbon Street Bar", "opening_hours": {"open_now": true}, "photos": [{"height": 408, "html_attributions": ["<a href=\"https://maps.google.com/maps/contrib/111092038555496470136\">Bourbon Street Bar Im Grand Elysee Hamburg</a>"], "photo_reference": "AUGGfZnFLJioq6Kb1RDjvDuFCHrmK25wPACXCcd0UQysl-OMYeG4ih20cyU2k10kji72eW_afPp-ut8mHnNeaOL9xfS0XkmFiRUAoXpHzAryNfPJ4vADYedlgZQwD7W7s8jHrTM4GcOnBMtFou1S2sXC1BhCa0Bv8REHkv9ew-VHngl9fQNm", "width": 500}], "place_id": "ChIJ-6JWUSOPsUcRUT08qg-VMnw", "rating": 4.1, "reference": "ChIJ-6JWUSOPsUcRUT08qg-VMnw", "scope": "GOOGLE", "types": ["bar", "restaurant", "food", "point_of_interest", "establishment"], "user_ratings_total": 15, "vicinity": "Rothenbaumchaussee 10, Hamburg"}, {"business_status": "OPERATIONAL", "geometry": {"location": {"lat": 53.5511865, "lng": 9.9658716}, "viewport": {"northeast": {"lat": 53.55246857989272, "lng": 9.96729232989272}, "southwest": {"lat": 53.54976892010728, "lng": 9.964592670107276}}}, "icon": "https://maps.gstatic.com/mapfiles/place_api/icons/v1/png_71/bar-71.png", "icon_background_color": "#FF9E67", "icon_mask_base_uri": "https://maps.gstatic.com/mapfiles/place_api/icons/v2/bar_pinlet", "name": "Yakshi's Bar", "opening_hours": {"open_now": true}, "photos": [{"height": 2667, "html_attributions": ["<a href=\"https://maps.google.com/maps/contrib/110660405666656372451\">A Google User</a>"], "photo_reference": "AUGGfZlYXaq1Ou_j0dorcMZytrQYzIMJgDBFdMm3OB9ndoMFlmEID7ESaP-Vuc--HeL6SNdSO1316PQHkNIScTLYE8aaTe_SOhu2VDcCDSb2APbNhOll7qA3-T3UBvqr_Fx92dj1PuYZsPOW12Z7QnqTds6hsRCflp5FdWNjARZWLOKjnw5n", "width": 4000}], "place_id": "ChIJk62woW2PsUcRITGexG4VQJ8", "rating": 4.3, "reference": "ChIJk62woW2PsUcRITGexG4VQJ8", "scope": "GOOGLE", "types": ["bar", "night_club", "restaurant", "food", "point_of_interest", "establishment"], "user_ratings_total": 80, "vicinity": "Simon-von-Utrecht-Stra\u00dfe 31, Hamburg"}, {"business_status": "OPERATIONAL", "geometry": {"location": {"lat": 53.547282, "lng": 9.963355}, "viewport": {"northeast": {"lat": 53.54849687989272, "lng": 9.964739879892722}, "southwest": {"lat": 53.54579722010727, "lng": 9.962040220107276}}}, "icon": "https://maps.gstatic.com/mapfiles/place_api/icons/v1/png_71/bar-71.png", "icon_background_color": "#FF9E67", "icon_mask_base_uri": "https://maps.gstatic.com/mapfiles/place_api/icons/v2/bar_pinlet", "name": "Skyline Bar 20up", "opening_hours": {"open_now": true}, "photos": [{"height": 2268, "html_attributions": ["<a href=\"https://maps.google.com/maps/contrib/110883251709934756022\">Simon Jahn</a>"], "photo_reference": "AUGGfZlEzWSA1YVtN_OLAB_IFkV3wsJ0d7_8EU-MYmHxnJJ7t3eedANoTF2eh9v9aUDYCFiFkVsafRzr0pxRbD6BlVZHV6lI1GNgDNAFLjG3GxUNcKa5VJeV6dgOuJ4aK9jNNrWCfWMP4A5o2f4VP28tKBbjyZIAXLUP0OUB307OzdJcQ55J", "width": 4032}], "place_id": "ChIJlWNyS3KPsUcRqUEjkAgWhWg", "price_level": 3, "rating": 4.4, "reference": "ChIJlWNyS3KPsUcRqUEjkAgWhWg", "scope": "GOOGLE", "types": ["bar", "restaurant", "food", "point_of_interest", "establishment"], "user_ratings_total": 4394, "vicinity": "Empire Riverside Hotel, Bernhard-Nocht-Stra\u00dfe 97, Hamburg"}, {"business_status": "OPERATIONAL", "geometry": {"location": {"lat": 53.5469697, "lng": 9.969468599999999}, "viewport": {"northeast": {"lat": 53.54849977989272, "lng": 9.97053662989272}, "southwest": {"lat": 53.54580012010728, "lng": 9.967836970107276}}}, "icon": "https://maps.gstatic.com/mapfiles/place_api/icons/v1/png_71/restaurant-71.png", "icon_background_color": "#FF9E67", "icon_mask_base_uri": "https://maps.gstatic.com/mapfiles/place_api/icons/v2/restaurant_pinlet", "name": "Restaurant Port", "opening_hours": {"open_now": true}, "photos": [{"height": 1335, "html_attributions": ["<a href=\"https://maps.google.com/maps/contrib/101421416792792019352\">Restaurant Port</a>"], "photo_reference": "AUGGfZnGU_kKqhI4OchwhdAyhm6aePfwX-vmOkg3ovzV0SqLVnUPVFeKcXktHYzxGwj7nLq1TpucwXpYftU099W9UIYsWmR6B4dY76bsDRDmnpKesb5Ej2kaI9G9qO6CP-HAzsteKut_kvLqjUQlpNifxpINgPpd37ujC86ibEKnH20o-Jbo", "width": 2000}], "place_id": "ChIJD-SwLw2PsUcRfVDFnsjHYp0", "rating": 4.4, "reference": "ChIJD-SwLw2PsUcRfVDFnsjHYp0", "scope": "GOOGLE", "types": ["bar", "restaurant", "food", "point_of_interest", "establishment"], "user_ratings_total": 385, "vicinity": "Seewartenstra\u00dfe 9, Hamburg"}, {"business_status": "OPERATIONAL", "geometry": {"location": {"lat": 53.5456339, "lng": 9.969252599999999}, "viewport": {"northeast": {"lat": 53.54710737989272, "lng": 9.970878979892722}, "southwest": {"lat": 53.54440772010727, "lng": 9.968179320107279}}}, "icon": "https://maps.gstatic.com/mapfiles/place_api/icons/v1/png_71/restaurant-71.png", "icon_background_color": "#FF9E67", "icon_mask_base_uri": "https://maps.gstatic.com/mapfiles/place_api/icons/v2/restaurant_pinlet", "name": "BLOCKBR\u00c4U", "opening_hours": {"open_now": true}, "photos": [{"height": 3096, "html_attributions": ["<a href=\"https://maps.google.com/maps/contrib/117981840484107336995\">A Google User</a>"], "photo_reference": "AUGGfZmHHK2JJ6prD4zPn8W8G3PzwsTlYShwHtEFZhXiaYFacXy9rg4FVEYFCtAZgCUkv7KzYtr3FVMfdECaAhe1XdBhGmVW88GcZPVho3VBkgddJmwWgsGb50bvYnlPb8ziXSFkFepTBuOp1JbZhOrJ6iLvcDvVzF_A4TAeCM8v-fbo_vy9", "width": 5504}], "place_id": "ChIJGx0VxAyPsUcRKTWuwfdaFV8", "price_level": 2, "rating": 4.1, "reference": "ChIJGx0VxAyPsUcRKTWuwfdaFV8", "scope": "GOOGLE", "types": ["restaurant", "food", "point_of_interest", "establishment"], "user_ratings_total": 7073, "vicinity": "Bei den St. Pauli-Landungsbr\u00fccken 3, Hamburg"}, {"business_status": "OPERATIONAL", "geometry": {"location": {"lat": 53.5511857, "lng": 9.959532}, "viewport": {"northeast": {"lat": 53.55255202989272, "lng": 9.960897229892723}, "southwest": {"lat": 53.54985237010727, "lng": 9.958197570107279}}}, "icon": "https://maps.gstatic.com/mapfiles/place_api/icons/v1/png_71/bar-71.png", "icon_background_color": "#FF9E67", "icon_mask_base_uri": "https://maps.gstatic.com/mapfiles/place_api/icons/v2/bar_pinlet", "name": "Taverne", "opening_hours": {"open_now": true}, "photos": [{"height": 2496, "html_attributions": ["<a href=\"https://maps.google.com/maps/contrib/104975308384709059351\">Ham Burger</a>"], "photo_reference": "AUGGfZkwTGnd-00du1_Ddl44Aqo5EfMPhD2dWqDyxAMTDl_VjU-cng6cNapr-6pi76o15DWFn-2H0Hc402lro1EJFgkTJKsf8hVeomIIsM0UlRZuANdU17IolzC6b7fBmLrvf-Tp7UVEPUoL2BEmmhwN84ic_vO_CDd1DGGblBpVOqQgIaE7", "width": 4438}], "place_id": "ChIJdxCqPm6PsUcRh_NN6padsso", "rating": 4, "reference": "ChIJdxCqPm6PsUcRh_NN6padsso", "scope": "GOOGLE", "types": ["bar", "restaurant", "food", "point_of_interest", "establishment"], "user_ratings_total": 57, "vicinity": "Schmuckstra\u00dfe 5, Hamburg"}, {"business_status": "OPERATIONAL", "geometry": {"location": {"lat": 53.54714800000001, "lng": 9.9962792}, "viewport": {"northeast": {"lat": 53.54855072989272, "lng": 9.997966979892723}, "southwest": {"lat": 53.54585107010728, "lng": 9.99526732010728}}}, "icon": "https://maps.gstatic.com/mapfiles/place_api/icons/v1/png_71/bar-71.png", "icon_background_color": "#FF9E67", "icon_mask_base_uri": "https://maps.gstatic.com/mapfiles/place_api/icons/v2/bar_pinlet", "name": "Gr\u00f6ninger Privatbrauerei Hamburg", "opening_hours": {"open_now": true}, "photos": [{"height": 3831, "html_attributions": ["<a href=\"https://maps.google.com/maps/contrib/101487359166556631923\">Gr\u00f6ninger Privatbrauerei</a>"], "photo_reference": "AUGGfZm0_xOyDotughJxc9bfiaINpT4Q8bTvoa1uyBpECeTG54SUIOEzQaSmS3psuujimQ3ypx89TGimQ9SVXF176ss7FYGCsa_ZPaaaLE6nZxBZ9RYaqjwVKNS8Rj4vJx0g0QAnHboX0hZ1jkfuq_Z9dlWO7GWAZpMsuYVC-4AQj6pgMJRz", "width": 5741}], "place_id": "ChIJSwlmMx2PsUcRzsvcuSXUK_c", "price_level": 2, "rating": 4.1, "reference": "ChIJSwlmMx2PsUcRzsvcuSXUK_c", "scope": "GOOGLE", "types": ["bar", "restaurant", "food", "point_of_interest", "establishment"], "user_ratings_total": 1513, "vicinity": "Willy-Brandt-Stra\u00dfe 47, Hamburg"}, {"business_status": "OPERATIONAL", "geometry": {"location": {"lat": 53.5449893, "lng": 9.970882999999999}, "viewport": {"northeast": {"lat": 53.54659022989271, "lng": 9.972425629892722}, "southwest": {"lat": 53.54389057010727, "lng": 9.969725970107278}}}, "icon": "https://maps.gstatic.com/mapfiles/place_api/icons/v1/png_71/bar-71.png", "icon_background_color": "#FF9E67", "icon_mask_base_uri": "https://maps.gstatic.com/mapfiles/place_api/icons/v2/bar_pinlet", "name": "Astra-Biergarten", "opening_hours": {"open_now": true}, "photos": [{"height": 3024, "html_attributions": ["<a href=\"https://maps.google.com/maps/contrib/115444056257382140882\">Dampf undDiesel</a>"], "photo_reference": "AUGGfZnFnqThhwkTdyYTDpFL-0lx5C9LOBfjKfiKUr3JiBPn04RmqjSIXFgjHxvG6_tgL_s0aYHD08QMRd0VfftgeI7DxjujRoUXeGs6Kn8pTJ76Ii_hmmdb1aanSC0bPqGLkQyka8mfmaTRANrFf_WA5qmXso6rof8MVfWIogg8R2TjHtdn", "width": 4032}], "place_id": "ChIJdbaHiwyPsUcRiLQ0Ek5wOHM", "price_level": 2, "rating": 4.3, "reference": "ChIJdbaHiwyPsUcRiLQ0Ek5wOHM", "scope": "GOOGLE", "types": ["bar", "restaurant", "food", "point_of_interest", "establishment"], "user_ratings_total": 1247, "vicinity": "Bei den St. Pauli-Landungsbr\u00fccken 2, Hamburg"}, {"business_status": "OPERATIONAL", "geometry": {"location": {"lat": 53.5408888, "lng": 9.9860019}, "viewport": {"northeast": {"lat": 53.54236517989272, "lng": 9.987102429892722}, "southwest": {"lat": 53.53966552010727, "lng": 9.984402770107279}}}, "icon": "https://maps.gstatic.com/mapfiles/place_api/icons/v1/png_71/restaurant-71.png", "icon_background_color": "#FF9E67", "icon_mask_base_uri": "https://maps.gstatic.com/mapfiles/place_api/icons/v2/restaurant_pinlet", "name": "CARLS Brasserie", "opening_hours": {"open_now": true}, "photos": [{"height": 1476, "html_attributions": ["<a href=\"https://maps.google.com/maps/contrib/112362439632351477483\">Andreas Conrad</a>"], "photo_reference": "AUGGfZkPt6fmYdM8kGa8s-MTLVxeQjoxDFLmXu6Y3mEEE8rhvSGDvZh2mzstWvgjGq_C_VYZqAL5sZ74Jae1vOSYnKRPh-MuvZUxt7_HYduDMXCT2-ggmsacHS3QZQxBBw0er94V3UxiNUHk3-pxd-5IPC_-XZaToPTWbRPulM-wGSGppzLB", "width": 2214}], "place_id": "ChIJT8RwZwaPsUcRMuuA9LULgTw", "price_level": 2, "rating": 4.2, "reference": "ChIJT8RwZwaPsUcRMuuA9LULgTw", "scope": "GOOGLE", "types": ["bar", "restaurant", "food", "point_of_interest", "establishment"], "user_ratings_total": 1447, "vicinity": "Am Kaiserkai 69, Hamburg"}, {"business_status": "OPERATIONAL", "geometry": {"location": {"lat": 53.55406989999999, "lng": 9.9919772}, "viewport": {"northeast": {"lat": 53.55532132989272, "lng": 9.993135679892724}, "southwest": {"lat": 53.55262167010728, "lng": 9.99043602010728}}}, "icon": "https://maps.gstatic.com/mapfiles/place_api/icons/v1/png_71/restaurant-71.png", "icon_background_color": "#FF9E67", "icon_mask_base_uri": "https://maps.gstatic.com/mapfiles/place_api/icons/v2/restaurant_pinlet", "name": "ALEX Hamburg", "opening_hours": {"open_now": true}, "photos": [{"height": 3024, "html_attributions": ["<a href=\"https://maps.google.com/maps/contrib/108019183030853899830\">WEN HSIU LO</a>"], "photo_reference": "AUGGfZlqSTvz7ifBpB7EIWHByNtgq0RLpOIdypNFtsc9xc1GZ0jI0hRWaobEyFmY7ZmellsX_72PDvz0ZgS_3ZT9IqztwVpjD-qhBi6HPiJnblXo8aoIFZxeiPs2apja-qlDFAz3dmZtzviEfcmYucP6585V8DaxDHVkNCiIYL8H4N81vv-0", "width": 4032}], "place_id": "ChIJl8PXQxmPsUcRvjswTV5fQas", "price_level": 2, "rating": 4.1, "reference": "ChIJl8PXQxmPsUcRvjswTV5fQas", "scope": "GOOGLE", "types": ["restaurant", "cafe", "bar", "bakery", "store", "food", "point_of_interest", "establishment"], "user_ratings_total": 18776, "vicinity": "Jungfernstieg 54, Hamburg"}, {"business_status": "OPERATIONAL", "geometry": {"location": {"lat": 53.55358829999999, "lng": 10.0087787}, "viewport": {"northeast": {"lat": 53.55494132989272, "lng": 10.00997577989272}, "southwest": {"lat": 53.55224167010728, "lng": 10.00727612010728}}}, "icon": "https://maps.gstatic.com/mapfiles/place_api/icons/v1/png_71/restaurant-71.png", "icon_background_color": "#FF9E67", "icon_mask_base_uri": "https://maps.gstatic.com/mapfiles/place_api/icons/v2/restaurant_pinlet", "name": "Paulaner's Miraculum", "opening_hours": {"open_now": true}, "photos": [{"height": 2000, "html_attributions": ["<a href=\"https://maps.google.com/maps/contrib/104850449077364515592\">A Google User</a>"], "photo_reference": "AUGGfZkrOwR09-wKz0iZzHyZyDUdzXD4EQroOjGbRbsVKLDVxJusE-LeCLv1Kmemw8aUKdwcDtnmswIWnnqNhNzx94Yyu5AO4e1zIBEu5i6-BL3nUhqf98LZhExyTCl1nqm3xkUTrOywmdwWP5em2cohxyIZ0gIAnrHwTFjE7XPFY5K18vs7", "width": 3000}], "place_id": "ChIJs-upMuGOsUcRCYJVOE5BBjQ", "price_level": 2, "rating": 4.1, "reference": "ChIJs-upMuGOsUcRCYJVOE5BBjQ", "scope": "GOOGLE", "types": ["bar", "restaurant", "food", "point_of_interest", "establishment"], "user_ratings_total": 1305, "vicinity": "Kirchenallee 47, Hamburg"}, {"business_status": "OPERATIONAL", "geometry": {"location": {"lat": 53.5561129, "lng": 10.0082733}, "viewport": {"northeast": {"lat": 53.55748737989272, "lng": 10.00950052989272}, "southwest": {"lat": 53.55478772010727, "lng": 10.00680087010728}}}, "icon": "https://maps.gstatic.com/mapfiles/place_api/icons/v1/png_71/restaurant-71.png", "icon_background_color": "#FF9E67", "icon_mask_base_uri": "https://maps.gstatic.com/mapfiles/place_api/icons/v2/restaurant_pinlet", "name": "Max & Consorten", "opening_hours": {"open_now": true}, "photos": [{"height": 2976, "html_attributions": ["<a href=\"https://maps.google.com/maps/contrib/109679355443010732546\">Hans-Helmut Balthasar</a>"], "photo_reference": "AUGGfZkHnF4mU-RnXx-BMJQvjIhaLv12EfnIFLmvyFfmVEhmsU4lNhImyiIKYwf2PLw3VzHVl8UrO7smevf0Q9v1Yk7wzGh8T28iCNXZ4zo0LA0L5GKB1L_042FtQA8pydug2pbWnMEkvha_lPeZJLn0Q9Z9556fFOC13b-LMxKWDIktGtYS", "width": 3968}], "place_id": "ChIJF5xUtuCOsUcRa8Y8U9sfPfI", "price_level": 1, "rating": 4.5, "reference": "ChIJF5xUtuCOsUcRa8Y8U9sfPfI", "scope": "GOOGLE", "types": ["restaurant", "meal_takeaway", "bar", "food", "point_of_interest", "establishment"], "user_ratings_total": 1977, "vicinity": "Spadenteich 1, Hamburg"}, {"business_status": "OPERATIONAL", "geometry": {"location": {"lat": 53.548597, "lng": 9.992384999999999}, "viewport": {"northeast": {"lat": 53.54987447989272, "lng": 9.993860179892721}, "southwest": {"lat": 53.54717482010727, "lng": 9.991160520107277}}}, "icon": "https://maps.gstatic.com/mapfiles/place_api/icons/v1/png_71/restaurant-71.png", "icon_background_color": "#FF9E67", "icon_mask_base_uri": "https://maps.gstatic.com/mapfiles/place_api/icons/v2/restaurant_pinlet", "name": "HANS IM GL\u00dcCK - HAMBURG Altes Rathaus", "opening_hours": {"open_now": true}, "photos": [{"height": 3024, "html_attributions": ["<a href=\"https://maps.google.com/maps/contrib/117668927917063067410\">Amir Nahor</a>"], "photo_reference": "AUGGfZmrXuB0Nqovv6EwDlZ3rXc4w-ByeObSjtRmIlA5KEVrNJDj5-PpoA9nEQQe42MSF6NyLdJ4KdGGIqusdSkLNGfij3ZvlKdnmlrvMqjAFl013s21Aqu0DDcOXJEVRbBVRRxhCp3Liy2X83uj-cdWSb4jk8enRstbn1AXxZPouaFM1JWi", "width": 4032}], "place_id": "ChIJh3KUrxyPsUcRqLKxaJUkSQ0", "price_level": 2, "rating": 4.1, "reference": "ChIJh3KUrxyPsUcRqLKxaJUkSQ0", "scope": "GOOGLE", "types": ["bar", "night_club", "restaurant", "food", "point_of_interest", "establishment"], "user_ratings_total": 2951, "vicinity": "B\u00f6rsenbr\u00fccke 10, Trostbr\u00fccke 4-6, Hamburg"}, {"business_status": "OPERATIONAL", "geometry": {"location": {"lat": 53.5720292, "lng": 9.989344}, "viewport": {"northeast": {"lat": 53.57346902989272, "lng": 9.990497679892721}, "southwest": {"lat": 53.57076937010728, "lng": 9.987798020107277}}}, "icon": "https://maps.gstatic.com/mapfiles/place_api/icons/v1/png_71/restaurant-71.png", "icon_background_color": "#FF9E67", "icon_mask_base_uri": "https://maps.gstatic.com/mapfiles/place_api/icons/v2/restaurant_pinlet", "name": "Bolero Rotherbaum", "opening_hours": {"open_now": true}, "photos": [{"height": 3744, "html_attributions": ["<a href=\"https://maps.google.com/maps/contrib/111766358591521863378\">A Google User</a>"], "photo_reference": "AUGGfZnTBo2p84DoiyJnahwoD9R2TLHuH6yNIcv0TY4nd1uv3FO2lQ8qesDBhJklEFIZGjfETUB2GPz6980h6qme1lOT2eACCsph5xcws7OOKwCVnefnuFA4nZgj5pgLs6wERA0w4ECKV690_hoNKOaeElkVfM7udhnW74Zc8WmWITJsvm86", "width": 5616}], "place_id": "ChIJfa8F_zCPsUcR0aCH-gv1_o8", "price_level": 2, "rating": 4.1, "reference": "ChIJfa8F_zCPsUcR0aCH-gv1_o8", "scope": "GOOGLE", "types": ["restaurant", "bar", "food", "point_of_interest", "establishment"], "user_ratings_total": 1163, "vicinity": "Rothenbaumchaussee 78, Hamburg"}, {"business_status": "OPERATIONAL", "geometry": {"location": {"lat": 53.5486704, "lng": 9.9624408}, "viewport": {"northeast": {"lat": 53.54998662989272, "lng": 9.963857129892723}, "southwest": {"lat": 53.54728697010728, "lng": 9.96115747010728}}}, "icon": "https://maps.gstatic.com/mapfiles/place_api/icons/v1/png_71/bar-71.png", "icon_background_color": "#FF9E67", "icon_mask_base_uri": "https://maps.gstatic.com/mapfiles/place_api/icons/v2/bar_pinlet", "name": "Caf\u00e9 Journal", "opening_hours": {}, "photos": [{"height": 720, "html_attributions": ["<a href=\"https://maps.google.com/maps/contrib/100493031275169490740\">Ulrike Hinz</a>"], "photo_reference": "AUGGfZkV8NRLv3NDRrJX0Xsi410e0Q4bSpMRp1ZtFk6PkPpN7F8yeFGuqcTbKyN65_jqJ6gLHQ4TA6vFUukwm1E8WcCMaYuIMk2YshuISJtOdo6JCV9iV0zhQwfdHMjy9qmQwC3y_RrQQ30rjzb30JF7x4FlN0_FU_273FnL_f9DouBygQP0", "width": 960}], "place_id": "ChIJQ1jRF3KPsUcRq0esePwywOI", "rating": 4.6, "reference": "ChIJQ1jRF3KPsUcRq0esePwywOI", "scope": "GOOGLE", "types": ["cafe", "bar", "restaurant", "food", "point_of_interest", "establishment"], "user_ratings_total": 96, "vicinity": "Davidstra\u00dfe 18, Hamburg"}, {"business_status": "OPERATIONAL", "geometry": {"location": {"lat": 53.5508823, "lng": 9.980756600000001}, "viewport": {"northeast": {"lat": 53.55218032989271, "lng": 9.982016129892722}, "southwest": {"lat": 53.54948067010727, "lng": 9.979316470107278}}}, "icon": "https://maps.gstatic.com/mapfiles/place_api/icons/v1/png_71/restaurant-71.png", "icon_background_color": "#FF9E67", "icon_mask_base_uri": "https://maps.gstatic.com/mapfiles/place_api/icons/v2/restaurant_pinlet", "name": "Th\u00e4mer's", "opening_hours": {"open_now": true}, "photos": [{"height": 2736, "html_attributions": ["<a href=\"https://maps.google.com/maps/contrib/101775522143098244572\">DJ Tom Another Art of Sound &amp; Lights</a>"], "photo_reference": "AUGGfZkC_xXwUuyTXzBrfJzyOz4S9H6WAW7wRKotj2NOb9ZB8cfYwLpdEj7vveG7Z8ef2SqqKiH-EQZlPa55fv9zbu3W7leTyVgqRDkm6u9ho9FbKagc7GNJT4ulY5_KcMkixTrZ_RxIPPXKlN9yg-O4ifC0ifZdfpSAA1Nf2LFxtVU-6FLP", "width": 3648}], "place_id": "ChIJv1mlrhGPsUcR7qttV8WP4JQ", "price_level": 2, "rating": 4.4, "reference": "ChIJv1mlrhGPsUcR7qttV8WP4JQ", "scope": "GOOGLE", "types": ["restaurant", "bar", "food", "point_of_interest", "establishment"], "user_ratings_total": 1557, "vicinity": "Gro\u00dfneumarkt 10, Hamburg"}, {"business_status": "OPERATIONAL", "geometry": {"location": {"lat": 53.5457069, "lng": 9.987135600000002}, "viewport": {"northeast": {"lat": 53.54700802989272, "lng": 9.988394979892723}, "southwest": {"lat": 53.54430837010727, "lng": 9.98569532010728}}}, "icon": "https://maps.gstatic.com/mapfiles/place_api/icons/v1/png_71/restaurant-71.png", "icon_background_color": "#FF9E67", "icon_mask_base_uri": "https://maps.gstatic.com/mapfiles/place_api/icons/v2/restaurant_pinlet", "name": "BUDDELS Gasthaus & Weinbar - Hamburg", "opening_hours": {"open_now": true}, "photos": [{"height": 959, "html_attributions": ["<a href=\"https://maps.google.com/maps/contrib/111829382970277197248\">A Google User</a>"], "photo_reference": "AUGGfZldkcj53kkGcaYrrzfL764KK7mPtPDwQmDR-DMisQPfCJZdOoA3Ug906ng_xR9Mmh6Ow5KcCIGsm_4KEp3nvfx4klNOgI96n-tWKqUlgUvHoScvV6rUgynyevJf38TbX9U7MmLKzN5FmTFv-1_bczqBqLJy51eXWkvAB7u4LoiBrya6", "width": 1279}], "place_id": "ChIJL75cmZWPsUcRlntKfsxLvGA", "price_level": 2, "rating": 4.7, "reference": "ChIJL75cmZWPsUcRlntKfsxLvGA", "scope": "GOOGLE", "types": ["restaurant", "liquor_store", "bar", "night_club", "store", "food", "point_of_interest", "establishment"], "user_ratings_total": 591, "vicinity": "Deichstra\u00dfe 37, Hamburg"}, {"business_status": "OPERATIONAL", "geometry": {"location": {"lat": 53.5463337, "lng": 9.981158}, "viewport": {"northeast": {"lat": 53.54756767989272, "lng": 9.982431579892722}, "southwest": {"lat": 53.54486802010727, "lng": 9.979731920107278}}}, "icon": "https://maps.gstatic.com/mapfiles/place_api/icons/v1/png_71/restaurant-71.png", "icon_background_color": "#FF9E67", "icon_mask_base_uri": "https://maps.gstatic.com/mapfiles/place_api/icons/v2/restaurant_pinlet", "name": "THE MADISON Restaurant", "opening_hours": {"open_now": true}, "photos": [{"height": 3669, "html_attributions": ["<a href=\"https://maps.google.com/maps/contrib/117188775563227395569\">Marley&#39;s Restaurant</a>"], "photo_reference": "AUGGfZkeI7DZR1BRXYE9DJSQtE3AXwhxwuF_5hXm2w2YIXlZ4LiMZEcBFG70-4QX1igY_6uB9noXTHBoXNNI-kOu_oFo435AtS2QTTT19ScrAIp7sQFWtt7NgS1tclvId7Z6oCr7CNBjb33OV2YBDUjQpQzm4oQ8yeSzsuvu-1NWSz4DXQQn", "width": 5503}], "place_id": "ChIJmTiImA-PsUcRX0-Nzv8oGTc", "price_level": 2, "rating": 4.6, "reference": "ChIJmTiImA-PsUcRX0-Nzv8oGTc", "scope": "GOOGLE", "types": ["restaurant", "food", "point_of_interest", "establishment"], "user_ratings_total": 152, "vicinity": "Schaarsteinweg 4, Hamburg"}, {"business_status": "OPERATIONAL", "geometry": {"location": {"lat": 53.5719448, "lng": 9.9949177}, "viewport": {"northeast": {"lat": 53.57325762989272, "lng": 9.996082629892724}, "southwest": {"lat": 53.57055797010727, "lng": 9.99338297010728}}}, "icon": "https://maps.gstatic.com/mapfiles/place_api/icons/v1/png_71/bar-71.png", "icon_background_color": "#FF9E67", "icon_mask_base_uri": "https://maps.gstatic.com/mapfiles/place_api/icons/v2/bar_pinlet", "name": "ZWICK P\u00f6seldorf - The Home of Rock'n' Roll", "opening_hours": {"open_now": true}, "photos": [{"height": 612, "html_attributions": ["<a href=\"https://maps.google.com/maps/contrib/113883960743997114860\">ZWICK P\u00f6seldorf</a>"], "photo_reference": "AUGGfZmOW42Tyzfzxom09jj6Zd4oXV4C1ljIlpQvEzlXCOQK20YXYpTj53tAEEMERsIdGoPwvNjYkIgQKtxDnUhMXBIimJLB2X5_vL49oE2yYV0hFlJL7qM8wdOFXrxwHoxH5EdvioLQgBU4z-LeHESpUfxrxTM8Z8cGk921V6zR3VKdDiwI", "width": 2048}], "place_id": "ChIJGTu_Sy6PsUcRWwJoB-nNWW4", "price_level": 2, "rating": 4.2, "reference": "ChIJGTu_Sy6PsUcRWwJoB-nNWW4", "scope": "GOOGLE", "types": ["bar", "restaurant", "food", "point_of_interest", "establishment"], "user_ratings_total": 416, "vicinity": "Mittelweg 121B, Hamburg"}, {"business_status": "OPERATIONAL", "geometry": {"location": {"lat": 53.5496497, "lng": 9.998590799999999}, "viewport": {"northeast": {"lat": 53.55110872989272, "lng": 9.99992547989272}, "southwest": {"lat": 53.54840907010728, "lng": 9.997225820107277}}}, "icon": "https://maps.gstatic.com/mapfiles/place_api/icons/v1/png_71/restaurant-71.png", "icon_background_color": "#FF9E67", "icon_mask_base_uri": "https://maps.gstatic.com/mapfiles/place_api/icons/v2/restaurant_pinlet", "name": "Hofbr\u00e4u Wirtshaus Speersort", "opening_hours": {"open_now": true}, "photos": [{"height": 3024, "html_attributions": ["<a href=\"https://maps.google.com/maps/contrib/113512462775356771354\">Donn Durante</a>"], "photo_reference": "AUGGfZldpHofMW3xeOoYei55gUSy2cHqct60CKLOjfDtdH33bQpi4QvRQGIuzlIX7T3JdClaOIh14Ey1AIorY_p7pS9qfcYxY3Wljq6jEeAGVJEQ7IHtdWV580_6s1e628p-SCsjwRxuCTd1G88t7JElUr1rlT6g-QiYRdHpEJNaDWH7lI4R", "width": 4032}], "place_id": "ChIJvz4geB2PsUcRf2U3aWcLT6Y", "price_level": 2, "rating": 4.3, "reference": "ChIJvz4geB2PsUcRf2U3aWcLT6Y", "scope": "GOOGLE", "types": ["restaurant", "bar", "food", "point_of_interest", "establishment"], "user_ratings_total": 5293, "vicinity": "Speersort 1, Hamburg"}, {"business_status": "OPERATIONAL", "geometry": {"location": {"lat": 53.55187160000001, "lng": 10.0009808}, "viewport": {"northeast": {"lat": 53.55288847989272, "lng": 10.00254267989272}, "southwest": {"lat": 53.55018882010728, "lng": 9.999843020107278}}}, "icon": "https://maps.gstatic.com/mapfiles/place_api/icons/v1/png_71/restaurant-71.png", "icon_background_color": "#FF9E67", "icon_mask_base_uri": "https://maps.gstatic.com/mapfiles/place_api/icons/v2/restaurant_pinlet", "name": "Prego", "opening_hours": {"open_now": true}, "photos": [{"height": 1200, "html_attributions": ["<a href=\"https://maps.google.com/maps/contrib/115098601508061692148\">Prego</a>"], "photo_reference": "AUGGfZmJOZ3qNvjtKFYG8g-EHfZ8phfcun-QEjP7i0wWiRtIPtkune9b-rTeSZNE4Kg6l4gFShtuvPsB-PsbUOpF9PV6z6drijzSZYCzZhPdi1bqNtfItYjeaX0D3G6UMMvYPcwstM1k3bpp_0zcsj3XXlvq81-kXHeqcutRo0rzMNgzN78b", "width": 1600}], "place_id": "ChIJ6YuNA-KOsUcRvD9zUH_3hTk", "price_level": 2, "rating": 4.3, "reference": "ChIJ6YuNA-KOsUcRvD9zUH_3hTk", "scope": "GOOGLE", "types": ["meal_takeaway", "bar", "restaurant", "food", "store", "point_of_interest", "establishment"], "user_ratings_total": 4448, "vicinity": "Lilienstra\u00dfe 36, Hamburg"}, {"business_status": "OPERATIONAL", "geometry": {"location": {"lat": 53.55737360000001, "lng": 9.9709303}, "viewport": {"northeast": {"lat": 53.55867062989272, "lng": 9.972196179892721}, "southwest": {"lat": 53.55597097010728, "lng": 9.969496520107278}}}, "icon": "https://maps.gstatic.com/mapfiles/place_api/icons/v1/png_71/cafe-71.png", "icon_background_color": "#FF9E67", "icon_mask_base_uri": "https://maps.gstatic.com/mapfiles/place_api/icons/v2/cafe_pinlet", "name": "Caf\u00e9 Panda", "opening_hours": {"open_now": true}, "photos": [{"height": 2268, "html_attributions": ["<a href=\"https://maps.google.com/maps/contrib/107200639536869951878\">A Google User</a>"], "photo_reference": "AUGGfZmxTTNqWdx7IOngvqAlI0-vIUD_vqUjH2j56Hht5iuvUsTToVPZV0YuKkUhsR6-dm0LAriNc_a246wZlBKiIIT603-s6rPXMQWXcFYqyraNBtJ0aIgflEG77KfZmmTwUrW0rrNlIMo_8fKcN0jDHwZfcswxmgzOPbnDWaObyFgDkOVV", "width": 4032}], "place_id": "ChIJgZxsnmGPsUcRApvBT0qxZS4", "price_level": 2, "rating": 4.4, "reference": "ChIJgZxsnmGPsUcRApvBT0qxZS4", "scope": "GOOGLE", "types": ["cafe", "bar", "restaurant", "food", "point_of_interest", "establishment"], "user_ratings_total": 196, "vicinity": "Feldstra\u00dfe 37A, Hamburg"}, {"business_status": "OPERATIONAL", "geometry": {"location": {"lat": 53.5415077, "lng": 9.983488999999999}, "viewport": {"northeast": {"lat": 53.54273117989273, "lng": 9.985691700000002}, "southwest": {"lat": 53.54003152010728, "lng": 9.9824929}}}, "icon": "https://maps.gstatic.com/mapfiles/place_api/icons/v1/png_71/restaurant-71.png", "icon_background_color": "#FF9E67", "icon_mask_base_uri": "https://maps.gstatic.com/mapfiles/place_api/icons/v2/restaurant_pinlet", "name": "St\u00f6rtebeker Elbphilharmonie", "opening_hours": {"open_now": true}, "photos": [{"height": 1200, "html_attributions": ["<a href=\"https://maps.google.com/maps/contrib/102440491264865054287\">A Google User</a>"], "photo_reference": "AUGGfZmCn90kfskMpRIeU-LdgnCC0IpKj09VMCEeF_7hKJi2bNV1yv3TgLnTeCq8AReEeDBZqZmtXKvdo68dncmLXhYzaT3QO7ZOkGS9ZyPQ07Hi4Zn8q-UlBuPvnwJz045kWclIcJdiFk_4nmzPpvf-MN5MO5UIVkj1Smeyv6PtPjvBS4Qk", "width": 1800}], "place_id": "ChIJrwx3aAaPsUcRzlR_QXRIt_U", "price_level": 3, "rating": 4.4, "reference": "ChIJrwx3aAaPsUcRzlR_QXRIt_U", "scope": "GOOGLE", "types": ["restaurant", "bar", "food", "liquor_store", "store", "point_of_interest", "establishment"], "user_ratings_total": 2121, "vicinity": "Platz d. Deutschen Einheit 3, Hamburg"}, {"business_status": "OPERATIONAL", "geometry": {"location": {"lat": 53.5482843, "lng": 9.9778089}, "viewport": {"northeast": {"lat": 53.54960642989272, "lng": 9.979333279892721}, "southwest": {"lat": 53.54690677010727, "lng": 9.976633620107277}}}, "icon": "https://maps.gstatic.com/mapfiles/place_api/icons/v1/png_71/restaurant-71.png", "icon_background_color": "#FF9E67", "icon_mask_base_uri": "https://maps.gstatic.com/mapfiles/place_api/icons/v2/restaurant_pinlet", "name": "Old Commercial Room", "opening_hours": {"open_now": true}, "photos": [{"height": 960, "html_attributions": ["<a href=\"https://maps.google.com/maps/contrib/108741949858702036069\">A Google User</a>"], "photo_reference": "AUGGfZktkhZlNA3zVu1iN1zkK_w_n984MFkNB6sy9PVmekpQXQvXDxVcY69CGCCwaJvjkHGII9ZMY8hgdWyyfG0nmABpcqe_ZGGsTX9CxfZaa2C4RUl6286F4pPlEgJslvRFSjUtDZwdtvfaW1fgtCfFq5AsQ68oXww2hE2fids22hikshjM", "width": 1280}], "place_id": "ChIJ43-RGA6PsUcRctSqTJPnv3U", "price_level": 3, "rating": 4.4, "reference": "ChIJ43-RGA6PsUcRctSqTJPnv3U", "scope": "GOOGLE", "types": ["restaurant", "food", "point_of_interest", "establishment"], "user_ratings_total": 1704, "vicinity": "Engl. Planke 10, Hamburg"}, {"business_status": "OPERATIONAL", "geometry": {"location": {"lat": 53.568752, "lng": 9.9949969}, "viewport": {"northeast": {"lat": 53.57005972989272, "lng": 9.996551829892722}, "southwest": {"lat": 53.56736007010728, "lng": 9.993852170107278}}}, "icon": "https://maps.gstatic.com/mapfiles/place_api/icons/v1/png_71/restaurant-71.png", "icon_background_color": "#FF9E67", "icon_mask_base_uri": "https://maps.gstatic.com/mapfiles/place_api/icons/v2/restaurant_pinlet", "name": "Gurke", "opening_hours": {"open_now": true}, "photos": [{"height": 1978, "html_attributions": ["<a href=\"https://maps.google.com/maps/contrib/110629289516350689637\">Matt W</a>"], "photo_reference": "AUGGfZnO6-PJGpyyVjh1RDIIkoAECSz1o50wS_0u3HvJPLWCaL9dFDXbhyVhAmsbHO6oBnSzw6WuPR-bOEB72i9gaKLc-zr6C3X6DTb0pou4ysuXe9hI71VEo0MdBIRuUACAKzL3EOwHxNAj-P_jshiX45JVqPDP3VaTWdz6_0XyIGn3bM3k", "width": 3221}], "place_id": "ChIJvbBNfyWPsUcRiefBTeQSbYI", "price_level": 2, "rating": 4.3, "reference": "ChIJvbBNfyWPsUcRiefBTeQSbYI", "scope": "GOOGLE", "types": ["bar", "restaurant", "food", "point_of_interest", "establishment"], "user_ratings_total": 307, "vicinity": "Mittelweg 32, Hamburg"}, {"business_status": "OPERATIONAL", "geometry": {"location": {"lat": 53.5500741, "lng": 9.966273}, "viewport": {"northeast": {"lat": 53.55135937989272, "lng": 9.967643429892721}, "southwest": {"lat": 53.54865972010728, "lng": 9.964943770107277}}}, "icon": "https://maps.gstatic.com/mapfiles/place_api/icons/v1/png_71/bar-71.png", "icon_background_color": "#FF9E67", "icon_mask_base_uri": "https://maps.gstatic.com/mapfiles/place_api/icons/v2/bar_pinlet", "name": "Lehmitz Reeperbahn - Bar & Club - Kiez Hamburg", "opening_hours": {"open_now": true}, "photos": [{"height": 2268, "html_attributions": ["<a href=\"https://maps.google.com/maps/contrib/116593232113585837261\">Lothar Bonk</a>"], "photo_reference": "AUGGfZnFlt0Ebx401jatAKnSeDGo3mspGzXUgmTqoTx9srIOqJUYinM4DveRiXftQkRif4L8kSuLWGoto_7LqIxPxBX0XdKq1Y-35wzVslkCAPVuzLcqkVruCEPEJ7cAv_LewgzT2dhxwLBwJrGR1YxZ86G_6xZQZNGNpm9Z4R6rj8q6zjJD", "width": 4032}], "place_id": "ChIJOy_re22PsUcRAuIturLSSuE", "price_level": 1, "rating": 4.5, "reference": "ChIJOy_re22PsUcRAuIturLSSuE", "scope": "GOOGLE", "types": ["bar", "night_club", "restaurant", "food", "point_of_interest", "establishment"], "user_ratings_total": 603, "vicinity": "Reeperbahn 22, Hamburg"}, {"business_status": "OPERATIONAL", "geometry": {"location": {"lat": 53.552125, "lng": 9.9646574}, "viewport": {"northeast": {"lat": 53.55351967989272, "lng": 9.966023329892721}, "southwest": {"lat": 53.55082002010727, "lng": 9.963323670107277}}}, "icon": "https://maps.gstatic.com/mapfiles/place_api/icons/v1/png_71/restaurant-71.png", "icon_background_color": "#FF9E67", "icon_mask_base_uri": "https://maps.gstatic.com/mapfiles/place_api/icons/v2/restaurant_pinlet", "name": "Feuerdrache by klinkerbar", "opening_hours": {"open_now": true}, "photos": [{"height": 2560, "html_attributions": ["<a href=\"https://maps.google.com/maps/contrib/114281718052089594374\">A Google User</a>"], "photo_reference": "AUGGfZn2EdPcIfm8cfK6IOmclk9AEjzZo3R-8OcbTTVKuRy65oYH47lcsXhs-uH0A9kXW9opSfJozSKdfANeEH5GHjV8uHI0QUyhTk_y9u9p38XnWuT2gVfs-14JIAi7pq1A1SXYz7WsvCX5jmo25przLr3FlTgkTRJsjCX5KugcAE_uMkJJ", "width": 1707}], "place_id": "ChIJq3SV4jSPsUcR34IVeUlqhcE", "rating": 4.8, "reference": "ChIJq3SV4jSPsUcR34IVeUlqhcE", "scope": "GOOGLE", "types": ["bar", "restaurant", "food", "point_of_interest", "establishment"], "user_ratings_total": 71, "vicinity": "Clemens-Schultz-Stra\u00dfe 18, Hamburg"}, {"business_status": "OPERATIONAL", "geometry": {"location": {"lat": 53.5498753, "lng": 9.9641114}, "viewport": {"northeast": {"lat": 53.55114762989272, "lng": 9.965455529892722}, "southwest": {"lat": 53.54844797010728, "lng": 9.962755870107278}}}, "icon": "https://maps.gstatic.com/mapfiles/place_api/icons/v1/png_71/restaurant-71.png", "icon_background_color": "#FF9E67", "icon_mask_base_uri": "https://maps.gstatic.com/mapfiles/place_api/icons/v2/restaurant_pinlet", "name": "Herzblut St. Pauli", "opening_hours": {"open_now": true}, "photos": [{"height": 341, "html_attributions": ["<a href=\"https://maps.google.com/maps/contrib/112732113079513637305\">Herzblut St. Pauli</a>"], "photo_reference": "AUGGfZldWwbumrkIv_epEDOzJIFQ1N4RXn6Rp-sr3dqwKH0kyJoq98PgoFHt9cW6WO7XGoyF1yhNK7l6IeT4vR5JHPcwfj9-7ku9vQpG5_MC-pjqrIGCwGzOCv8fWInuotL43I5Ee35gtnCbUK3GFdxzXl45sON5fvAMWlatYJqUUE-Yt9j9", "width": 512}], "place_id": "ChIJlXkYim2PsUcR7TVgbYO7_9Q", "price_level": 2, "rating": 4.2, "reference": "ChIJlXkYim2PsUcR7TVgbYO7_9Q", "scope": "GOOGLE", "types": ["restaurant", "bar", "food", "point_of_interest", "establishment"], "user_ratings_total": 2723, "vicinity": "Reeperbahn 50, Hamburg"}, {"business_status": "OPERATIONAL", "geometry": {"location": {"lat": 53.56106699999999, "lng": 9.960642}, "viewport": {"northeast": {"lat": 53.56241172989272, "lng": 9.96187552989272}, "southwest": {"lat": 53.55971207010727, "lng": 9.959175870107277}}}, "icon": "https://maps.gstatic.com/mapfiles/place_api/icons/v1/png_71/bar-71.png", "icon_background_color": "#FF9E67", "icon_mask_base_uri": "https://maps.gstatic.com/mapfiles/place_api/icons/v2/bar_pinlet", "name": "Berliner Betr\u00fcger", "opening_hours": {"open_now": true}, "photos": [{"height": 2464, "html_attributions": ["<a href=\"https://maps.google.com/maps/contrib/113795811974748643978\">J. Ritter</a>"], "photo_reference": "AUGGfZmBLwhMFmk4sqrNV-jb00zpMURd1Cd6HRNh53WxRHiNBIuQk-lnbKWNl3MaeMqButhS8py7hGH_ViNGh29QbUCWi2VmkgO4YD4xEONGq0-1LxLhdou49MZd1oYuOA_BTRprTxBvh6SW_aroLNBYwK1pKdJH9JnuvLXZMdnatWn3iG2o", "width": 3280}], "place_id": "ChIJeS0ZnkKPsUcR2LRMyVctu6A", "price_level": 2, "rating": 4.1, "reference": "ChIJeS0ZnkKPsUcR2LRMyVctu6A", "scope": "GOOGLE", "types": ["bar", "restaurant", "food", "point_of_interest", "establishment"], "user_ratings_total": 498, "vicinity": "Juliusstra\u00dfe 15, Hamburg"}, {"business_status": "OPERATIONAL", "geometry": {"location": {"lat": 53.55252220000001, "lng": 9.9905139}, "viewport": {"northeast": {"lat": 53.55393422989273, "lng": 9.991875179892723}, "southwest": {"lat": 53.55123457010728, "lng": 9.98917552010728}}}, "icon": "https://maps.gstatic.com/mapfiles/place_api/icons/v1/png_71/restaurant-71.png", "icon_background_color": "#FF9E67", "icon_mask_base_uri": "https://maps.gstatic.com/mapfiles/place_api/icons/v2/restaurant_pinlet", "name": "Caf\u00e9 Ponton", "opening_hours": {"open_now": true}, "photos": [{"height": 3024, "html_attributions": ["<a href=\"https://maps.google.com/maps/contrib/102497673419898396126\">Tom</a>"], "photo_reference": "AUGGfZmt85jdofzTfQR1G_dSkqZcP30e16IGyXc50nwC1wbicc7HXlYKX3RKpbt6r7RlHJdji2_6rtyp8fw0aj3RY5LSwoEWm2EUSFGdgHkkFxDl-hHzGNQcXLcCxAgdLj5CnPaA83zrd8DRIqyFYfKJSjwWQ1e-rcr9ETJ-M7813oXivSkw", "width": 4032}], "place_id": "ChIJ2RAT1huPsUcRiMgCf8raKks", "price_level": 2, "rating": 3.3, "reference": "ChIJ2RAT1huPsUcRiMgCf8raKks", "scope": "GOOGLE", "types": ["restaurant", "cafe", "bar", "food", "store", "point_of_interest", "establishment"], "user_ratings_total": 828, "vicinity": "Poststra\u00dfe 9B, Hamburg"}, {"business_status": "OPERATIONAL", "geometry": {"location": {"lat": 53.5454349, "lng": 9.987170599999999}, "viewport": {"northeast": {"lat": 53.54680522989271, "lng": 9.98838472989272}, "southwest": {"lat": 53.54410557010727, "lng": 9.985685070107277}}}, "icon": "https://maps.gstatic.com/mapfiles/place_api/icons/v1/png_71/bar-71.png", "icon_background_color": "#FF9E67", "icon_mask_base_uri": "https://maps.gstatic.com/mapfiles/place_api/icons/v2/bar_pinlet", "name": "Whiskyplaza & Altstadt Restaurant am Fleet", "opening_hours": {"open_now": true}, "photos": [{"height": 3000, "html_attributions": ["<a href=\"https://maps.google.com/maps/contrib/111976879513962192350\">Hans Reinert</a>"], "photo_reference": "AUGGfZkP-YKJvL2bghDEfZjXhG3bHovIIF3jN2EJV-79xGql18uyUaTcHIfWWAqrMLd_oa7pi1owoZri4uDKfVgCr9biJNIgpRmNIpcoAld6_Rn_KYocDmdVS1f4HCUpGT3e_gMtjFK8x6cJB0RotMU_vdqncABTlgqHClNbAnbo-u49hQov", "width": 4000}], "place_id": "ChIJIb6uVg-PsUcRjLHJ5GxjR08", "rating": 4.5, "reference": "ChIJIb6uVg-PsUcRjLHJ5GxjR08", "scope": "GOOGLE", "types": ["bar", "restaurant", "food", "point_of_interest", "establishment"], "user_ratings_total": 509, "vicinity": "Deichstra\u00dfe 43, Hamburg"}, {"business_status": "OPERATIONAL", "geometry": {"location": {"lat": 53.5460313, "lng": 9.9618335}, "viewport": {"northeast": {"lat": 53.54752502989272, "lng": 9.96294652989272}, "southwest": {"lat": 53.54482537010728, "lng": 9.960246870107277}}}, "icon": "https://maps.gstatic.com/mapfiles/place_api/icons/v1/png_71/bar-71.png", "icon_background_color": "#FF9E67", "icon_mask_base_uri": "https://maps.gstatic.com/mapfiles/place_api/icons/v2/bar_pinlet", "name": "StrandPauli", "opening_hours": {"open_now": true}, "photos": [{"height": 1848, "html_attributions": ["<a href=\"https://maps.google.com/maps/contrib/117489863562296057138\">StrandPauli</a>"], "photo_reference": "AUGGfZmqb7NNUHRWq8qU3Oh5X2eAFr9Hp5edqryQMEt6ykPumN_q-2rtWqtl5CfbG7aj3P37-aGFSENpxAaSwJt6BIHRLyIhKeHcwpSB8NQCO-mUvysKmVnRbX1oj06x_8HLQF2Vlkpt0SSVCbkgwTGiMDBPVZOG8kxxcgkb96JqKcHB4Aaj", "width": 2768}], "place_id": "ChIJM6P8uHOPsUcRul6AlVABZz8", "price_level": 2, "rating": 4.5, "reference": "ChIJM6P8uHOPsUcRul6AlVABZz8", "scope": "GOOGLE", "types": ["bar", "restaurant", "food", "point_of_interest", "establishment"], "user_ratings_total": 8319, "vicinity": "St. Pauli Hafenstra\u00dfe 89, Hamburg"}, {"business_status": "OPERATIONAL", "geometry": {"location": {"lat": 53.5548145, "lng": 9.962399999999999}, "viewport": {"northeast": {"lat": 53.55616632989272, "lng": 9.963759329892723}, "southwest": {"lat": 53.55346667010728, "lng": 9.961059670107279}}}, "icon": "https://maps.gstatic.com/mapfiles/place_api/icons/v1/png_71/restaurant-71.png", "icon_background_color": "#FF9E67", "icon_mask_base_uri": "https://maps.gstatic.com/mapfiles/place_api/icons/v2/restaurant_pinlet", "name": "Kleine Pause", "opening_hours": {"open_now": true}, "photos": [{"height": 1868, "html_attributions": ["<a href=\"https://maps.google.com/maps/contrib/113119787425655696315\">vop</a>"], "photo_reference": "AUGGfZm8d5BRmdo7Al7yS1prtSA3oGVzlmKv3BrAFh2c9JTUuoDd2qNvctXBePF-CQ8EMskAENxgXtzGc02Shj7_FjXe2LhEdBOBfDe8s55o0XDo__MfKmGKR3E-xmmq_Hr3i-UN8AXtrToP9KMyokiEq28Qo1V6zZPstCJjuYZvd1TeaDsj", "width": 4000}], "place_id": "ChIJXxhct26PsUcRpWklxJwS1ok", "price_level": 1, "rating": 4.5, "reference": "ChIJXxhct26PsUcRpWklxJwS1ok", "scope": "GOOGLE", "types": ["cafe", "meal_takeaway", "bar", "restaurant", "food", "point_of_interest", "establishment"], "user_ratings_total": 2511, "vicinity": "Wohlwillstra\u00dfe 37, Hamburg"}, {"business_status": "OPERATIONAL", "geometry": {"location": {"lat": 53.5501892, "lng": 9.965019999999999}, "viewport": {"northeast": {"lat": 53.55153097989272, "lng": 9.96623527989272}, "southwest": {"lat": 53.54883132010728, "lng": 9.963535620107276}}}, "icon": "https://maps.gstatic.com/mapfiles/place_api/icons/v1/png_71/bar-71.png", "icon_background_color": "#FF9E67", "icon_mask_base_uri": "https://maps.gstatic.com/mapfiles/place_api/icons/v2/bar_pinlet", "name": "The Baby Goat Barn", "opening_hours": {"open_now": true}, "photos": [{"height": 1200, "html_attributions": ["<a href=\"https://maps.google.com/maps/contrib/111181213380888406745\">A Google User</a>"], "photo_reference": "AUGGfZmoJcWF8MyKjwxFPn8FQwYZ3XX_FYhwKD3CukGeIaVb_JnqLKOeCvG45aspEFHcirikDJmY3zF2OLmX9-mYYBsckvhnYd6zRTZEBzvVeIU8RAXkb2PK9CtwSCrAxCrfVj3dC5RrYq5h8-7sRC1VIo3eLfRL3yLCSjUZVJXONk2gr0-L", "width": 1600}], "place_id": "ChIJ0fDuYXOPsUcREkp5h3WIqes", "rating": 4.5, "reference": "ChIJ0fDuYXOPsUcREkp5h3WIqes", "scope": "GOOGLE", "types": ["meal_takeaway", "bar", "restaurant", "food", "point_of_interest", "establishment"], "user_ratings_total": 263, "vicinity": "Detlev-Bremer-Stra\u00dfe 49, Hamburg"}, {"business_status": "OPERATIONAL", "geometry": {"location": {"lat": 53.5621576, "lng": 9.9632296}, "viewport": {"northeast": {"lat": 53.56350797989272, "lng": 9.964633729892721}, "southwest": {"lat": 53.56080832010727, "lng": 9.961934070107278}}}, "icon": "https://maps.gstatic.com/mapfiles/place_api/icons/v1/png_71/cafe-71.png", "icon_background_color": "#FF9E67", "icon_mask_base_uri": "https://maps.gstatic.com/mapfiles/place_api/icons/v2/cafe_pinlet", "name": "Chakra", "opening_hours": {"open_now": true}, "photos": [{"height": 2592, "html_attributions": ["<a href=\"https://maps.google.com/maps/contrib/111515987935147433972\">A Google User</a>"], "photo_reference": "AUGGfZkoyFtjv4z_x5CQH40-cAhC5fAyjhd22ajOjKUcjXxNETZZryJfVufFIGqXUQbB7-q9EwJCRMV8puGqGq4K5p7d5KXlB5zkPuJuyz0rYWLyHEXfmRcB_N8JDNrkqgx1NdvXfERIHiAkULiP9Ftrx1rtl2WTcLunduT0vjklRxjAfaFh", "width": 4608}], "place_id": "ChIJU_27Z0KPsUcR1dM-G5up-ww", "price_level": 2, "rating": 4.3, "reference": "ChIJU_27Z0KPsUcR1dM-G5up-ww", "scope": "GOOGLE", "types": ["cafe", "bar", "restaurant", "food", "point_of_interest", "establishment"], "user_ratings_total": 662, "vicinity": "Susannenstra\u00dfe 11, Hamburg"}, {"business_status": "OPERATIONAL", "geometry": {"location": {"lat": 53.55019799999999, "lng": 9.9562749}, "viewport": {"northeast": {"lat": 53.55134767989271, "lng": 9.957594629892721}, "southwest": {"lat": 53.54864802010727, "lng": 9.954894970107278}}}, "icon": "https://maps.gstatic.com/mapfiles/place_api/icons/v1/png_71/restaurant-71.png", "icon_background_color": "#FF9E67", "icon_mask_base_uri": "https://maps.gstatic.com/mapfiles/place_api/icons/v2/restaurant_pinlet", "name": "Astra St. Pauli Brauerei", "opening_hours": {"open_now": true}, "photos": [{"height": 2268, "html_attributions": ["<a href=\"https://maps.google.com/maps/contrib/104693685329850095799\">Martin Bockler</a>"], "photo_reference": "AUGGfZk-PYYBfRWgXqiKtwex6YwdUegRlRljtS3Ny3OtLj5xoyVN6fXvFbWYhj2JwPd-BRUTIC7ZDrDaaf4eMBr_pfsazQ2eghsLZysppo24x1IWfk3MDFBW06lrQkrWaeGfRN28eaytjaAmtJ_b76XLtrEAcJIXd7_rhr4XYixdXLJVITTC", "width": 4032}], "place_id": "ChIJec6MMCKPsUcRr2yBggG3P-s", "price_level": 2, "rating": 4.4, "reference": "ChIJec6MMCKPsUcRr2yBggG3P-s", "scope": "GOOGLE", "types": ["restaurant", "bar", "food", "point_of_interest", "establishment"], "user_ratings_total": 1452, "vicinity": "Nobistor 16, Hamburg"}, {"business_status": "OPERATIONAL", "geometry": {"location": {"lat": 53.5499145, "lng": 9.97949}, "viewport": {"northeast": {"lat": 53.55132507989272, "lng": 9.981010079892721}, "southwest": {"lat": 53.54862542010728, "lng": 9.978310420107277}}}, "icon": "https://maps.gstatic.com/mapfiles/place_api/icons/v1/png_71/restaurant-71.png", "icon_background_color": "#FF9E67", "icon_mask_base_uri": "https://maps.gstatic.com/mapfiles/place_api/icons/v2/restaurant_pinlet", "name": "BEYO\u011eLU KEBAP HOUSE", "opening_hours": {"open_now": true}, "photos": [{"height": 960, "html_attributions": ["<a href=\"https://maps.google.com/maps/contrib/110229383998657396415\">BEYO\u011eLU KEBAP HOUSE</a>"], "photo_reference": "AUGGfZmiieYgc1kv8K_IPQEUMA8u8UC7dTpL2bszSeUe5avCKs98DWgZaKq_RlSwjlpKToVJaNmavReGL7Q9Mkoa1nvRZ7WAZYdiFtJAB5jyCgKwwF5mjQPFh4yLHZG30suEOq_9OynjUPrjVzSQmIU0QGe1ck76CCqeuQEcPTcSo48l_l4s", "width": 1280}], "place_id": "ChIJ1dqauBGPsUcRsx0qW65ydPw", "price_level": 2, "rating": 4.7, "reference": "ChIJ1dqauBGPsUcRsx0qW65ydPw", "scope": "GOOGLE", "types": ["bar", "restaurant", "food", "point_of_interest", "establishment"], "user_ratings_total": 1205, "vicinity": "Gro\u00dfneumarkt 38, Hamburg"}, {"business_status": "OPERATIONAL", "geometry": {"location": {"lat": 53.5587405, "lng": 10.0132656}, "viewport": {"northeast": {"lat": 53.56009337989271, "lng": 10.01463037989272}, "southwest": {"lat": 53.55739372010727, "lng": 10.01193072010728}}}, "icon": "https://maps.gstatic.com/mapfiles/place_api/icons/v1/png_71/bar-71.png", "icon_background_color": "#FF9E67", "icon_mask_base_uri": "https://maps.gstatic.com/mapfiles/place_api/icons/v2/bar_pinlet", "name": "Frau M\u00f6ller", "opening_hours": {"open_now": true}, "photos": [{"height": 3024, "html_attributions": ["<a href=\"https://maps.google.com/maps/contrib/116790204010414860209\">Motte3009</a>"], "photo_reference": "AUGGfZkpHBQxTIet3j2JUK4Z4CnsopM3laeEFUAl2ZoIstSlDJhYhAHbTQ1_bcCnXCauh28zDkd4ejK7uhqXp6wwwTn2vyS0k9leLcZ9C_iqZ5QObBMjfQtg8PANp1r0DFbGvf4fjOn7OWC6AXdjpY15glb6UamS2VHX03oqkKDFXiTizbL8", "width": 4032}], "place_id": "ChIJe8bCr92OsUcRG8cKVp4LY2s", "price_level": 1, "rating": 4.5, "reference": "ChIJe8bCr92OsUcRG8cKVp4LY2s", "scope": "GOOGLE", "types": ["bar", "restaurant", "food", "point_of_interest", "establishment"], "user_ratings_total": 7217, "vicinity": "Lange Reihe 96, Hamburg"}]