[{"business_status": "OPERATIONAL", "geometry": {"location": {"lat": 50.0880547, "lng": 14.4232477}, "viewport": {"northeast": {"lat": 50.08939497989272, "lng": 14.42460002989272}, "southwest": {"lat": 50.08669532010728, "lng": 14.42190037010728}}}, "icon": "https://maps.gstatic.com/mapfiles/place_api/icons/v1/png_71/bar-71.png", "icon_background_color": "#FF9E67", "icon_mask_base_uri": "https://maps.gstatic.com/mapfiles/place_api/icons/v2/bar_pinlet", "name": "The Dubliner Irish Bar", "opening_hours": {"open_now": true}, "photos": [{"height": 4314, "html_attributions": ["<a href=\"https://maps.google.com/maps/contrib/107020966336574207989\">A Google User</a>"], "photo_reference": "AUGGfZncqF0uukrma1uFBMo5eZIxLcXT2kyCGMb-dFDFz6x_xMsQ30XmhQ3T4OlEkga27Nlx8CYDwaWt_vZbH3g65nr1S-XfumsvgUyZMmeAFgfVbkkw8GLHJ8LEzxFeujptX3fjtCPqUI3WvP-nA5Nr-GalMPd8YSSfhih-MviZDGq90eGp", "width": 6471}], "place_id": "ChIJwx-KfemUC0cR3sS2aFjgsrc", "plus_code": {"compound_code": "3CQF+67 Prague, Czechia", "global_code": "9F2P3CQF+67"}, "price_level": 2, "rating": 4.5, "reference": "ChIJwx-KfemUC0cR3sS2aFjgsrc", "scope": "GOOGLE", "types": ["bar", "restaurant", "food", "point_of_interest", "establishment"], "user_ratings_total": 5357, "vicinity": "T\u00fdn 639/1, Star\u00e9 M\u011bsto"}, {"business_status": "OPERATIONAL", "geometry": {"location": {"lat": 50.0858138, "lng": 14.4207306}, "viewport": {"northeast": {"lat": 50.08717102989272, "lng": 14.42210017989272}, "southwest": {"lat": 50.08447137010728, "lng": 14.41940052010727}}}, "icon": "https://maps.gstatic.com/mapfiles/place_api/icons/v1/png_71/bar-71.png", "icon_background_color": "#FF9E67", "icon_mask_base_uri": "https://maps.gstatic.com/mapfiles/place_api/icons/v2/bar_pinlet", "name": "Durty Nelly's Irish Pub", "opening_hours": {"open_now": true}, "photos": [{"height": 3468, "html_attributions": ["<a href=\"https://maps.google.com/maps/contrib/104747915388475888088\">Oto Magnus</a>"], "photo_reference": "AUGGfZklFbFt6G2KaYQpkYt_xd21v_ceFtRTNuHTFyOawbvVK7UQfsNxG7XwO-sB-yBLuu29t53h1fp9uLEuh7Olu9QG21C8TowLiEod93rYGMfWhZii51kszZj_kkBhrcoi4RVMzyZhKqQpCLEATCJ9Tq7h0IcBJg-CpBLmaBy2iVlrNbwd", "width": 4624}], "place_id": "ChIJ7Wz0PEWVC0cRDi1qG5itsIg", "plus_code": {"compound_code": "3CPC+88 Prague, Czechia", "global_code": "9F2P3CPC+88"}, "price_level": 1, "rating": 4.4, "reference": "ChIJ7Wz0PEWVC0cRDi1qG5itsIg", "scope": "GOOGLE", "types": ["bar", "restaurant", "food", "point_of_interest", "establishment"], "user_ratings_total": 1286, "vicinity": "Melantrichova 472/12, Star\u00e9 M\u011bsto"}, {"business_status": "OPERATIONAL", "geometry": {"location": {"lat": 50.0841848, "lng": 14.4213459}, "viewport": {"northeast": {"lat": 50.08557237989272, "lng": 14.42263687989272}, "southwest": {"lat": 50.08287272010728, "lng": 14.41993722010727}}}, "icon": "https://maps.gstatic.com/mapfiles/place_api/icons/v1/png_71/bar-71.png", "icon_background_color": "#FF9E67", "icon_mask_base_uri": "https://maps.gstatic.com/mapfiles/place_api/icons/v2/bar_pinlet", "name": "McCarthy's Irish Pub", "opening_hours": {"open_now": true}, "photos": [{"height": 890, "html_attributions": ["<a href=\"https://maps.google.com/maps/contrib/115854032927159719325\">A Google User</a>"], "photo_reference": "AUGGfZlZPPrrN0JixVcBAAfD19AWcYo5SC_YLwjIjzMjzQEtHDv4dgSNGwh2EL1ia7s5DM8JP3eqj2PWvoLTehEITpVZ8YKrHXCFMWjq5Tb-kkOOymqBQs3RoXvrlmMIHpUH0Jnmmzog-FvX7BB74jd9crdB1lZzq4vVdsX3uKz1iSlDvh7K", "width": 1334}], "place_id": "ChIJk2rsJ-yUC0cRs41N88GoMnI", "plus_code": {"compound_code": "3CMC+MG Prague, Czechia", "global_code": "9F2P3CMC+MG"}, "price_level": 2, "rating": 4.4, "reference": "ChIJk2rsJ-yUC0cRs41N88GoMnI", "scope": "GOOGLE", "types": ["bar", "restaurant", "food", "point_of_interest", "establishment"], "user_ratings_total": 2190, "vicinity": "Ryt\u00ed\u0159sk\u00e1 406/10, Star\u00e9 M\u011bsto"}, {"business_status": "OPERATIONAL", "geometry": {"location": {"lat": 50.0879409, "lng": 14.4159438}, "viewport": {"northeast": {"lat": 50.08928177989272, "lng": 14.41728487989272}, "southwest": {"lat": 50.08658212010728, "lng": 14.41458522010728}}}, "icon": "https://maps.gstatic.com/mapfiles/place_api/icons/v1/png_71/restaurant-71.png", "icon_background_color": "#FF9E67", "icon_mask_base_uri": "https://maps.gstatic.com/mapfiles/place_api/icons/v2/restaurant_pinlet", "name": "The Pub Praha 1", "opening_hours": {"open_now": true}, "photos": [{"height": 4480, "html_attributions": ["<a href=\"https://maps.google.com/maps/contrib/101477225687682979868\">The PUB Praha 1</a>"], "photo_reference": "AUGGfZlG0kIlPPtwgNQTbk0srWibJm_2JOkgDxpwwx3DbjlBbhFbuUuf39PxrPF8M7k7PUg1FAfGAwEgUTVlkIUIHtw2Q2lUhhKiLZuOb_P7sdHIYSdHllQnBfBxkheWxzvHjVqgMLboM_p-Z0FkcIb9q3baOtbC3hoylXKAafIM4rms7HNE", "width": 6720}], "place_id": "ChIJx-x5oOiUC0cR-ro9Yi6HMmU", "plus_code": {"compound_code": "3CQ8+69 Prague 1, Czechia", "global_code": "9F2P3CQ8+69"}, "price_level": 2, "rating": 4.1, "reference": "ChIJx-x5oOiUC0cR-ro9Yi6HMmU", "scope": "GOOGLE", "types": ["restaurant", "bar", "food", "point_of_interest", "establishment"], "user_ratings_total": 3478, "vicinity": "Veleslav\u00ednova 3, Star\u00e9 M\u011bsto"}, {"business_status": "OPERATIONAL", "geometry": {"location": {"lat": 50.0910422, "lng": 14.4232598}, "viewport": {"northeast": {"lat": 50.09242107989272, "lng": 14.42450347989272}, "southwest": {"lat": 50.08972142010728, "lng": 14.42180382010728}}}, "icon": "https://maps.gstatic.com/mapfiles/place_api/icons/v1/png_71/bar-71.png", "icon_background_color": "#FF9E67", "icon_mask_base_uri": "https://maps.gstatic.com/mapfiles/place_api/icons/v2/bar_pinlet", "name": "The James Joyce", "opening_hours": {"open_now": true}, "photos": [{"height": 2581, "html_attributions": ["<a href=\"https://maps.google.com/maps/contrib/112292748722255538943\">The James Joyce</a>"], "photo_reference": "AUGGfZn10xDJxxiUBnXMnbUr8yBVSQd9y_h3AyVc8W-T9Lc5LJUDVS5A0ZmBnpuB9BujfzsWx6USFkxuLYIdiDAh1MdlfgUn8e-G0vLtfLd_1TL-2yzOWyeGYSsfSTrc-Cr-cSn60Kqvell8V22mVw9aYDl-AYbkPfUWhZ71Jefkqo6AO7yR", "width": 3872}], "place_id": "ChIJCxFg4OmUC0cRlupN2iEJJ1E", "plus_code": {"compound_code": "3CRF+C8 Prague, Czechia", "global_code": "9F2P3CRF+C8"}, "price_level": 2, "rating": 4.6, "reference": "ChIJCxFg4OmUC0cRlupN2iEJJ1E", "scope": "GOOGLE", "types": ["bar", "restaurant", "food", "point_of_interest", "establishment"], "user_ratings_total": 1427, "vicinity": "U Obecn\u00edho dvora 794/4, Star\u00e9 M\u011bsto"}, {"business_status": "OPERATIONAL", "geometry": {"location": {"lat": 50.0930428, "lng": 14.4393373}, "viewport": {"northeast": {"lat": 50.09447807989272, "lng": 14.44051582989272}, "southwest": {"lat": 50.09177842010728, "lng": 14.43781617010728}}}, "icon": "https://maps.gstatic.com/mapfiles/place_api/icons/v1/png_71/bar-71.png", "icon_background_color": "#FF9E67", "icon_mask_base_uri": "https://maps.gstatic.com/mapfiles/place_api/icons/v2/bar_pinlet", "name": "Hop House", "opening_hours": {"open_now": true}, "photos": [{"height": 1920, "html_attributions": ["<a href=\"https://maps.google.com/maps/contrib/110624827651999776563\">A Google User</a>"], "photo_reference": "AUGGfZlkcvmnNPNf8z0MEefVxbPh6dniPdzVbtik_JmjoMt2DB3FV8EzkOTLirnFR9_9KeJmAxAL6AQpkeSVDcM5ahqGb2YSsvDE3d1zqolQ0RgkUuO85YFYaik1pcWgTQ-_7esPq01753gRamrRJqUXjI4TNAkZs-7ZKFejpXtMNWpRQlDc", "width": 2880}], "place_id": "ChIJPcbTN-iVC0cRmKn6D6umQhU", "plus_code": {"compound_code": "3CVQ+6P Prague 8, Czechia", "global_code": "9F2P3CVQ+6P"}, "rating": 4.2, "reference": "ChIJPcbTN-iVC0cRmKn6D6umQhU", "scope": "GOOGLE", "types": ["bar", "point_of_interest", "establishment"], "user_ratings_total": 29, "vicinity": "Pob\u0159e\u017en\u00ed 1, Praha 8-Rohansk\u00fd ostrov"}, {"business_status": "OPERATIONAL", "geometry": {"location": {"lat": 50.0795401, "lng": 14.4259754}, "viewport": {"northeast": {"lat": 50.08091217989272, "lng": 14.42723477989272}, "southwest": {"lat": 50.07821252010728, "lng": 14.42453512010728}}}, "icon": "https://maps.gstatic.com/mapfiles/place_api/icons/v1/png_71/bar-71.png", "icon_background_color": "#FF9E67", "icon_mask_base_uri": "https://maps.gstatic.com/mapfiles/place_api/icons/v2/bar_pinlet", "name": "Rocky O'Reilly's", "opening_hours": {"open_now": true}, "photos": [{"height": 3000, "html_attributions": ["<a href=\"https://maps.google.com/maps/contrib/102248895667367890288\">\u042e\u043b\u0438\u044f \u0414\u043e\u043d\u0441\u043a\u0430\u044f</a>"], "photo_reference": "AUGGfZk_Y4wNl6zxbEH3Rc0kSk_-Zdb66XyS9xKwkjc07ovzrv1TzoRiKQ_OQIlVRaDcUfcRjuXQy4xMxQHTUbBjbkb7sxpmT3wyJqiCzXqrAbtrFGTXwLuMzVI7FasMcxOGT0JMc8TGiIcKTXkpG0EU-cT1zzKh9MLFA7fEhnlamwkmLNOl", "width": 4000}], "place_id": "ChIJYXzQsvKUC0cRU7n3uoC4P5Q", "plus_code": {"compound_code": "3CHG+R9 Prague 1, Czechia", "global_code": "9F2P3CHG+R9"}, "price_level": 2, "rating": 4.4, "reference": "ChIJYXzQsvKUC0cRU7n3uoC4P5Q", "scope": "GOOGLE", "types": ["bar", "restaurant", "food", "point_of_interest", "establishment"], "user_ratings_total": 3248, "vicinity": "\u0160t\u011bp\u00e1nsk\u00e1 32, Nov\u00e9 M\u011bsto"}, {"business_status": "OPERATIONAL", "geometry": {"location": {"lat": 50.086014, "lng": 14.4202106}, "viewport": {"northeast": {"lat": 50.08724612989273, "lng": 14.42147092989272}, "southwest": {"lat": 50.08454647010728, "lng": 14.41877127010728}}}, "icon": "https://maps.gstatic.com/mapfiles/place_api/icons/v1/png_71/bar-71.png", "icon_background_color": "#FF9E67", "icon_mask_base_uri": "https://maps.gstatic.com/mapfiles/place_api/icons/v2/bar_pinlet", "name": "My People Bar", "opening_hours": {"open_now": true}, "photos": [{"height": 2448, "html_attributions": ["<a href=\"https://maps.google.com/maps/contrib/110082802163776117073\">Billy Malone</a>"], "photo_reference": "AUGGfZmrEHVo3szoNFHCpMW3G6iY4Z3UcdH7cpz2LtnMTLr2hfoBop2r2K3KtLn8Y4Tj2_NQtSqCKCruKTjgpyjmag8FxWKnBVUbu1bfNNhbhu4beMc9HpwojbA6sDJ6fvF2UC8ymRgUgBs7-dYEfszhOE-GPXFRmq-18RQDnMkp-yiV8hnF", "width": 3264}], "place_id": "ChIJiaxitu6UC0cRnPkdfEWIaB4", "plus_code": {"compound_code": "3CPC+C4 Prague, Czechia", "global_code": "9F2P3CPC+C4"}, "price_level": 2, "rating": 4.6, "reference": "ChIJiaxitu6UC0cRnPkdfEWIaB4", "scope": "GOOGLE", "types": ["bar", "restaurant", "food", "point_of_interest", "establishment"], "user_ratings_total": 2643, "vicinity": "Michalsk\u00e1 970/20, Star\u00e9 M\u011bsto"}, {"business_status": "OPERATIONAL", "geometry": {"location": {"lat": 50.0768737, "lng": 14.441822}, "viewport": {"northeast": {"lat": 50.07831732989271, "lng": 14.44317217989272}, "southwest": {"lat": 50.07561767010727, "lng": 14.44047252010728}}}, "icon": "https://maps.gstatic.com/mapfiles/place_api/icons/v1/png_71/bar-71.png", "icon_background_color": "#FF9E67", "icon_mask_base_uri": "https://maps.gstatic.com/mapfiles/place_api/icons/v2/bar_pinlet", "name": "The Down Under", "opening_hours": {"open_now": true}, "photos": [{"height": 1080, "html_attributions": ["<a href=\"https://maps.google.com/maps/contrib/107171768475877066012\">Hendrik Jacobus Pretorius</a>"], "photo_reference": "AUGGfZny_EacOdISHkbezloUNuHqjd38s-rVFBhhzpI34iQoEtOorqbOfFMzR1eeX81vqJsvgW3VAG9HiGRZ7qwQPJVSg8cTEsClbRyIFp2VCP-eThFxPXyGrYYqL_HfxXzpHeG2dxxa-mjMtNfk6JJgl-Vp38O54ymChfZm-GDb7iK6X1YY", "width": 1920}], "place_id": "ChIJhSgxk2CVC0cRx0-BQn9FNqM", "plus_code": {"compound_code": "3CGR+PP Prague, Czechia", "global_code": "9F2P3CGR+PP"}, "price_level": 2, "rating": 4.5, "reference": "ChIJhSgxk2CVC0cRx0-BQn9FNqM", "scope": "GOOGLE", "types": ["bar", "restaurant", "food", "point_of_interest", "establishment"], "user_ratings_total": 319, "vicinity": "Vinohradsk\u00e1 48, Vinohrady"}, {"business_status": "OPERATIONAL", "geometry": {"location": {"lat": 50.0788763, "lng": 14.4295885}, "viewport": {"northeast": {"lat": 50.08020532989272, "lng": 14.43103192989272}, "southwest": {"lat": 50.07750567010728, "lng": 14.42833227010728}}}, "icon": "https://maps.gstatic.com/mapfiles/place_api/icons/v1/png_71/bar-71.png", "icon_background_color": "#FF9E67", "icon_mask_base_uri": "https://maps.gstatic.com/mapfiles/place_api/icons/v2/bar_pinlet", "name": "Beer Point : Craft Beer Pub", "opening_hours": {"open_now": true}, "photos": [{"height": 3000, "html_attributions": ["<a href=\"https://maps.google.com/maps/contrib/115826293721460545755\">Peter Milkovi\u010d</a>"], "photo_reference": "AUGGfZmbVLxUklxYMmxZdT11Yd6SVsu0MBJDaGX34Y5qS25LTxDH8V5dIUP0RWD9JwGWHljME2z77xZzqifeAncY-jCAtZ8h1zQpxgAy889oKqkMkd8qLk6Esvc3jKjneJKmOoiH68yQMYB8J49__nNp5WbPVENOG0DiYyTkI2xXNnZyJihL", "width": 4000}], "place_id": "ChIJ64zJeK-VC0cROcOkoaeDeT0", "plus_code": {"compound_code": "3CHH+HR Prague, Czechia", "global_code": "9F2P3CHH+HR"}, "price_level": 2, "rating": 4.7, "reference": "ChIJ64zJeK-VC0cROcOkoaeDeT0", "scope": "GOOGLE", "types": ["bar", "restaurant", "food", "point_of_interest", "establishment"], "user_ratings_total": 1873, "vicinity": "Mezibransk\u00e1 19, Nov\u00e9 M\u011bsto"}, {"business_status": "OPERATIONAL", "geometry": {"location": {"lat": 50.0884094, "lng": 14.4217234}, "viewport": {"northeast": {"lat": 50.08978277989272, "lng": 14.42300417989272}, "southwest": {"lat": 50.08708312010727, "lng": 14.42030452010728}}}, "icon": "https://maps.gstatic.com/mapfiles/place_api/icons/v1/png_71/bar-71.png", "icon_background_color": "#FF9E67", "icon_mask_base_uri": "https://maps.gstatic.com/mapfiles/place_api/icons/v2/bar_pinlet", "name": "Caffrey's Irish Bar", "opening_hours": {"open_now": true}, "photos": [{"height": 3024, "html_attributions": ["<a href=\"https://maps.google.com/maps/contrib/105382340225547223468\">Daniel Clarke</a>"], "photo_reference": "AUGGfZkSX1fgJ6SM8xO-y2GG5chdK_fSz-0KJHtNmv17jbqAYISGyKXP-xzNFapiBI0s8WgtS1alUQReaGV1ZK6F0Z9Gjh52PLApYzqIfmF0BF35gHBPLoWqPIkGjbwg9g1NxoBmQB-yLm37oj4l8dLb3hy1W6fGgK6yVEUGfE1rPSdmMtr8", "width": 4032}], "place_id": "ChIJ2wn0MOmUC0cR-r9757w8atQ", "plus_code": {"compound_code": "3CQC+9M Prague, Czechia", "global_code": "9F2P3CQC+9M"}, "price_level": 2, "rating": 4.3, "reference": "ChIJ2wn0MOmUC0cR-r9757w8atQ", "scope": "GOOGLE", "types": ["bar", "restaurant", "food", "point_of_interest", "establishment"], "user_ratings_total": 2246, "vicinity": "Starom\u011bstsk\u00e9 n\u00e1m. 10, Star\u00e9 M\u011bsto"}, {"business_status": "OPERATIONAL", "geometry": {"location": {"lat": 50.0761743, "lng": 14.4282502}, "viewport": {"northeast": {"lat": 50.07756847989273, "lng": 14.42959282989272}, "southwest": {"lat": 50.07486882010728, "lng": 14.42689317010728}}}, "icon": "https://maps.gstatic.com/mapfiles/place_api/icons/v1/png_71/restaurant-71.png", "icon_background_color": "#FF9E67", "icon_mask_base_uri": "https://maps.gstatic.com/mapfiles/place_api/icons/v2/restaurant_pinlet", "name": "The PUB Praha 2", "opening_hours": {"open_now": true}, "photos": [{"height": 3024, "html_attributions": ["<a href=\"https://maps.google.com/maps/contrib/107214100140335178675\">D. R\u00f3bert</a>"], "photo_reference": "AUGGfZkQfzMhwvHgSj3vS_lG61RBie0c5f3KysPIVVBlsphWGbivcxzgPspp1qXEeL_zDxn0RsU214v4adSyvIKn0y_w-0b5O3gM_k_3Bm185b_zBLCa9r7gEeuldsnLfP6bHkAeLKkmMRoKmJ9-h5WVq6BqIhrZb_SsiPgxaBaHtjiqyDit", "width": 4032}], "place_id": "ChIJXRQlXoyUC0cRq5R4OBRKKxU", "plus_code": {"compound_code": "3CGH+F7 Prague 2, Czechia", "global_code": "9F2P3CGH+F7"}, "price_level": 2, "rating": 4.1, "reference": "ChIJXRQlXoyUC0cRq5R4OBRKKxU", "scope": "GOOGLE", "types": ["restaurant", "bar", "food", "point_of_interest", "establishment"], "user_ratings_total": 1056, "vicinity": "H\u00e1lkova 6, Nov\u00e9 M\u011bsto"}, {"business_status": "OPERATIONAL", "geometry": {"location": {"lat": 50.0805859, "lng": 14.4195977}, "viewport": {"northeast": {"lat": 50.08194177989272, "lng": 14.42105882989272}, "southwest": {"lat": 50.07924212010727, "lng": 14.41835917010728}}}, "icon": "https://maps.gstatic.com/mapfiles/place_api/icons/v1/png_71/bar-71.png", "icon_background_color": "#FF9E67", "icon_mask_base_uri": "https://maps.gstatic.com/mapfiles/place_api/icons/v2/bar_pinlet", "name": "The Quays Bar", "opening_hours": {"open_now": true}, "photos": [{"height": 4032, "html_attributions": ["<a href=\"https://maps.google.com/maps/contrib/115499227752859534550\">A Google User</a>"], "photo_reference": "AUGGfZldn9t2usilaqakTniutectkDlf2OwANQDUD5n7Cl6SJqYfwvVNv1dBcdYA_tW0D9nvDnJppT5KJ3FOQDXhUljzBdml9fx31Q6gp1Aq2TkFJLzsx4SvHUo7aYNbqoGAZLANqFOaeGM1j2K8_74WfVC3gPJa_so89g7eQLBsL2KC_rtn", "width": 3024}], "place_id": "ChIJSytYPWmVC0cRuHIJhhkp55Y", "plus_code": {"compound_code": "3CJ9+6R Prague, Czechia", "global_code": "9F2P3CJ9+6R"}, "rating": 4.4, "reference": "ChIJSytYPWmVC0cRuHIJhhkp55Y", "scope": "GOOGLE", "types": ["bar", "night_club", "restaurant", "food", "point_of_interest", "establishment"], "user_ratings_total": 120, "vicinity": "Sp\u00e1len\u00e1 98/31, Nov\u00e9 M\u011bsto 1, Praha 1"}, {"business_status": "OPERATIONAL", "geometry": {"location": {"lat": 50.08732879999999, "lng": 14.4192675}, "viewport": {"northeast": {"lat": 50.08871177989272, "lng": 14.42056617989272}, "southwest": {"lat": 50.08601212010728, "lng": 14.41786652010728}}}, "icon": "https://maps.gstatic.com/mapfiles/place_api/icons/v1/png_71/bar-71.png", "icon_background_color": "#FF9E67", "icon_mask_base_uri": "https://maps.gstatic.com/mapfiles/place_api/icons/v2/bar_pinlet", "name": "Pivnice U Kata", "opening_hours": {"open_now": true}, "photos": [{"height": 2592, "html_attributions": ["<a href=\"https://maps.google.com/maps/contrib/110335663102109637614\">Pivnice U Kata</a>"], "photo_reference": "AUGGfZk7XDCm6nqD1QPPjwhUKpjhIlbLuT9bDWF0jr3AX4UqcvZzGpYGgYB0g8jjQJynyMk2B06vRr0VLOyVvkj79Gx4fNSW6aQ57HYJAAJwAQCJq5lFRC9fXVxvQo5UWEBizCRUCVUX8U3NbBGzteEWuYJUwnAhOAldToDLB25IBIchZQXq", "width": 3872}], "place_id": "ChIJF5JAJ-mUC0cRlbl-Mwtvb6k", "plus_code": {"compound_code": "3CP9+WP Prague, Czechia", "global_code": "9F2P3CP9+WP"}, "price_level": 2, "rating": 3.9, "reference": "ChIJF5JAJ-mUC0cRlbl-Mwtvb6k", "scope": "GOOGLE", "types": ["bar", "point_of_interest", "establishment"], "user_ratings_total": 1809, "vicinity": "U Radnice 6, Star\u00e9 M\u011bsto"}, {"business_status": "OPERATIONAL", "geometry": {"location": {"lat": 50.0771518, "lng": 14.4215529}, "viewport": {"northeast": {"lat": 50.07828877989272, "lng": 14.42270422989272}, "southwest": {"lat": 50.07558912010728, "lng": 14.42000457010728}}}, "icon": "https://maps.gstatic.com/mapfiles/place_api/icons/v1/png_71/restaurant-71.png", "icon_background_color": "#FF9E67", "icon_mask_base_uri": "https://maps.gstatic.com/mapfiles/place_api/icons/v2/restaurant_pinlet", "name": "The Pub & Grill No.1", "opening_hours": {"open_now": true}, "photos": [{"height": 4000, "html_attributions": ["<a href=\"https://maps.google.com/maps/contrib/103229241219691860431\">A Google User</a>"], "photo_reference": "AUGGfZlHv0jVw8hAhCsw_x0tJW_LhM0xF6dcn2Ln9SkdsotyiNHt5A7siVwLLOU5DT7sbKNYIiJbfn9vvOCBfh0lphVEuZz4xp0J_xrqWWQHnljot7Kvj119HG1R-npBhr6igsq7ovalHz1yFaJ6iqHH-tGVTi88jiaX2unGXfGm-v4bfJFH", "width": 6000}], "place_id": "ChIJFZvooPOUC0cR7S8j6y36L7I", "plus_code": {"compound_code": "3CGC+VJ Prague 2, Czechia", "global_code": "9F2P3CGC+VJ"}, "price_level": 2, "rating": 4.3, "reference": "ChIJFZvooPOUC0cR7S8j6y36L7I", "scope": "GOOGLE", "types": ["restaurant", "bar", "food", "point_of_interest", "establishment"], "user_ratings_total": 1341, "vicinity": "Karlovo n\u00e1m. 28/559, Nov\u00e9 M\u011bsto"}, {"business_status": "OPERATIONAL", "geometry": {"location": {"lat": 50.0862318, "lng": 14.45123}, "viewport": {"northeast": {"lat": 50.08772567989273, "lng": 14.45295777989272}, "southwest": {"lat": 50.08502602010729, "lng": 14.45025812010728}}}, "icon": "https://maps.gstatic.com/mapfiles/place_api/icons/v1/png_71/bar-71.png", "icon_background_color": "#FF9E67", "icon_mask_base_uri": "https://maps.gstatic.com/mapfiles/place_api/icons/v2/bar_pinlet", "name": "Dump Pub", "opening_hours": {"open_now": true}, "photos": [{"height": 4160, "html_attributions": ["<a href=\"https://maps.google.com/maps/contrib/102236287251304567302\">\u042e\u0440\u0456\u0439 \u0424\u0443\u0436\u0435\u043d\u043a\u043e</a>"], "photo_reference": "AUGGfZlZuPpdItwUBDLzzBqdM2Yoo_Ve1HtHCG-DJjTpEm36ty_O5n8KWrK2z-c6aGYmGhNRTHYvsIfXTsw0x1uqLXo-uAuOqsNhDds0Wb3KbSPEVbrteM8B3KpmBIftrTtxLBfnCFx7QDOCAGJd-BzviMLMSnTdJ2fCpBEnv5uFXemg3mAg", "width": 3120}], "place_id": "ChIJWWz92JaVC0cRsupXZ-YhKUY", "plus_code": {"compound_code": "3FP2+FP Prague 3, Czechia", "global_code": "9F2P3FP2+FP"}, "rating": 4.5, "reference": "ChIJWWz92JaVC0cRsupXZ-YhKUY", "scope": "GOOGLE", "types": ["bar", "point_of_interest", "establishment"], "user_ratings_total": 36, "vicinity": "Mil\u00ed\u010dova 25, Praha 3-\u017di\u017ekov"}, {"business_status": "OPERATIONAL", "geometry": {"location": {"lat": 50.0664407, "lng": 14.4071652}, "viewport": {"northeast": {"lat": 50.06782082989272, "lng": 14.40867497989272}, "southwest": {"lat": 50.06512117010728, "lng": 14.40597532010728}}}, "icon": "https://maps.gstatic.com/mapfiles/place_api/icons/v1/png_71/restaurant-71.png", "icon_background_color": "#FF9E67", "icon_mask_base_uri": "https://maps.gstatic.com/mapfiles/place_api/icons/v2/restaurant_pinlet", "name": "The PUB U Zlat\u00e9ho jelena", "opening_hours": {"open_now": true}, "photos": [{"height": 3120, "html_attributions": ["<a href=\"https://maps.google.com/maps/contrib/105435923648052841388\">Petr Musil</a>"], "photo_reference": "AUGGfZluueFNy64Pf28JZRVJWoawXfzx1XdxXt_Kio4CxXYWAW2WNfYF06O2OQWeit5Eu8vHFfDXvYdJeOgDRLB2zu0_KFCw1JUqZMVwuZ_iYNeBYNOEFQR_7jlZLXQEPFngLqdIPiy5DJujTTW72loLVnelV5VU695YvZZWoc1wqYxBCCAI", "width": 4160}], "place_id": "ChIJ-R1BJ1qUC0cRhL5w7CVfEE4", "plus_code": {"compound_code": "3C84+HV Prague 5, Czechia", "global_code": "9F2P3C84+HV"}, "price_level": 2, "rating": 4.1, "reference": "ChIJ-R1BJ1qUC0cRhL5w7CVfEE4", "scope": "GOOGLE", "types": ["restaurant", "bar", "food", "point_of_interest", "establishment"], "user_ratings_total": 689, "vicinity": "N\u00e1dra\u017en\u00ed 294/7, Praha 5-Sm\u00edchov"}, {"business_status": "OPERATIONAL", "geometry": {"location": {"lat": 50.0805343, "lng": 14.44922}, "viewport": {"northeast": {"lat": 50.08189267989272, "lng": 14.45048972989272}, "southwest": {"lat": 50.07919302010728, "lng": 14.44779007010728}}}, "icon": "https://maps.gstatic.com/mapfiles/place_api/icons/v1/png_71/bar-71.png", "icon_background_color": "#FF9E67", "icon_mask_base_uri": "https://maps.gstatic.com/mapfiles/place_api/icons/v2/bar_pinlet", "name": "U Sadu", "opening_hours": {"open_now": true}, "photos": [{"height": 4140, "html_attributions": ["<a href=\"https://maps.google.com/maps/contrib/112580006305088723696\">Filippo D</a>"], "photo_reference": "AUGGfZlXrPa0uNMKO-oD87GoNy4V9pOw6crMt8Tiwv2J5b7lcoLCiQDs01mpHp8JFoNqnZLCeMuItxxaBL7D8YQfp-CbHXZYSWAop6sErYDO-TjgE4_cXs4uOR-KH5FCu75Zvc31Ea3Bc_9o0kysLt-7X1Z7jHsLwcj5SSCH11sNQSu6nZ_6", "width": 5520}], "place_id": "ChIJObZsepyUC0cReImjiRiVYGE", "plus_code": {"compound_code": "3CJX+6M Prague 3, Czechia", "global_code": "9F2P3CJX+6M"}, "price_level": 2, "rating": 4.3, "reference": "ChIJObZsepyUC0cReImjiRiVYGE", "scope": "GOOGLE", "types": ["bar", "restaurant", "food", "point_of_interest", "establishment"], "user_ratings_total": 5784, "vicinity": "\u0160kroupovo n\u00e1m. 1282/5, Praha 3-\u017di\u017ekov"}, {"business_status": "OPERATIONAL", "geometry": {"location": {"lat": 50.0767951, "lng": 14.4335239}, "viewport": {"northeast": {"lat": 50.07855087989272, "lng": 14.43441752989273}, "southwest": {"lat": 50.07585122010727, "lng": 14.43171787010728}}}, "icon": "https://maps.gstatic.com/mapfiles/place_api/icons/v1/png_71/bar-71.png", "icon_background_color": "#FF9E67", "icon_mask_base_uri": "https://maps.gstatic.com/mapfiles/place_api/icons/v2/bar_pinlet", "name": "NUBEERBAR - craft beer & burgers", "opening_hours": {"open_now": true}, "photos": [{"height": 1997, "html_attributions": ["<a href=\"https://maps.google.com/maps/contrib/115791206384372648641\">NUBEERBAR</a>"], "photo_reference": "AUGGfZnPFbcTeWtt_6oDvyqEvfDy_mJnczYpoSdTPcQHAJJyNoKLZ7KtRtYPmxsVHq89WP62U1e2GzVAGzIXHqICER4w7tlqxsudDU861IxYRhEvm7Y1gk70IEmEsflD5LnTyBQzqDCS_xGk74baqZBVP7ZT8OwtUy3svjldmHVjQFN6yesw", "width": 2996}], "place_id": "ChIJxZaPYY6UC0cRgcKkhzthj7M", "plus_code": {"compound_code": "3CGM+PC Prague, Czechia", "global_code": "9F2P3CGM+PC"}, "price_level": 2, "rating": 4.4, "reference": "ChIJxZaPYY6UC0cRgcKkhzthj7M", "scope": "GOOGLE", "types": ["liquor_store", "bar", "store", "restaurant", "food", "point_of_interest", "establishment"], "user_ratings_total": 973, "vicinity": "Balb\u00ednova 1, Vinohrady"}, {"business_status": "OPERATIONAL", "geometry": {"location": {"lat": 50.0723254, "lng": 14.4350829}, "viewport": {"northeast": {"lat": 50.07377852989272, "lng": 14.43643927989272}, "southwest": {"lat": 50.07107887010728, "lng": 14.43373962010727}}}, "icon": "https://maps.gstatic.com/mapfiles/place_api/icons/v1/png_71/restaurant-71.png", "icon_background_color": "#FF9E67", "icon_mask_base_uri": "https://maps.gstatic.com/mapfiles/place_api/icons/v2/restaurant_pinlet", "name": "Becketts Irish Pub and Restaurant", "opening_hours": {"open_now": true}, "photos": [{"height": 3840, "html_attributions": ["<a href=\"https://maps.google.com/maps/contrib/109118382549611944507\">Patrik Bodn\u00e1r</a>"], "photo_reference": "AUGGfZnv_1nYD75TLqa7Q3qvjQy90u8rU0gPHrhfqJXqvodKKTLpMGbvAgI4cBOG-OLkKzXo-3oFt2wjZE8aaI8s6m3N0c-VjWsf-tj7qp-mp39BpwYRiW1VqQh1GfA7b8XXit_KWdEUSOfksFr1TlJ_QZys6ISW7KufkVVOgRr63N8emgPE", "width": 5120}], "place_id": "ChIJqxZw64iUC0cR3mHYaKH8XoY", "plus_code": {"compound_code": "3CCP+W2 Prague 2, Czechia", "global_code": "9F2P3CCP+W2"}, "price_level": 2, "rating": 4.4, "reference": "ChIJqxZw64iUC0cR3mHYaKH8XoY", "scope": "GOOGLE", "types": ["restaurant", "food", "point_of_interest", "establishment"], "user_ratings_total": 856, "vicinity": "Lond\u00fdnsk\u00e1 473/22, Praha 2-Vinohrady"}]