[{"business_status": "OPERATIONAL", "geometry": {"location": {"lat": 43.773111, "lng": 11.2498656}, "viewport": {"northeast": {"lat": 43.77434127989272, "lng": 11.25102242989272}, "southwest": {"lat": 43.77164162010728, "lng": 11.24832277010728}}}, "icon": "https://maps.gstatic.com/mapfiles/place_api/icons/v1/png_71/bar-71.png", "icon_background_color": "#FF9E67", "icon_mask_base_uri": "https://maps.gstatic.com/mapfiles/place_api/icons/v2/bar_pinlet", "name": "The Fiddler's Elbow Irish Pub", "opening_hours": {"open_now": true}, "photos": [{"height": 2667, "html_attributions": ["<a href=\"https://maps.google.com/maps/contrib/108781633596286739806\">Fiddlers Elbow Irish Pub</a>"], "photo_reference": "AUGGfZk3BLcFAu6HLI0IDpTHL49ykQ5YjyfMB9_bvU-869TKSDptktFF8YOQTktVgthVfIUxzZoSCp6XkfltUqGODTmqE335FMgndUnluIBKwPxFmmcdrGuluuoJ-Mk-Lb2ia0ARo49wgG6dlo40HN8Yc7rmcDxejtrdyuDe_TQ9-1ug8KHc", "width": 4000}], "place_id": "ChIJZ-T6gKlWKhMRD7n-_BjcTwA", "plus_code": {"compound_code": "Q6FX+6W Florence, Metropolitan City of Florence, Italy", "global_code": "8FMHQ6FX+6W"}, "price_level": 2, "rating": 4.4, "reference": "ChIJZ-T6gKlWKhMRD7n-_BjcTwA", "scope": "GOOGLE", "types": ["bar", "restaurant", "point_of_interest", "food", "establishment"], "user_ratings_total": 1550, "vicinity": "7R, P.za di Santa Maria Novella, Firenze"}, {"business_status": "OPERATIONAL", "geometry": {"location": {"lat": 43.7715033, "lng": 11.2615034}, "viewport": {"northeast": {"lat": 43.77283272989272, "lng": 11.26285252989272}, "southwest": {"lat": 43.77013307010727, "lng": 11.26015287010728}}}, "icon": "https://maps.gstatic.com/mapfiles/place_api/icons/v1/png_71/bar-71.png", "icon_background_color": "#FF9E67", "icon_mask_base_uri": "https://maps.gstatic.com/mapfiles/place_api/icons/v2/bar_pinlet", "name": "The Lion's Fountain Irish Pub", "opening_hours": {"open_now": true}, "photos": [{"height": 5472, "html_attributions": ["<a href=\"https://maps.google.com/maps/contrib/107061067868104937441\">lionciro76</a>"], "photo_reference": "AUGGfZl7Kg9AfFpoFiTxfp9z1ehzBlKkkteillyS2XXCf6ZVOwTi9K9w_0GS7n2FYZzCTmN-s8n_G0NcuFj64zPz5H4jC0rXcvskrQsuERWqFFX6qHYzcVz7wCRZe69PFEJUJFqMH3u4F8sr4pBD3q54iMStjLa5I-quy58XhgfSIIDZIGw8", "width": 7296}], "place_id": "ChIJgetpeQZUKhMR1HlBf0B_2tQ", "plus_code": {"compound_code": "Q7C6+JJ Florence, Metropolitan City of Florence, Italy", "global_code": "8FMHQ7C6+JJ"}, "price_level": 2, "rating": 4.1, "reference": "ChIJgetpeQZUKhMR1HlBf0B_2tQ", "scope": "GOOGLE", "types": ["bar", "restaurant", "point_of_interest", "food", "establishment"], "user_ratings_total": 1707, "vicinity": "Borgo degli Albizi, 34r, Firenze"}, {"business_status": "OPERATIONAL", "geometry": {"location": {"lat": 43.7699319, "lng": 11.2536542}, "viewport": {"northeast": {"lat": 43.77123722989272, "lng": 11.25533047989272}, "southwest": {"lat": 43.76853757010728, "lng": 11.25263082010728}}}, "icon": "https://maps.gstatic.com/mapfiles/place_api/icons/v1/png_71/bar-71.png", "icon_background_color": "#FF9E67", "icon_mask_base_uri": "https://maps.gstatic.com/mapfiles/place_api/icons/v2/bar_pinlet", "name": "The Old Stove Irish Pub", "opening_hours": {"open_now": true}, "photos": [{"height": 3024, "html_attributions": ["<a href=\"https://maps.google.com/maps/contrib/113478037351132604017\">A Google User</a>"], "photo_reference": "AUGGfZm_bUmeGseJkhAtx8_0pnZOUHbBET_sc55I4mWfG1b5ACn57dOiudK2lVDCA5syp521oBmkn-XimIhMFbhnkRenYkg_Sph_VUJxr_bSYOZuzL7nJbvhykfRdyDsm2TDCbJb3Kglks08D7-43MQ1V-cjrp_djueTzsTbEo6XQ1zfgFn6", "width": 4032}], "place_id": "ChIJK807NABUKhMRIvH3c-7pp6s", "plus_code": {"compound_code": "Q793+XF Florence, Metropolitan City of Florence, Italy", "global_code": "8FMHQ793+XF"}, "price_level": 2, "rating": 4.5, "reference": "ChIJK807NABUKhMRIvH3c-7pp6s", "scope": "GOOGLE", "types": ["cafe", "night_club", "bar", "restaurant", "point_of_interest", "food", "establishment"], "user_ratings_total": 2559, "vicinity": "Via Pellicceria, 2, Firenze"}, {"business_status": "OPERATIONAL", "geometry": {"location": {"lat": 43.7699636, "lng": 11.2563661}, "viewport": {"northeast": {"lat": 43.77131267989272, "lng": 11.25790457989272}, "southwest": {"lat": 43.76861302010727, "lng": 11.25520492010728}}}, "icon": "https://maps.gstatic.com/mapfiles/place_api/icons/v1/png_71/bar-71.png", "icon_background_color": "#FF9E67", "icon_mask_base_uri": "https://maps.gstatic.com/mapfiles/place_api/icons/v2/bar_pinlet", "name": "The Michael Collins Irish Pub", "opening_hours": {"open_now": true}, "photos": [{"height": 4672, "html_attributions": ["<a href=\"https://maps.google.com/maps/contrib/101582240542360599994\">The Michael Collins Irish Pub</a>"], "photo_reference": "AUGGfZmL5Ab-C1vw9TJprboZlPhzAZ1aWDCR9FhzpggiUp73isbuy7xCoUcBPRcp5t_-Yxum97LOmmWJ_fuiOulaLVbBiZKKphIzShN8yd35lvVSewSbHOaiy36OHiqdUM0IL2Mk3uTfkBTwgSpdWvG_7TiW50ofMQYoJ4UrGSzVKgqpFrZQ", "width": 7008}], "place_id": "ChIJ-T304QBUKhMRT0qaqJ-arAA", "plus_code": {"compound_code": "Q794+XG Florence, Metropolitan City of Florence, Italy", "global_code": "8FMHQ794+XG"}, "rating": 4.2, "reference": "ChIJ-T304QBUKhMRT0qaqJ-arAA", "scope": "GOOGLE", "types": ["night_club", "bar", "restaurant", "point_of_interest", "food", "establishment"], "user_ratings_total": 505, "vicinity": "P.za della Signoria, 30, Firenze"}, {"business_status": "OPERATIONAL", "geometry": {"location": {"lat": 43.7825455, "lng": 11.2564655}, "viewport": {"northeast": {"lat": 43.78395097989273, "lng": 11.25779047989272}, "southwest": {"lat": 43.78125132010729, "lng": 11.25509082010728}}}, "icon": "https://maps.gstatic.com/mapfiles/place_api/icons/v1/png_71/restaurant-71.png", "icon_background_color": "#FF9E67", "icon_mask_base_uri": "https://maps.gstatic.com/mapfiles/place_api/icons/v2/restaurant_pinlet", "name": "Hops Pub - Pizzeria", "opening_hours": {"open_now": true}, "photos": [{"height": 3024, "html_attributions": ["<a href=\"https://maps.google.com/maps/contrib/112096357008638697185\">Aurelien Beguyot</a>"], "photo_reference": "AUGGfZktu4uP2dp_WUeO9__4hmioRKNVouBQiROPa-mZhiN81M-ZXVJbr5sAXEeFPrho2o6acWev9SAbramN1K4HPAU-RK66GYvQHmkRMyRbMvMmav8qkh8bQHDwvhln-RnjhrAJQ9X4qJmn1ykXm__jBOdWaSmV9ZdGRG6Z71JLZNhgd0AA", "width": 4032}], "place_id": "ChIJ5T8Vlh5UKhMRpigjD_xybDI", "plus_code": {"compound_code": "Q7M4+2H Florence, Metropolitan City of Florence, Italy", "global_code": "8FMHQ7M4+2H"}, "price_level": 1, "rating": 4.4, "reference": "ChIJ5T8Vlh5UKhMRpigjD_xybDI", "scope": "GOOGLE", "types": ["restaurant", "meal_takeaway", "bar", "point_of_interest", "food", "establishment"], "user_ratings_total": 855, "vicinity": "V.le Spartaco Lavagnini, 7 rosso, Firenze"}, {"business_status": "OPERATIONAL", "geometry": {"location": {"lat": 43.77278279999999, "lng": 11.2547858}, "viewport": {"northeast": {"lat": 43.77418162989272, "lng": 11.25599272989272}, "southwest": {"lat": 43.77148197010727, "lng": 11.25329307010728}}}, "icon": "https://maps.gstatic.com/mapfiles/place_api/icons/v1/png_71/bar-71.png", "icon_background_color": "#FF9E67", "icon_mask_base_uri": "https://maps.gstatic.com/mapfiles/place_api/icons/v2/bar_pinlet", "name": "JJ Cathedral", "opening_hours": {"open_now": true}, "photos": [{"height": 3024, "html_attributions": ["<a href=\"https://maps.google.com/maps/contrib/109702051347155666726\">Marco Ratto Olsen</a>"], "photo_reference": "AUGGfZmxJtWn2sZEA6rkTr1-IfsuVKKcIkVbgSMlFQqOGHOEbN008NSuah8b_ivqfhsEDpy7oVdk37vNvCRFh12Njo6p9lo-iV8w1ylXhkgTZ_ZQhRLU-gaqH8MqYPVSv3ypQBreUxJ4EGt_h9rJmMmkjhebb9TdCTirEdg_rvWDs8FzYCSx", "width": 4032}], "place_id": "ChIJEQoXwhhTKhMRX1jsTi5m59Y", "plus_code": {"compound_code": "Q7F3+4W Florence, Metropolitan City of Florence, Italy", "global_code": "8FMHQ7F3+4W"}, "price_level": 2, "rating": 4, "reference": "ChIJEQoXwhhTKhMRX1jsTi5m59Y", "scope": "GOOGLE", "types": ["bar", "restaurant", "point_of_interest", "food", "establishment"], "user_ratings_total": 912, "vicinity": "Piazza di San Giovanni, 4r, Firenze"}, {"business_status": "OPERATIONAL", "geometry": {"location": {"lat": 43.7816573, "lng": 11.2561866}, "viewport": {"northeast": {"lat": 43.78302307989272, "lng": 11.25751422989272}, "southwest": {"lat": 43.78032342010728, "lng": 11.25481457010728}}}, "icon": "https://maps.gstatic.com/mapfiles/place_api/icons/v1/png_71/bar-71.png", "icon_background_color": "#FF9E67", "icon_mask_base_uri": "https://maps.gstatic.com/mapfiles/place_api/icons/v2/bar_pinlet", "name": "The Florence Irish Pub", "opening_hours": {"open_now": false}, "photos": [{"height": 3060, "html_attributions": ["<a href=\"https://maps.google.com/maps/contrib/102258115241743633803\">Antomio Albergo</a>"], "photo_reference": "AUGGfZnpfOndVev2QGqRHzztP1admRtfEgxCBqryfL0DEZ87K9MIWRRGe_d4O-roISiJSWJK8ICtgvsSA3CQsG-tk7VA5Wv-jUHXDfelEeXHAfmgjAAzryuaCpiNOISBWiIAnb5mHOL_lv16COiWdWhcU3AqMz9JbSQlblt9Snh05UAD6si3", "width": 4080}], "place_id": "ChIJ77C2LxxUKhMR_Fjs3AlpBlo", "plus_code": {"compound_code": "Q7J4+MF Florence, Metropolitan City of Florence, Italy", "global_code": "8FMHQ7J4+MF"}, "price_level": 2, "rating": 4.5, "reference": "ChIJ77C2LxxUKhMR_Fjs3AlpBlo", "scope": "GOOGLE", "types": ["bar", "restaurant", "point_of_interest", "food", "establishment"], "user_ratings_total": 664, "vicinity": "16, Via Santa Caterina D'Alessandria, 16A, Firenze"}, {"business_status": "OPERATIONAL", "geometry": {"location": {"lat": 43.7753182, "lng": 11.2524549}, "viewport": {"northeast": {"lat": 43.77684917989272, "lng": 11.25369807989272}, "southwest": {"lat": 43.77414952010728, "lng": 11.25099842010728}}}, "icon": "https://maps.gstatic.com/mapfiles/place_api/icons/v1/png_71/bar-71.png", "icon_background_color": "#FF9E67", "icon_mask_base_uri": "https://maps.gstatic.com/mapfiles/place_api/icons/v2/bar_pinlet", "name": "Alibi Craft Beer & Kitchen", "opening_hours": {"open_now": true}, "photos": [{"height": 4000, "html_attributions": ["<a href=\"https://maps.google.com/maps/contrib/110013313099115420960\">A Google User</a>"], "photo_reference": "AUGGfZkTkrMai7v7c-4YDkPPCyWmSuCNdaAtnfI6HOHyv8h082s-VdmudzgZYG1P-z2MnYq4dZLRfMQ2g_EQ_8geC3xfuMYyL-5RFXE2n9eEw9UyxJXFKXCmCUdtzL3byUZOz094fosOJWR8WbpouweGr3ThTcsKC0oUoAEs73fi9lQJaoQ_", "width": 6000}], "place_id": "ChIJ27MvxYNXKhMRj1QPDiuOHQc", "plus_code": {"compound_code": "Q7G2+4X Florence, Metropolitan City of Florence, Italy", "global_code": "8FMHQ7G2+4X"}, "price_level": 2, "rating": 4.8, "reference": "ChIJ27MvxYNXKhMRj1QPDiuOHQc", "scope": "GOOGLE", "types": ["bar", "restaurant", "point_of_interest", "food", "establishment"], "user_ratings_total": 438, "vicinity": "Via Faenza, 21/R, Firenze"}, {"business_status": "OPERATIONAL", "geometry": {"location": {"lat": 43.770473, "lng": 11.260265}, "viewport": {"northeast": {"lat": 43.77181717989272, "lng": 11.26160927989272}, "southwest": {"lat": 43.76911752010728, "lng": 11.25890962010728}}}, "icon": "https://maps.gstatic.com/mapfiles/place_api/icons/v1/png_71/bar-71.png", "icon_background_color": "#FF9E67", "icon_mask_base_uri": "https://maps.gstatic.com/mapfiles/place_api/icons/v2/bar_pinlet", "name": "Fitzpatrick's Irish Pub & Restaurant", "opening_hours": {"open_now": false}, "photos": [{"height": 2268, "html_attributions": ["<a href=\"https://maps.google.com/maps/contrib/116602992290328125070\">A Google User</a>"], "photo_reference": "AUGGfZkFJrFKS_QFBe_S1D5efauSWuqjULcjKHeBwU_NSXN93Rgkhi69hfkmDzMDtLD1VbCJ15HkZokWB5_t2bGFPyCGrCuMRrJ461kY98SJeXX9V-QYpsRofLtqlEctifbYQmWv7DWDS3V_uxKhzjwAWFQg52PnMXSzbmf27IFkQWXSqD44", "width": 4032}], "place_id": "ChIJFauRUeZVKhMRVPqWHZuMMX8", "plus_code": {"compound_code": "Q7C6+54 Florence, Metropolitan City of Florence, Italy", "global_code": "8FMHQ7C6+54"}, "price_level": 2, "rating": 4.7, "reference": "ChIJFauRUeZVKhMRVPqWHZuMMX8", "scope": "GOOGLE", "types": ["bar", "restaurant", "point_of_interest", "food", "establishment"], "user_ratings_total": 334, "vicinity": "Via Ghibellina, 152r, Firenze"}, {"business_status": "OPERATIONAL", "geometry": {"location": {"lat": 43.7783366, "lng": 11.250724}, "viewport": {"northeast": {"lat": 43.77967857989272, "lng": 11.25207047989272}, "southwest": {"lat": 43.77697892010728, "lng": 11.24937082010728}}}, "icon": "https://maps.gstatic.com/mapfiles/place_api/icons/v1/png_71/bar-71.png", "icon_background_color": "#FF9E67", "icon_mask_base_uri": "https://maps.gstatic.com/mapfiles/place_api/icons/v2/bar_pinlet", "name": "Brasserie Pub 27", "opening_hours": {"open_now": true}, "photos": [{"height": 1365, "html_attributions": ["<a href=\"https://maps.google.com/maps/contrib/101326474835427722420\">A Google User</a>"], "photo_reference": "AUGGfZmlSmtnVVhRy5-Td7iS1AvNj3e1fXEAGSyE5PJj1idq1Z5S5tZdmYhi_e1N0Yxp65WUNPyDU4VEi3G1QuASgxvfbOLnsF9AbvjbInfKzPl-3PQbkYxXW00jgqfO7HVXiOn5iG69vOkVEqhaMXu36NCiHNHTjGkXvUUwX3Yy66RpAm3q", "width": 2048}], "place_id": "ChIJnwcuEetXKhMRkwcE9IcDRqM", "plus_code": {"compound_code": "Q7H2+87 Florence, Metropolitan City of Florence, Italy", "global_code": "8FMHQ7H2+87"}, "rating": 2.6, "reference": "ChIJnwcuEetXKhMRkwcE9IcDRqM", "scope": "GOOGLE", "types": ["bar", "restaurant", "point_of_interest", "food", "establishment"], "user_ratings_total": 8, "vicinity": "Via Faenza, 135/r, Firenze"}, {"business_status": "OPERATIONAL", "geometry": {"location": {"lat": 43.7701865, "lng": 11.2664121}, "viewport": {"northeast": {"lat": 43.77155442989272, "lng": 11.26777302989272}, "southwest": {"lat": 43.76885477010727, "lng": 11.26507337010728}}}, "icon": "https://maps.gstatic.com/mapfiles/place_api/icons/v1/png_71/bar-71.png", "icon_background_color": "#FF9E67", "icon_mask_base_uri": "https://maps.gstatic.com/mapfiles/place_api/icons/v2/bar_pinlet", "name": "The Book Pub", "opening_hours": {"open_now": false}, "photos": [{"height": 1080, "html_attributions": ["<a href=\"https://maps.google.com/maps/contrib/113741654102373725345\">Rebecca Webb</a>"], "photo_reference": "AUGGfZmpqyuVUpYLqomkUnqQByDdd9a8oODlhGtQRtE13A5D0uHgJ09LsYmMZ7MyOBFM6YMGOjjW81zoXLqwaunbPI5m_g2gkXd1fftDaJbVlqpZNjyt-eEN4Mdl3Aj6NDPIMS9mvsQivJON3hANWYT7mCLegEflHNzCMSOCPB9zuLkaOIV6", "width": 1080}], "place_id": "ChIJxU3k3ghUKhMRoVt0bvM_46U", "plus_code": {"compound_code": "Q7C8+3H Florence, Metropolitan City of Florence, Italy", "global_code": "8FMHQ7C8+3H"}, "price_level": 1, "rating": 4.5, "reference": "ChIJxU3k3ghUKhMRoVt0bvM_46U", "scope": "GOOGLE", "types": ["bar", "restaurant", "point_of_interest", "food", "establishment"], "user_ratings_total": 287, "vicinity": "Piazza Lorenzo Ghiberti, 11/12r, Firenze"}, {"business_status": "OPERATIONAL", "geometry": {"location": {"lat": 43.7694395, "lng": 11.2468767}, "viewport": {"northeast": {"lat": 43.77080442989272, "lng": 11.24818742989272}, "southwest": {"lat": 43.76810477010728, "lng": 11.24548777010728}}}, "icon": "https://maps.gstatic.com/mapfiles/place_api/icons/v1/png_71/bar-71.png", "icon_background_color": "#FF9E67", "icon_mask_base_uri": "https://maps.gstatic.com/mapfiles/place_api/icons/v2/bar_pinlet", "name": "One Eyed Jack", "opening_hours": {"open_now": false}, "photos": [{"height": 2988, "html_attributions": ["<a href=\"https://maps.google.com/maps/contrib/109671682179203354075\">Brandon Tutwiler</a>"], "photo_reference": "AUGGfZn6QvD-dsofiRqB6oIkpO-glRw6jdV0CljLHz3GTH4eKVwx_AAsuPTydGdDp5U1L-cer-QRlTUgkNNldZbb3iKC7BRk67Deu4gSZclxaUP_fNfHsHy8JzHBzSf-GXRXIESf3hY8v3bs4J5s5uJiJM0C6M_63LW1PTLzW6-NKU0skzFg", "width": 5312}], "place_id": "ChIJg5e7X6tWKhMRU_6qLt-s6Js", "plus_code": {"compound_code": "Q69W+QP Florence, Metropolitan City of Florence, Italy", "global_code": "8FMHQ69W+QP"}, "price_level": 1, "rating": 4.5, "reference": "ChIJg5e7X6tWKhMRU_6qLt-s6Js", "scope": "GOOGLE", "types": ["night_club", "bar", "restaurant", "point_of_interest", "food", "establishment"], "user_ratings_total": 548, "vicinity": "Piazza Nazario Sauro, 2/r, Firenze"}, {"business_status": "OPERATIONAL", "geometry": {"location": {"lat": 43.7717288, "lng": 11.2616901}, "viewport": {"northeast": {"lat": 43.77312672989272, "lng": 11.26306187989272}, "southwest": {"lat": 43.77042707010727, "lng": 11.26036222010728}}}, "icon": "https://maps.gstatic.com/mapfiles/place_api/icons/v1/png_71/bar-71.png", "icon_background_color": "#FF9E67", "icon_mask_base_uri": "https://maps.gstatic.com/mapfiles/place_api/icons/v2/bar_pinlet", "name": "Eby's", "opening_hours": {"open_now": true}, "photos": [{"height": 3000, "html_attributions": ["<a href=\"https://maps.google.com/maps/contrib/113534153391036998949\">Valery Karitsky</a>"], "photo_reference": "AUGGfZlmkgxRfQB1B3aB3kpxKyJLFymCmoGbCDDVzzVcdj9JlCgChXTzVoRPDl62lm6tmz0ubCADvw65NIAMuyEVD8Ms_2LtmfSwrKgCIYo9iINMIfyqo3WB8OGfLTgFWrYL7SGbCLaGMd2mQlRXVg0YIGnzsh_-_J8aZm3yu8ooNJnWXoBV", "width": 5333}], "place_id": "ChIJpxaO1wVUKhMRrkd9xYQstQE", "plus_code": {"compound_code": "Q7C6+PM Florence, Metropolitan City of Florence, Italy", "global_code": "8FMHQ7C6+PM"}, "price_level": 2, "rating": 4.5, "reference": "ChIJpxaO1wVUKhMRrkd9xYQstQE", "scope": "GOOGLE", "types": ["bar", "restaurant", "point_of_interest", "food", "establishment"], "user_ratings_total": 1311, "vicinity": "Via dell' Oriuolo, 5/r, Firenze"}, {"business_status": "OPERATIONAL", "geometry": {"location": {"lat": 43.770398, "lng": 11.2397702}, "viewport": {"northeast": {"lat": 43.77182727989272, "lng": 11.24118762989272}, "southwest": {"lat": 43.76912762010728, "lng": 11.23848797010728}}}, "icon": "https://maps.gstatic.com/mapfiles/place_api/icons/v1/png_71/bar-71.png", "icon_background_color": "#FF9E67", "icon_mask_base_uri": "https://maps.gstatic.com/mapfiles/place_api/icons/v2/bar_pinlet", "name": "Rione Brewpub Firenze", "opening_hours": {"open_now": true}, "photos": [{"height": 1800, "html_attributions": ["<a href=\"https://maps.google.com/maps/contrib/116725380346407258535\">Alberto Candido</a>"], "photo_reference": "AUGGfZlSlxIYyghmOQFuig_Zjul8DEOGN81COTv0ewGzovFtsUVZoZSiYC9NK9ujIDn-a5v9iJopM3p7aMDMENn4Tzm_ir1z2viXouU2qpBTVKC1Wu2KppwvpF1lxFsQOc0dV5cQ-YPWR4Ey3mVUjaZoMM5i5FJWBMOC-NA_P0omSEB4Ra36", "width": 4000}], "place_id": "ChIJ51n503FXKhMRBAWw8HNS9fM", "plus_code": {"compound_code": "Q6CQ+5W Florence, Metropolitan City of Florence, Italy", "global_code": "8FMHQ6CQ+5W"}, "price_level": 2, "rating": 4.3, "reference": "ChIJ51n503FXKhMRBAWw8HNS9fM", "scope": "GOOGLE", "types": ["bar", "restaurant", "point_of_interest", "food", "establishment"], "user_ratings_total": 825, "vicinity": "Via Pisana, 1r, Firenze"}, {"business_status": "OPERATIONAL", "geometry": {"location": {"lat": 43.7692256, "lng": 11.2446833}, "viewport": {"northeast": {"lat": 43.77055142989273, "lng": 11.24609342989272}, "southwest": {"lat": 43.76785177010728, "lng": 11.24339377010728}}}, "icon": "https://maps.gstatic.com/mapfiles/place_api/icons/v1/png_71/bar-71.png", "icon_background_color": "#FF9E67", "icon_mask_base_uri": "https://maps.gstatic.com/mapfiles/place_api/icons/v2/bar_pinlet", "name": "The Hidden Pub", "opening_hours": {"open_now": false}, "photos": [{"height": 2832, "html_attributions": ["<a href=\"https://maps.google.com/maps/contrib/113667481166618192633\">The Hidden Pub</a>"], "photo_reference": "AUGGfZk6QJdCMS39yCbp_wlQ8S3aJH3SDb-AR7b1RWYsL30--HzQ5SYrXgfLxobTwYsFpq4P_kv_KFWVPXaSNp5b28dhUYlsL9LvxJMGUSLNZGFylyU1QEA5sAADgIciXJY-HWfepccIcpLYII3KEtlUzzEQGhpW0KgPI9HQ08AeC95HaewZ", "width": 4256}], "place_id": "ChIJkeAJz6xWKhMR7mFMuOBzzbI", "plus_code": {"compound_code": "Q69V+MV Florence, Metropolitan City of Florence, Italy", "global_code": "8FMHQ69V+MV"}, "price_level": 2, "rating": 4.3, "reference": "ChIJkeAJz6xWKhMR7mFMuOBzzbI", "scope": "GOOGLE", "types": ["bar", "restaurant", "point_of_interest", "food", "establishment"], "user_ratings_total": 429, "vicinity": "Piazza del Carmine, 11/B, Firenze"}, {"business_status": "OPERATIONAL", "geometry": {"location": {"lat": 43.7674509, "lng": 11.2598757}, "viewport": {"northeast": {"lat": 43.76879962989273, "lng": 11.26123447989272}, "southwest": {"lat": 43.76609997010728, "lng": 11.25853482010728}}}, "icon": "https://maps.gstatic.com/mapfiles/place_api/icons/v1/png_71/bar-71.png", "icon_background_color": "#FF9E67", "icon_mask_base_uri": "https://maps.gstatic.com/mapfiles/place_api/icons/v2/bar_pinlet", "name": "Tartan Jock Scottish Pub", "opening_hours": {"open_now": false}, "photos": [{"height": 2252, "html_attributions": ["<a href=\"https://maps.google.com/maps/contrib/114377602391908907492\">Nils Wanner</a>"], "photo_reference": "AUGGfZkrwd9ul8oEvMyLJlt4i9LzwHrHNkcAeWrUnuU3nhjyCAWxfx0kigU_SqHt4dv-jBBNrSi9KhZcElbGD9JDALnFLLxtZkvqPuokEGQhtOgsHf1Pz4-QiTWaMfH2shx1hicnsA5YZOat2EaHlNl9sfrPFlbcvoBwY7JmRR2Xr4KH0a-e", "width": 4000}], "place_id": "ChIJLX_gZgdUKhMRfgAhzjd-X8g", "plus_code": {"compound_code": "Q785+XW Florence, Metropolitan City of Florence, Italy", "global_code": "8FMHQ785+XW"}, "price_level": 1, "rating": 4.5, "reference": "ChIJLX_gZgdUKhMRfgAhzjd-X8g", "scope": "GOOGLE", "types": ["bar", "restaurant", "point_of_interest", "food", "establishment"], "user_ratings_total": 375, "vicinity": "Corso dei Tintori, 41r, Firenze"}, {"business_status": "OPERATIONAL", "geometry": {"location": {"lat": 43.77241, "lng": 11.2501221}, "viewport": {"northeast": {"lat": 43.77372647989272, "lng": 11.25142057989272}, "southwest": {"lat": 43.77102682010727, "lng": 11.24872092010728}}}, "icon": "https://maps.gstatic.com/mapfiles/place_api/icons/v1/png_71/bar-71.png", "icon_background_color": "#FF9E67", "icon_mask_base_uri": "https://maps.gstatic.com/mapfiles/place_api/icons/v2/bar_pinlet", "name": "Daunbailo' Irish Pub", "opening_hours": {"open_now": false}, "photos": [{"height": 720, "html_attributions": ["<a href=\"https://maps.google.com/maps/contrib/108461787661035681836\">Daunbailo&#39;</a>"], "photo_reference": "AUGGfZlhz-L5YxzvS-uEI7OhonTWcfCYGWxmY8B3c7oI-87uff_TdDo0pBB30_kcQ2L8IyUC6wm6dNj7a_UUlSPW_QmeQNrgCUIQBkXIHPfUSfMY_Q-nPZpNJlsBz_p7vrhMSnxCn-g_Kgf6tM5ekvXBfHCHaf-9TYlUE0z7TdUh2xFKel2k", "width": 960}], "place_id": "ChIJ4RIuLqpWKhMRVtsyq-Uwd0Y", "plus_code": {"compound_code": "Q7C2+X2 Florence, Metropolitan City of Florence, Italy", "global_code": "8FMHQ7C2+X2"}, "price_level": 1, "rating": 4.8, "reference": "ChIJ4RIuLqpWKhMRVtsyq-Uwd0Y", "scope": "GOOGLE", "types": ["cafe", "night_club", "bar", "restaurant", "point_of_interest", "store", "food", "establishment"], "user_ratings_total": 1389, "vicinity": "Via del Sole, 26r, Firenze"}, {"business_status": "OPERATIONAL", "geometry": {"location": {"lat": 43.7706623, "lng": 11.2536309}, "viewport": {"northeast": {"lat": 43.77208722989272, "lng": 11.25495022989272}, "southwest": {"lat": 43.76938757010728, "lng": 11.25225057010728}}}, "icon": "https://maps.gstatic.com/mapfiles/place_api/icons/v1/png_71/bar-71.png", "icon_background_color": "#FF9E67", "icon_mask_base_uri": "https://maps.gstatic.com/mapfiles/place_api/icons/v2/bar_pinlet", "name": "La Petite", "opening_hours": {"open_now": true}, "photos": [{"height": 3456, "html_attributions": ["<a href=\"https://maps.google.com/maps/contrib/108772021135888217171\">Riccardo Contini</a>"], "photo_reference": "AUGGfZlshxbHdO_iRZUxQ753XONlBPDZQqM1aUPvvcpKW6iEsxO8yT4QISage27aU733Hb-agSghBTLV1aPix03msvy-KNSleg3TEfOTcOPFXx8x-wVbK1zpRW7sJ1CTbBTWXsV1EjjpmMae6WRrmzuVi2BEXyJEbGWXYtrHtsc-kf4MjVE", "width": 4608}], "place_id": "ChIJwQJoyAFUKhMRS6U2MbVvk0w", "plus_code": {"compound_code": "Q7C3+7C Florence, Metropolitan City of Florence, Italy", "global_code": "8FMHQ7C3+7C"}, "price_level": 2, "rating": 4.5, "reference": "ChIJwQJoyAFUKhMRS6U2MbVvk0w", "scope": "GOOGLE", "types": ["bar", "restaurant", "point_of_interest", "food", "establishment"], "user_ratings_total": 822, "vicinity": "Via Pellicceria, 30/R, Firenze"}, {"business_status": "OPERATIONAL", "geometry": {"location": {"lat": 43.7715895, "lng": 11.2596289}, "viewport": {"northeast": {"lat": 43.77287962989272, "lng": 11.26090437989272}, "southwest": {"lat": 43.77017997010728, "lng": 11.25820472010728}}}, "icon": "https://maps.gstatic.com/mapfiles/place_api/icons/v1/png_71/restaurant-71.png", "icon_background_color": "#FF9E67", "icon_mask_base_uri": "https://maps.gstatic.com/mapfiles/place_api/icons/v2/restaurant_pinlet", "name": "Reverse Firenze", "opening_hours": {"open_now": true}, "photos": [{"height": 3024, "html_attributions": ["<a href=\"https://maps.google.com/maps/contrib/104920610882473318334\">Sam Flees</a>"], "photo_reference": "AUGGfZmGEiwuiQrXEXylWlsZ7JLCbE05_WhRBIOdJlH3_z64-NKZFTE4MChfkIhIc_fbMu78-4cF8c-9bLq_-AXpK-S_yoeaiOFmMp1ZmdliEozwZCCXoDPzLf3VUMpIcM16PhGTBD_kM38ZxV04y1reTxiYK3b3QIeEx4URiGNGcCNlvGei", "width": 4032}], "place_id": "ChIJyynjmAZUKhMR58Zr-dwXs04", "plus_code": {"compound_code": "Q7C5+JV Florence, Metropolitan City of Florence, Italy", "global_code": "8FMHQ7C5+JV"}, "price_level": 2, "rating": 3.9, "reference": "ChIJyynjmAZUKhMR58Zr-dwXs04", "scope": "GOOGLE", "types": ["bar", "restaurant", "point_of_interest", "food", "establishment"], "user_ratings_total": 740, "vicinity": "Borgo degli Albizi, 78R, Firenze"}, {"business_status": "OPERATIONAL", "geometry": {"location": {"lat": 43.7706533, "lng": 11.2717803}, "viewport": {"northeast": {"lat": 43.77200242989272, "lng": 11.27307392989272}, "southwest": {"lat": 43.76930277010728, "lng": 11.27037427010728}}}, "icon": "https://maps.gstatic.com/mapfiles/place_api/icons/v1/png_71/bar-71.png", "icon_background_color": "#FF9E67", "icon_mask_base_uri": "https://maps.gstatic.com/mapfiles/place_api/icons/v2/bar_pinlet", "name": "Antico Beccaria", "opening_hours": {"open_now": true}, "photos": [{"height": 1200, "html_attributions": ["<a href=\"https://maps.google.com/maps/contrib/100473233759510291125\">Antico Beccaria</a>"], "photo_reference": "AUGGfZnZ4rZ-isJYu4qVUBylbhp7GPjrM5P-HIzNkVoaNvtWXNwjwcBy5SjyOJwnho87NUQbQB_B-gg5BJQCIJ9tJEpCRW5Jd4eYCAFJnd4RdxkKwqa-rdGvoUjY3JLJU-XfvuydA6jThsDP1TEyD2aAdSHBjDW6nKBnic9SB6jtfNGglaXt", "width": 1599}], "place_id": "ChIJ51eIeAxUKhMROPRVYbML8bE", "plus_code": {"compound_code": "Q7CC+7P Florence, Metropolitan City of Florence, Italy", "global_code": "8FMHQ7CC+7P"}, "price_level": 2, "rating": 4.1, "reference": "ChIJ51eIeAxUKhMROPRVYbML8bE", "scope": "GOOGLE", "types": ["cafe", "bar", "restaurant", "point_of_interest", "store", "food", "establishment"], "user_ratings_total": 531, "vicinity": "Piazza Cesare Beccaria, 24/R, Firenze"}]