[{"business_status": "OPERATIONAL", "geometry": {"location": {"lat": 43.29355, "lng": 5.372199999999999}, "viewport": {"northeast": {"lat": 43.29484572989272, "lng": 5.373596729892721}, "southwest": {"lat": 43.29214607010728, "lng": 5.370897070107278}}}, "icon": "https://maps.gstatic.com/mapfiles/place_api/icons/v1/png_71/bar-71.png", "icon_background_color": "#FF9E67", "icon_mask_base_uri": "https://maps.gstatic.com/mapfiles/place_api/icons/v2/bar_pinlet", "name": "O'Malley", "opening_hours": {"open_now": true}, "photos": [{"height": 3648, "html_attributions": ["<a href=\"https://maps.google.com/maps/contrib/109729931221221671918\">O&#39;Malley&#39;s</a>"], "photo_reference": "AUGGfZm88l26PTZ4FnprGUkUfEp8u7xfRRXjfk3Ckj_lIM9Zyan4q7LpEuDAqlY_AHnTxABh83I3M7T9X95Y6QhTRhpSvG5Bn3Ggmfa2dCiI8fBjDuR9uuENyD-PKkvNqLBjZih4bUxCWTZIZpGg7g-xEFDqCRQkmnVMz6rWq5ElnT7-Ds3P", "width": 5472}], "place_id": "ChIJdfabEsfAyRIRcWDDWrn6DzU", "plus_code": {"compound_code": "79VC+CV Marseille, France", "global_code": "8FM779VC+CV"}, "price_level": 2, "rating": 4.3, "reference": "ChIJdfabEsfAyRIRcWDDWrn6DzU", "scope": "GOOGLE", "types": ["bar", "restaurant", "food", "point_of_interest", "establishment"], "user_ratings_total": 2124, "vicinity": "9 Quai de Rive Neuve, Marseille"}, {"business_status": "OPERATIONAL", "geometry": {"location": {"lat": 43.2929839, "lng": 5.3704731}, "viewport": {"northeast": {"lat": 43.29442862989272, "lng": 5.372174229892721}, "southwest": {"lat": 43.29172897010728, "lng": 5.369474570107277}}}, "icon": "https://maps.gstatic.com/mapfiles/place_api/icons/v1/png_71/bar-71.png", "icon_background_color": "#FF9E67", "icon_mask_base_uri": "https://maps.gstatic.com/mapfiles/place_api/icons/v2/bar_pinlet", "name": "The Shamrock", "opening_hours": {"open_now": true}, "photos": [{"height": 3072, "html_attributions": ["<a href=\"https://maps.google.com/maps/contrib/115956100981015128090\">Ga\u00ebl Herv\u00e9</a>"], "photo_reference": "AUGGfZkrfuSjbRULqQnTv_fm2Yr7dcCL2dbVzuKfc02jXNDIs5Kdecsff3eIS5O1LS1WXEwY1S7F-067Znrn8jAmcXp5uF9B3BJzZmDjErLZkUYVupp1ZunAcKPiqZKd78DvKr0AwylGAHPDsjfwq0IzYDbbt1_PQblyibY_hqKXqAEu7WjX", "width": 4080}], "place_id": "ChIJH8aneMbAyRIRUwSwL9oPneM", "plus_code": {"compound_code": "79VC+55 Marseille, France", "global_code": "8FM779VC+55"}, "price_level": 2, "rating": 4.2, "reference": "ChIJH8aneMbAyRIRUwSwL9oPneM", "scope": "GOOGLE", "types": ["bar", "restaurant", "food", "point_of_interest", "establishment"], "user_ratings_total": 2863, "vicinity": "16 Quai de Rive Neuve, Marseille"}, {"business_status": "OPERATIONAL", "geometry": {"location": {"lat": 43.2933511, "lng": 5.371790799999999}, "viewport": {"northeast": {"lat": 43.29470157989272, "lng": 5.373125929892722}, "southwest": {"lat": 43.29200192010728, "lng": 5.370426270107278}}}, "icon": "https://maps.gstatic.com/mapfiles/place_api/icons/v1/png_71/bar-71.png", "icon_background_color": "#FF9E67", "icon_mask_base_uri": "https://maps.gstatic.com/mapfiles/place_api/icons/v2/bar_pinlet", "name": "The Queen Victoria", "opening_hours": {"open_now": true}, "photos": [{"height": 1080, "html_attributions": ["<a href=\"https://maps.google.com/maps/contrib/110327007807080327976\">Rabah adel</a>"], "photo_reference": "AUGGfZnV-CNC3d9flybrBO8cJMAbcaslf0APjLsdH4Ls8dlwZpjF6y1vL42-DlvrmgAZBOZcmqwWywZXxzbnjKiXgRCACL_YsVueRFy0IzZwR6CcRq91GCN1GAtVeBtFyUlAEN2Bed7Ah58lTRuZiZukuhXdia4Z6FMhJ2ep6SThbHxzMsGo", "width": 1920}], "place_id": "ChIJcVCaEsfAyRIRI0E1xW9Aj7Q", "plus_code": {"compound_code": "79VC+8Q Marseille, France", "global_code": "8FM779VC+8Q"}, "price_level": 2, "rating": 4, "reference": "ChIJcVCaEsfAyRIRI0E1xW9Aj7Q", "scope": "GOOGLE", "types": ["bar", "restaurant", "food", "point_of_interest", "establishment"], "user_ratings_total": 4165, "vicinity": "1 Pl. aux Huiles, Marseille"}, {"business_status": "OPERATIONAL", "geometry": {"location": {"lat": 43.2942934, "lng": 5.3838841}, "viewport": {"northeast": {"lat": 43.29561477989272, "lng": 5.385243379892722}, "southwest": {"lat": 43.29291512010727, "lng": 5.382543720107278}}}, "icon": "https://maps.gstatic.com/mapfiles/place_api/icons/v1/png_71/bar-71.png", "icon_background_color": "#FF9E67", "icon_mask_base_uri": "https://maps.gstatic.com/mapfiles/place_api/icons/v2/bar_pinlet", "name": "Massilia Pub - Cours Julien", "opening_hours": {"open_now": true}, "photos": [{"height": 999, "html_attributions": ["<a href=\"https://maps.google.com/maps/contrib/116719361569220616389\">A Google User</a>"], "photo_reference": "AUGGfZneABWC10EhKim_QeZA33Qjhppcnf0BmgMIIjbfsy2iVVTgPnS7qspDVJdT1jGeri8qvLHdm9ukE8vBD-oHk-gsxYqnjrvU891QXJdSpY9_LRcsl-NhuzbBWc7RVzeG603HC93lfw04yMXsQ7PRF_-8fwrTEFzz-OSRxwauC-ydFOVp", "width": 1500}], "place_id": "ChIJuUaZrqTAyRIRYncJCkndA48", "plus_code": {"compound_code": "79VM+PG Marseille, France", "global_code": "8FM779VM+PG"}, "price_level": 2, "rating": 4.5, "reference": "ChIJuUaZrqTAyRIRYncJCkndA48", "scope": "GOOGLE", "types": ["bar", "night_club", "restaurant", "food", "point_of_interest", "establishment"], "user_ratings_total": 207, "vicinity": "3 Rue Crud\u00e8re, Marseille"}, {"business_status": "OPERATIONAL", "geometry": {"location": {"lat": 43.2933708, "lng": 5.372420399999999}, "viewport": {"northeast": {"lat": 43.29471727989272, "lng": 5.373737429892723}, "southwest": {"lat": 43.29201762010728, "lng": 5.371037770107279}}}, "icon": "https://maps.gstatic.com/mapfiles/place_api/icons/v1/png_71/bar-71.png", "icon_background_color": "#FF9E67", "icon_mask_base_uri": "https://maps.gstatic.com/mapfiles/place_api/icons/v2/bar_pinlet", "name": "Little Temple Bar", "opening_hours": {"open_now": true}, "photos": [{"height": 4032, "html_attributions": ["<a href=\"https://maps.google.com/maps/contrib/113628494098893233046\">A Google User</a>"], "photo_reference": "AUGGfZkSrC0zKqg-OhTnxlG6keU6VwDVaALCtapePK7nKVIHRsS2pJwz8EihyW8Nmw5G4mRwIFG6Ty4j2oPhP1IxCZgzmwt37ONmXkJMk40GHGUlszBUDcP39e1nou2ZYnOzSLgDhMs6BWzq3O3zbE0IQE5lPDB9-Vw2BbuS78Svl7Y8tFqJ", "width": 3024}], "place_id": "ChIJGUOMOnjByRIR_86qkO2BqQ4", "plus_code": {"compound_code": "79VC+8X Marseille, France", "global_code": "8FM779VC+8X"}, "rating": 4.3, "reference": "ChIJGUOMOnjByRIR_86qkO2BqQ4", "scope": "GOOGLE", "types": ["bar", "restaurant", "food", "point_of_interest", "establishment"], "user_ratings_total": 358, "vicinity": "7 Rue de la Paix Marcel Paul, Marseille"}, {"business_status": "OPERATIONAL", "geometry": {"location": {"lat": 43.30088689999999, "lng": 5.391133}, "viewport": {"northeast": {"lat": 43.30229117989272, "lng": 5.392448879892721}, "southwest": {"lat": 43.29959152010727, "lng": 5.389749220107277}}}, "icon": "https://maps.gstatic.com/mapfiles/place_api/icons/v1/png_71/bar-71.png", "icon_background_color": "#FF9E67", "icon_mask_base_uri": "https://maps.gstatic.com/mapfiles/place_api/icons/v2/bar_pinlet", "name": "O'Soho Bar Pub Club", "opening_hours": {"open_now": true}, "photos": [{"height": 1024, "html_attributions": ["<a href=\"https://maps.google.com/maps/contrib/115359877883094981957\">A Google User</a>"], "photo_reference": "AUGGfZmrcdT-qVhcPIuP2kTXbliFnmLg6vwwOYQzUZwL79efHb4OBxgPdrSHRerew4i5MYNBEKc8qYyHbEXmqDMNu1uXshZ293CbE8KkZG2qhHEl5V_SA7BVK-H_7rkd8ilFFfcAASbhANK5bNYDVR4N2V4uT1FczR0AfwLVZ2HxKHzMXrrQ", "width": 557}], "place_id": "ChIJI4uNCJ_AyRIRCE6MvdLYnv8", "plus_code": {"compound_code": "892R+9F Marseille, France", "global_code": "8FM7892R+9F"}, "rating": 4.5, "reference": "ChIJI4uNCJ_AyRIRCE6MvdLYnv8", "scope": "GOOGLE", "types": ["bar", "restaurant", "food", "point_of_interest", "establishment"], "user_ratings_total": 6, "vicinity": "98 Bd de la Lib\u00e9ration, Marseille"}, {"business_status": "OPERATIONAL", "geometry": {"location": {"lat": 43.2913393, "lng": 5.3799584}, "viewport": {"northeast": {"lat": 43.29243632989272, "lng": 5.38106817989272}, "southwest": {"lat": 43.28973667010727, "lng": 5.378368520107276}}}, "icon": "https://maps.gstatic.com/mapfiles/place_api/icons/v1/png_71/restaurant-71.png", "icon_background_color": "#FF9E67", "icon_mask_base_uri": "https://maps.gstatic.com/mapfiles/place_api/icons/v2/restaurant_pinlet", "name": "The Rider Saloon", "opening_hours": {"open_now": true}, "photos": [{"height": 1325, "html_attributions": ["<a href=\"https://maps.google.com/maps/contrib/113612591145416943423\">The Rider Saloon</a>"], "photo_reference": "AUGGfZl0TlgQtMlNS2RTZ2KHx_XMJ8GD0tkOWQUFzDful0IHJ9YUyZJv4tp_hc5giXb3L5szE5uzbS9TtnKhkOJ4mv3oRUQrwm_XfcWFDLp7j8N-S-3gLmOH2Ysu-xxd1uQl-PgKiDHn290FG79NaWMW-viObC4NO38tf85-4oZJWmwyk7bh", "width": 2000}], "place_id": "ChIJURv_QrrAyRIRvWUp3tN1YA0", "plus_code": {"compound_code": "79RH+GX Marseille, France", "global_code": "8FM779RH+GX"}, "rating": 3.3, "reference": "ChIJURv_QrrAyRIRvWUp3tN1YA0", "scope": "GOOGLE", "types": ["bar", "restaurant", "food", "point_of_interest", "establishment"], "user_ratings_total": 58, "vicinity": "7 Pl. F\u00e9lix Baret, Marseille"}, {"business_status": "OPERATIONAL", "geometry": {"location": {"lat": 43.29208920000001, "lng": 5.383615}, "viewport": {"northeast": {"lat": 43.29349022989273, "lng": 5.385022779892721}, "southwest": {"lat": 43.29079057010728, "lng": 5.382323120107277}}}, "icon": "https://maps.gstatic.com/mapfiles/place_api/icons/v1/png_71/bar-71.png", "icon_background_color": "#FF9E67", "icon_mask_base_uri": "https://maps.gstatic.com/mapfiles/place_api/icons/v2/bar_pinlet", "name": "The Red Lion cours Julien", "opening_hours": {"open_now": true}, "photos": [{"height": 2448, "html_attributions": ["<a href=\"https://maps.google.com/maps/contrib/103237930474920641120\">nouredine azzouk</a>"], "photo_reference": "AUGGfZmC6_hRCHc1lC8jmeGbH64T9UVK_6kasx_nZ6GQPoRK4AVJ8c8FMDTFRxt6Fd4qz35Byz0kFKlyvEM4M56PXVc8iXooST1dXOXbXz3hufREyNjzdQ9DktzWC6VGjVxS4LSWK5GSuiyd5wTvDChSA2l-CzsMMS7N96gXJUAHxYQZjsWq", "width": 3264}], "place_id": "ChIJ6yhfKqXAyRIRdD1xoz3Qd3A", "plus_code": {"compound_code": "79RM+RC Marseille, France", "global_code": "8FM779RM+RC"}, "price_level": 2, "rating": 4.1, "reference": "ChIJ6yhfKqXAyRIRdD1xoz3Qd3A", "scope": "GOOGLE", "types": ["bar", "restaurant", "food", "point_of_interest", "establishment"], "user_ratings_total": 329, "vicinity": "6 Pl. Notre Dame du Mont, Marseille"}, {"business_status": "OPERATIONAL", "geometry": {"location": {"lat": 43.2932808, "lng": 5.3726939}, "viewport": {"northeast": {"lat": 43.29460037989272, "lng": 5.374020729892722}, "southwest": {"lat": 43.29190072010728, "lng": 5.371321070107278}}}, "icon": "https://maps.gstatic.com/mapfiles/place_api/icons/v1/png_71/bar-71.png", "icon_background_color": "#FF9E67", "icon_mask_base_uri": "https://maps.gstatic.com/mapfiles/place_api/icons/v2/bar_pinlet", "name": "CORNER", "opening_hours": {"open_now": true}, "photos": [{"height": 2359, "html_attributions": ["<a href=\"https://maps.google.com/maps/contrib/104217219686025202545\">A Google User</a>"], "photo_reference": "AUGGfZmNW-RmELcIleTOGxXMUxCJNfYp2_RS3_OBKfpqL_XeVDiXQeYEtdecFdPOfISWGRksVpmFdQvAMLbbAa5EssxpEcoeirvnmvfMXZY0mqs-b_vR6fHkKO72gtP9kI9a_-HzaJdJAHtdARTT-fRRAvOAEuiHoGeTfZDRhI33cS5deaqk", "width": 4192}], "place_id": "ChIJfYnblgTByRIRaRwlA9hDsqs", "plus_code": {"compound_code": "79VC+7X Marseille, France", "global_code": "8FM779VC+7X"}, "rating": 4.2, "reference": "ChIJfYnblgTByRIRaRwlA9hDsqs", "scope": "GOOGLE", "types": ["bar", "restaurant", "food", "point_of_interest", "establishment"], "user_ratings_total": 304, "vicinity": "7 Rue de la Paix Marcel Paul, Marseille"}, {"business_status": "OPERATIONAL", "geometry": {"location": {"lat": 43.3014168, "lng": 5.364523699999999}, "viewport": {"northeast": {"lat": 43.30275207989272, "lng": 5.365800129892722}, "southwest": {"lat": 43.30005242010728, "lng": 5.363100470107279}}}, "icon": "https://maps.gstatic.com/mapfiles/place_api/icons/v1/png_71/bar-71.png", "icon_background_color": "#FF9E67", "icon_mask_base_uri": "https://maps.gstatic.com/mapfiles/place_api/icons/v2/bar_pinlet", "name": "White Rabbit", "opening_hours": {"open_now": true}, "photos": [{"height": 3024, "html_attributions": ["<a href=\"https://maps.google.com/maps/contrib/102283921985807325242\">marion funderburk</a>"], "photo_reference": "AUGGfZnDrR6dsEMV51-4rxc4GqoE4Nklb-6vkZNITZFIkRolgE_f_VacKG2AcvCiPxRFbGZfpmVn7piol-GhtaqFM5CLvtatArSKzc3L0Qo9qHQe6Xjyi4kbFsE2X_UqGzW4tgmAL9JHHubrmtI8sqSL4j9yA1VFymRxg8EhSR-12NQQquLl", "width": 4032}], "place_id": "ChIJoQJbN-jAyRIR90EfPBGMCbE", "plus_code": {"compound_code": "8927+HR Marseille, France", "global_code": "8FM78927+HR"}, "price_level": 2, "rating": 4.5, "reference": "ChIJoQJbN-jAyRIR90EfPBGMCbE", "scope": "GOOGLE", "types": ["bar", "restaurant", "food", "point_of_interest", "establishment"], "user_ratings_total": 907, "vicinity": "23 Quai de la Joliette, Marseille"}, {"business_status": "OPERATIONAL", "geometry": {"location": {"lat": 43.2901742, "lng": 5.399035}, "viewport": {"northeast": {"lat": 43.29145847989272, "lng": 5.400415329892722}, "southwest": {"lat": 43.28875882010728, "lng": 5.397715670107278}}}, "icon": "https://maps.gstatic.com/mapfiles/place_api/icons/v1/png_71/bar-71.png", "icon_background_color": "#FF9E67", "icon_mask_base_uri": "https://maps.gstatic.com/mapfiles/place_api/icons/v2/bar_pinlet", "name": "Le Bali \"Pub\"", "opening_hours": {"open_now": true}, "photos": [{"height": 1134, "html_attributions": ["<a href=\"https://maps.google.com/maps/contrib/102817850809045087271\">A Google User</a>"], "photo_reference": "AUGGfZmkbAajlS2u1xMvMmNn3CRWIY1rZrTKAHhmMJfxsFKZTBAitE_8zib7MFD2w3Z07bHy8N7MkdGKhIUYOVXb10FgKaLzClnjFkUE4uLkq-Q5f9_baTqxyepwEV_bzNjPLRozyCKKT-GgdGcwknCFhbAc6S_505jwE4k5CuCDiKJn6qLI", "width": 2016}], "place_id": "ChIJmV4MaBW_yRIRLgRTY8a2q2Y", "plus_code": {"compound_code": "79RX+3J Marseille, France", "global_code": "8FM779RX+3J"}, "price_level": 2, "rating": 3.9, "reference": "ChIJmV4MaBW_yRIRLgRTY8a2q2Y", "scope": "GOOGLE", "types": ["bar", "restaurant", "food", "point_of_interest", "establishment"], "user_ratings_total": 170, "vicinity": "185 Bd Baille, Marseille"}, {"business_status": "OPERATIONAL", "geometry": {"location": {"lat": 43.2937097, "lng": 5.383639}, "viewport": {"northeast": {"lat": 43.29492142989272, "lng": 5.385007429892721}, "southwest": {"lat": 43.29222177010728, "lng": 5.382307770107277}}}, "icon": "https://maps.gstatic.com/mapfiles/place_api/icons/v1/png_71/bar-71.png", "icon_background_color": "#FF9E67", "icon_mask_base_uri": "https://maps.gstatic.com/mapfiles/place_api/icons/v2/bar_pinlet", "name": "La Brasserie Communale", "opening_hours": {"open_now": true}, "photos": [{"height": 4032, "html_attributions": ["<a href=\"https://maps.google.com/maps/contrib/109694480167351335274\">Liliane Clavel</a>"], "photo_reference": "AUGGfZnJSCKuwlfbi7sGO0ZP42uyiCVCUiq7hwjtXbsOmlL2E0zN3RN6JomNTwnx0TXVfx5Oq8kzsWN3D5Tt1Kvh06Ex4g75c6gwXSkfd7XcRBE7-xMVLdaOAXNt9hylY7RjPE-w2VSZZQYK0OXRDe-Vjc9i3nWVvulmBfYDdG3NuooFMH4D", "width": 3024}], "place_id": "ChIJo0fQjUvByRIR-7u5mrB2KV8", "plus_code": {"compound_code": "79VM+FF Marseille, France", "global_code": "8FM779VM+FF"}, "price_level": 1, "rating": 4.5, "reference": "ChIJo0fQjUvByRIR-7u5mrB2KV8", "scope": "GOOGLE", "types": ["bar", "restaurant", "food", "point_of_interest", "establishment"], "user_ratings_total": 778, "vicinity": "57 Cr Julien, Marseille"}, {"business_status": "OPERATIONAL", "geometry": {"location": {"lat": 43.2938334, "lng": 5.3848666}, "viewport": {"northeast": {"lat": 43.29517922989272, "lng": 5.386218029892722}, "southwest": {"lat": 43.29247957010728, "lng": 5.383518370107278}}}, "icon": "https://maps.gstatic.com/mapfiles/place_api/icons/v1/png_71/bar-71.png", "icon_background_color": "#FF9E67", "icon_mask_base_uri": "https://maps.gstatic.com/mapfiles/place_api/icons/v2/bar_pinlet", "name": "WAAW", "opening_hours": {"open_now": true}, "photos": [{"height": 1192, "html_attributions": ["<a href=\"https://maps.google.com/maps/contrib/115269418760415005622\">WAAW</a>"], "photo_reference": "AUGGfZkVcb4_AelgLul_Td5bmNZtQgLFByiXsX0YKEF7Ngnc0SXhysDgyVXotMsqeSmzW4so2G_57ZkmBkkW2PpSzM-ml9W1o8kXWeL5piNUriH-A-psFdpy-ZMTLAXaDoeURwemP1DhUxnFYXWJUcEbga1LWuvaSm4QgmReOGCW7dv7Oiql", "width": 1181}], "place_id": "ChIJZyX1vaTAyRIRwPVsySJ23vw", "plus_code": {"compound_code": "79VM+GW Marseille, France", "global_code": "8FM779VM+GW"}, "rating": 4.4, "reference": "ChIJZyX1vaTAyRIRwPVsySJ23vw", "scope": "GOOGLE", "types": ["bar", "restaurant", "food", "point_of_interest", "establishment"], "user_ratings_total": 209, "vicinity": "17 Rue Pastoret, Marseille"}, {"business_status": "OPERATIONAL", "geometry": {"location": {"lat": 43.2993664, "lng": 5.366536}, "viewport": {"northeast": {"lat": 43.30070882989272, "lng": 5.367927079892721}, "southwest": {"lat": 43.29800917010727, "lng": 5.365227420107277}}}, "icon": "https://maps.gstatic.com/mapfiles/place_api/icons/v1/png_71/generic_business-71.png", "icon_background_color": "#7B9EB0", "icon_mask_base_uri": "https://maps.gstatic.com/mapfiles/place_api/icons/v2/generic_pinlet", "name": "Bar des 13 Coins", "opening_hours": {"open_now": true}, "photos": [{"height": 4032, "html_attributions": ["<a href=\"https://maps.google.com/maps/contrib/112789771095598111211\">A Google User</a>"], "photo_reference": "AUGGfZk-2UPahhv7uWY8AGU-qm_ovrRC-FXXyPU2TH5Z8LlGdRwzHQcLeDGy-1y0mXwie9fyz69CL2I5oN64RH0wokOMPRX74eZb0A-IXaIqwSLaYrv4hpOA7iNxiIPQ6CgB4dKWePOwOEBLnj9XPn4Z59irvUA8dK0SADTD48avZo7NrJDf", "width": 3024}], "place_id": "ChIJT5ajFMLAyRIRWmGgD2kXDCU", "plus_code": {"compound_code": "79X8+PJ Marseille, France", "global_code": "8FM779X8+PJ"}, "price_level": 2, "rating": 3.9, "reference": "ChIJT5ajFMLAyRIRWmGgD2kXDCU", "scope": "GOOGLE", "types": ["bar", "restaurant", "food", "point_of_interest", "establishment"], "user_ratings_total": 1223, "vicinity": "45 Rue Sainte-Fran\u00e7oise, Marseille"}, {"business_status": "OPERATIONAL", "geometry": {"location": {"lat": 43.29659179999999, "lng": 5.3740973}, "viewport": {"northeast": {"lat": 43.29791662989271, "lng": 5.37538237989272}, "southwest": {"lat": 43.29521697010727, "lng": 5.372682720107276}}}, "icon": "https://maps.gstatic.com/mapfiles/place_api/icons/v1/png_71/bar-71.png", "icon_background_color": "#FF9E67", "icon_mask_base_uri": "https://maps.gstatic.com/mapfiles/place_api/icons/v2/bar_pinlet", "name": "Beer District Marseille", "opening_hours": {"open_now": true}, "photos": [{"height": 2268, "html_attributions": ["<a href=\"https://maps.google.com/maps/contrib/100001873000923890968\">100001873000923890968</a>"], "photo_reference": "AUGGfZmVEZ875agpn-XuTEZwIRSlj0biTflKqpmVREIG-Qb0YetKvRfChYVFjhOwtFZkGdTskEJH-kIYrIGCoRRxUwajmKoRiJxmjqd8hFqNZZ8VtryajPGGPQ6hM0-ShVt-Zu8i120CDPkM81nm0V496LE3ILkSnKskmYgN-MeZk9ndKe8u", "width": 4032}], "place_id": "ChIJk81KG7_ByRIRritBUB1Hx30", "plus_code": {"compound_code": "79WF+JJ Marseille, France", "global_code": "8FM779WF+JJ"}, "price_level": 2, "rating": 4.5, "reference": "ChIJk81KG7_ByRIRritBUB1Hx30", "scope": "GOOGLE", "types": ["bar", "restaurant", "food", "point_of_interest", "establishment"], "user_ratings_total": 400, "vicinity": "4 Rue de la R\u00e9publique 29 rue reine elizabeth, Marseille"}, {"business_status": "OPERATIONAL", "geometry": {"location": {"lat": 43.2949869, "lng": 5.3941311}, "viewport": {"northeast": {"lat": 43.29633562989272, "lng": 5.395437579892721}, "southwest": {"lat": 43.29363597010727, "lng": 5.392737920107277}}}, "icon": "https://maps.gstatic.com/mapfiles/place_api/icons/v1/png_71/restaurant-71.png", "icon_background_color": "#FF9E67", "icon_mask_base_uri": "https://maps.gstatic.com/mapfiles/place_api/icons/v2/restaurant_pinlet", "name": "Le Parpaing qui flotte", "opening_hours": {"open_now": true}, "photos": [{"height": 4032, "html_attributions": ["<a href=\"https://maps.google.com/maps/contrib/118066161268330683183\">fr\u00e9d\u00e9ric Doux</a>"], "photo_reference": "AUGGfZlAFYPYrczhF9igAB-5Pn96OMugDneH8ZbQlGLne60bcpnaoosvxdI3c1e2_jq8aF8alXLX18aw0F-Ee34fvTVrOG106ZUBmc1V-oAlHHSQpb46haGg4zH3o6JwdI8cq6wrNSa_1WK8gPZNA3KgKFjAjsYr8bWjq3v9RTByG6S4yQEs", "width": 3024}], "place_id": "ChIJQ2XiWF-_yRIRG9z4SwAX1y8", "plus_code": {"compound_code": "79VV+XJ Marseille, France", "global_code": "8FM779VV+XJ"}, "price_level": 2, "rating": 4.4, "reference": "ChIJQ2XiWF-_yRIRG9z4SwAX1y8", "scope": "GOOGLE", "types": ["bar", "restaurant", "food", "point_of_interest", "establishment"], "user_ratings_total": 1418, "vicinity": "3 Rue Goudard, Marseille"}, {"business_status": "OPERATIONAL", "geometry": {"location": {"lat": 43.3005053, "lng": 5.364266100000001}, "viewport": {"northeast": {"lat": 43.30186522989273, "lng": 5.365555929892721}, "southwest": {"lat": 43.29916557010728, "lng": 5.362856270107277}}}, "icon": "https://maps.gstatic.com/mapfiles/place_api/icons/v1/png_71/restaurant-71.png", "icon_background_color": "#FF9E67", "icon_mask_base_uri": "https://maps.gstatic.com/mapfiles/place_api/icons/v2/restaurant_pinlet", "name": "Double Je - Vo\u00fbtes de la Major", "opening_hours": {"open_now": true}, "photos": [{"height": 3024, "html_attributions": ["<a href=\"https://maps.google.com/maps/contrib/103938436001300570175\">A Google User</a>"], "photo_reference": "AUGGfZm8qGPqryBtOxWDTbx5d1qudLSkIsZbKzbpOoeAH0FwA-3Rr_7LsXlxAk9fY0BQDvDR4Dfbz_vy7GCAN8jYGYMJxAuSp_CL3SrPfzMzoxsdWfKBFYY7NFMheKEJa7w8DSNUZDo1fSWMfyFO58AqdI6F3a3xq3-HVxxPVHMw3pUL7H7G", "width": 4032}], "place_id": "ChIJV8OZXzXByRIRfEjuYHc9HTQ", "plus_code": {"compound_code": "8927+6P Marseille, France", "global_code": "8FM78927+6P"}, "rating": 4.4, "reference": "ChIJV8OZXzXByRIRfEjuYHc9HTQ", "scope": "GOOGLE", "types": ["restaurant", "bar", "clothing_store", "store", "food", "point_of_interest", "establishment"], "user_ratings_total": 372, "vicinity": "Vo\u00fbtes de la Major, 9 Bd Jacques Saad\u00e9 n, Marseille"}, {"business_status": "OPERATIONAL", "geometry": {"location": {"lat": 43.2923292, "lng": 5.3716085}, "viewport": {"northeast": {"lat": 43.29367712989273, "lng": 5.372959029892721}, "southwest": {"lat": 43.29097747010729, "lng": 5.370259370107277}}}, "icon": "https://maps.gstatic.com/mapfiles/place_api/icons/v1/png_71/bar-71.png", "icon_background_color": "#FF9E67", "icon_mask_base_uri": "https://maps.gstatic.com/mapfiles/place_api/icons/v2/bar_pinlet", "name": "PULP", "opening_hours": {"open_now": true}, "photos": [{"height": 3192, "html_attributions": ["<a href=\"https://maps.google.com/maps/contrib/111361295037672488892\">Raveau Damien</a>"], "photo_reference": "AUGGfZl56rK7ABeYE6uYfsSVOE0PH2X07Fr_vXRkm-KsHXaXneeqgtVr47aR3etcMGtkyt47KEHPq_ItZniZIWbRW-AD7NnfUskVgxjNpagX7mikx-pb5IlqU26tthztbREg2Ay0VtDGY1fA1BLUlVDVea7DAa4JIrDV6oczDRt8IrAbSK1h", "width": 4788}], "place_id": "ChIJV8pBRgnByRIRjCcqkUg_lBM", "plus_code": {"compound_code": "79RC+WM Marseille, France", "global_code": "8FM779RC+WM"}, "rating": 4, "reference": "ChIJV8pBRgnByRIRjCcqkUg_lBM", "scope": "GOOGLE", "types": ["bar", "restaurant", "food", "point_of_interest", "establishment"], "user_ratings_total": 77, "vicinity": "32 Pl. aux Huiles, Marseille"}, {"business_status": "OPERATIONAL", "geometry": {"location": {"lat": 43.2932549, "lng": 5.372742199999999}, "viewport": {"northeast": {"lat": 43.29462062989272, "lng": 5.374099979892722}, "southwest": {"lat": 43.29192097010728, "lng": 5.371400320107278}}}, "icon": "https://maps.gstatic.com/mapfiles/place_api/icons/v1/png_71/restaurant-71.png", "icon_background_color": "#FF9E67", "icon_mask_base_uri": "https://maps.gstatic.com/mapfiles/place_api/icons/v2/restaurant_pinlet", "name": "Le Caribou Marseille", "opening_hours": {"open_now": true}, "photos": [{"height": 4000, "html_attributions": ["<a href=\"https://maps.google.com/maps/contrib/100853819937143406612\">A Google User</a>"], "photo_reference": "AUGGfZkjbkncLrYzZtHlgIhRk4OUl0E6gJwol57Zitm6DGkvGXNoZirT_bDPvIm3cNBkD7WVvKcOVksbiPfWOWoB16qrg-AFlomH58XfstYnSq_nj3qRO4LQvd0T2Ut0yb6F4cRqm4AaUVY0Z5mCmDpQHjYuIrMt94ILyHAgCb3vvLjjQVs1", "width": 6000}], "place_id": "ChIJpUe9grjAyRIR5VRXpSPsWF4", "plus_code": {"compound_code": "79VF+83 Marseille, France", "global_code": "8FM779VF+83"}, "price_level": 2, "rating": 4.5, "reference": "ChIJpUe9grjAyRIR5VRXpSPsWF4", "scope": "GOOGLE", "types": ["restaurant", "bar", "food", "point_of_interest", "establishment"], "user_ratings_total": 1493, "vicinity": "38 Pl. Thiars, Marseille"}, {"business_status": "OPERATIONAL", "geometry": {"location": {"lat": 43.2943069, "lng": 5.3838767}, "viewport": {"northeast": {"lat": 43.29562472989272, "lng": 5.385250079892723}, "southwest": {"lat": 43.29292507010728, "lng": 5.382550420107279}}}, "icon": "https://maps.gstatic.com/mapfiles/place_api/icons/v1/png_71/restaurant-71.png", "icon_background_color": "#FF9E67", "icon_mask_base_uri": "https://maps.gstatic.com/mapfiles/place_api/icons/v2/restaurant_pinlet", "name": "La Table du Caf\u00e9 Vian au Massilia Pub", "opening_hours": {"open_now": true}, "photos": [{"height": 333, "html_attributions": ["<a href=\"https://maps.google.com/maps/contrib/104351025996807464649\">A Google User</a>"], "photo_reference": "AUGGfZnw-pnxaUV32vOOwS0dxdULkrAhP-U8fMfFedNjQgspUqlSwVUqb75lhCrO0b2g1ITD2H8XBFufJHPt25ZPK1M_Ea0DdERQ-0ZT65QA4lhX7RKPYTfSAsXyKU1BKfMT_GxgAKZ1mEPwwK31QX9j0Oa09Fowxd1OyRDgyVPDPEVnMyYO", "width": 500}], "place_id": "ChIJT53oq6TAyRIRZExhsj6d6EE", "plus_code": {"compound_code": "79VM+PG Marseille, France", "global_code": "8FM779VM+PG"}, "price_level": 2, "rating": 4.5, "reference": "ChIJT53oq6TAyRIRZExhsj6d6EE", "scope": "GOOGLE", "types": ["restaurant", "food", "point_of_interest", "establishment"], "user_ratings_total": 175, "vicinity": "3 Rue Crud\u00e8re, Marseille"}]