[{"business_status": "OPERATIONAL", "geometry": {"location": {"lat": 54.8901321, "lng": 23.920962}, "viewport": {"northeast": {"lat": 54.89148252989271, "lng": 23.92219587989272}, "southwest": {"lat": 54.88878287010727, "lng": 23.91949622010728}}}, "icon": "https://maps.gstatic.com/mapfiles/place_api/icons/v1/png_71/bar-71.png", "icon_background_color": "#FF9E67", "icon_mask_base_uri": "https://maps.gstatic.com/mapfiles/place_api/icons/v2/bar_pinlet", "name": "Hogas Pub", "opening_hours": {"open_now": true}, "photos": [{"height": 4769, "html_attributions": ["<a href=\"https://maps.google.com/maps/contrib/104479132170414296715\">A Google User</a>"], "photo_reference": "AUGGfZkUqLcqxk6yn-ek5B9UVdSXNTB-hti4UUVsRIbsBXEP85PrT_2M4UOeUfjbwpJ44Qk5Hy35GG85rqmtPVe0O_81eukHowAwj3jdjximBsv-Yget3Jl0nnHx3_1v7wi6JnR6rn70oG4pqpoX9x_SmmP2xlethxJhy2t0wfbLxy3ElCaF", "width": 7146}], "place_id": "ChIJJ7gRIIoj50YR9KysTrck-1g", "plus_code": {"compound_code": "VWRC+39 Kaunas, Kaunas City Municipality, Lithuania", "global_code": "9G65VWRC+39"}, "price_level": 2, "rating": 4.6, "reference": "ChIJJ7gRIIoj50YR9KysTrck-1g", "scope": "GOOGLE", "types": ["bar", "restaurant", "food", "point_of_interest", "establishment"], "user_ratings_total": 688, "vicinity": "Kaunakiemio g. 40, Kaunas"}, {"business_status": "OPERATIONAL", "geometry": {"location": {"lat": 54.897813, "lng": 23.8911448}, "viewport": {"northeast": {"lat": 54.89915267989272, "lng": 23.89262182989273}, "southwest": {"lat": 54.89645302010728, "lng": 23.88992217010728}}}, "icon": "https://maps.gstatic.com/mapfiles/place_api/icons/v1/png_71/bar-71.png", "icon_background_color": "#FF9E67", "icon_mask_base_uri": "https://maps.gstatic.com/mapfiles/place_api/icons/v2/bar_pinlet", "name": "Nisha craft beer bar", "opening_hours": {"open_now": true}, "photos": [{"height": 2976, "html_attributions": ["<a href=\"https://maps.google.com/maps/contrib/110194212581281879446\">Vaidotas Kirlys</a>"], "photo_reference": "AUGGfZnuYyJJvEyx7u__v41RCV5WPIH5AidvWf6UyYviu8e6f4Dle-EU2gxuazX88LZrJhKOLponfGSvSThnMfNhlcktOiZHcpGPzKVcUQhK-zsXYxXMNcMpt8V8_jHue4aDkQvo1Q5royKFqZjZPb21XjC3WthcdA7QSZm4cXXwyxCfKM3b", "width": 3968}], "place_id": "ChIJPYBYpw8i50YRNpN_3UJnQh4", "plus_code": {"compound_code": "VVXR+4F Kaunas, Kaunas City Municipality, Lithuania", "global_code": "9G65VVXR+4F"}, "price_level": 2, "rating": 4.7, "reference": "ChIJPYBYpw8i50YRNpN_3UJnQh4", "scope": "GOOGLE", "types": ["liquor_store", "bar", "point_of_interest", "store", "establishment"], "user_ratings_total": 352, "vicinity": "M. Dauk\u0161os g. 29, Kaunas"}, {"business_status": "OPERATIONAL", "geometry": {"location": {"lat": 54.89689809999999, "lng": 23.9204007}, "viewport": {"northeast": {"lat": 54.89817152989272, "lng": 23.92153487989273}, "southwest": {"lat": 54.89547187010728, "lng": 23.91883522010728}}}, "icon": "https://maps.gstatic.com/mapfiles/place_api/icons/v1/png_71/bar-71.png", "icon_background_color": "#FF9E67", "icon_mask_base_uri": "https://maps.gstatic.com/mapfiles/place_api/icons/v2/bar_pinlet", "name": "Rebels", "opening_hours": {"open_now": true}, "photos": [{"height": 3648, "html_attributions": ["<a href=\"https://maps.google.com/maps/contrib/108245678780297652413\">A Google User</a>"], "photo_reference": "AUGGfZnXXSCWavpFWK3LsmOW8gXF9nkJRNtlSO5z-7lVDWqJKTS3Zge9DgkBos06KtPSOwrtn9hm7BBRrtnUjKid-MFDqUb4ePrUFtoHpofwJHDhvx3eVK9VOB_6NgfcM2RggCW1TVt9rkhOWA2jBQgLUrM0MDM9BPDaoT-K6FS-4hlAgzPi", "width": 5472}], "place_id": "ChIJJyQu48gj50YRR4vHWmUnXrg", "plus_code": {"compound_code": "VWWC+Q5 Kaunas, Kaunas City Municipality, Lithuania", "global_code": "9G65VWWC+Q5"}, "price_level": 2, "rating": 4.3, "reference": "ChIJJyQu48gj50YRR4vHWmUnXrg", "scope": "GOOGLE", "types": ["bar", "restaurant", "food", "point_of_interest", "establishment"], "user_ratings_total": 840, "vicinity": "Laisv\u0117s al. 21, Kaunas"}, {"business_status": "OPERATIONAL", "geometry": {"location": {"lat": 54.897772, "lng": 23.907744}, "viewport": {"northeast": {"lat": 54.89917442989272, "lng": 23.90921272989272}, "southwest": {"lat": 54.89647477010728, "lng": 23.90651307010728}}}, "icon": "https://maps.gstatic.com/mapfiles/place_api/icons/v1/png_71/bar-71.png", "icon_background_color": "#FF9E67", "icon_mask_base_uri": "https://maps.gstatic.com/mapfiles/place_api/icons/v2/bar_pinlet", "name": "Rocknrolla bar&kitchen", "opening_hours": {"open_now": true}, "photos": [{"height": 464, "html_attributions": ["<a href=\"https://maps.google.com/maps/contrib/113596598962906032658\">Ignas Gestautas</a>"], "photo_reference": "AUGGfZlszasI-jrERp_lPLtdzmZlEfPlapi_qJr0CLKhWQTp3T_BEK9XVLGrRbay5ioD5y67nz-SrujKegyLykiAGIrT_q2ETqNG4SVzbFw6ObHEtOrgUngkJh7nbPRSK3E-iO0_QGisDAqapJJxiZ91g9mZSVy5giiicQGwmk9U701EjBGb", "width": 696}], "place_id": "ChIJS87PrHQi50YR7UUj9G1R1xs", "plus_code": {"compound_code": "VWX5+43 Kaunas, Kaunas City Municipality, Lithuania", "global_code": "9G65VWX5+43"}, "price_level": 2, "rating": 4.3, "reference": "ChIJS87PrHQi50YR7UUj9G1R1xs", "scope": "GOOGLE", "types": ["bar", "restaurant", "food", "point_of_interest", "establishment"], "user_ratings_total": 1294, "vicinity": "Vasario 16-osios g., Kaunas"}, {"business_status": "OPERATIONAL", "geometry": {"location": {"lat": 54.8884349, "lng": 23.9322203}, "viewport": {"northeast": {"lat": 54.88975187989273, "lng": 23.93354222989272}, "southwest": {"lat": 54.88705222010729, "lng": 23.93084257010728}}}, "icon": "https://maps.gstatic.com/mapfiles/place_api/icons/v1/png_71/bar-71.png", "icon_background_color": "#FF9E67", "icon_mask_base_uri": "https://maps.gstatic.com/mapfiles/place_api/icons/v2/bar_pinlet", "name": "Baras", "photos": [{"height": 900, "html_attributions": ["<a href=\"https://maps.google.com/maps/contrib/112866370763371169748\">Gintaras Vitulskis</a>"], "photo_reference": "AUGGfZljrIkORTw_2gwnNY6pK6vnctJqnnKvMnwaEl32gwjm1bGwi09o1aHpMwh-GnBKcwyppZxX6ctDslF_Yt_upca2imtMc3D3savos8kyPC2HJp8KH-huOTXBxh-9S-C2GTTHvrOTCalBGsuij7ngmlePQkP85fK71uQPjBWEWmZop3Sg", "width": 1200}], "place_id": "ChIJ_fmev_Mj50YRf-dR44xfCbQ", "plus_code": {"compound_code": "VWQJ+9V Kaunas, Kaunas City Municipality, Lithuania", "global_code": "9G65VWQJ+9V"}, "rating": 3.8, "reference": "ChIJ_fmev_Mj50YRf-dR44xfCbQ", "scope": "GOOGLE", "types": ["bar", "point_of_interest", "establishment"], "user_ratings_total": 19, "vicinity": "M. K. \u010ciurlionio g. 18, Kaunas"}, {"business_status": "OPERATIONAL", "geometry": {"location": {"lat": 54.8965767, "lng": 23.8914316}, "viewport": {"northeast": {"lat": 54.89788852989272, "lng": 23.89265972989272}, "southwest": {"lat": 54.89518887010728, "lng": 23.88996007010727}}}, "icon": "https://maps.gstatic.com/mapfiles/place_api/icons/v1/png_71/bar-71.png", "icon_background_color": "#FF9E67", "icon_mask_base_uri": "https://maps.gstatic.com/mapfiles/place_api/icons/v2/bar_pinlet", "name": "Shamrock Pub", "opening_hours": {"open_now": false}, "photos": [{"height": 3024, "html_attributions": ["<a href=\"https://maps.google.com/maps/contrib/101538039007705730934\">Toon Walleyn</a>"], "photo_reference": "AUGGfZki0OG1aipERlOpNy-VG8KCwyhNA08st7O7MY8jX8Xbl0B-DH70wXpG08KgHb40bOrqZrho-sJttmKlLWmOYjZUhQ7rakIpqihvUNl6-v_8caEtfCu8GjATnrOyGYisPCEAKqKTQmjg5Za1JwMMb71aCoO5qZQO3g8m7LwgYO6t-cZf", "width": 4032}], "place_id": "ChIJjU8vrQ8i50YRO3_TWFoVJjs", "plus_code": {"compound_code": "VVWR+JH Kaunas, Kaunas City Municipality, Lithuania", "global_code": "9G65VVWR+JH"}, "price_level": 1, "rating": 4.5, "reference": "ChIJjU8vrQ8i50YRO3_TWFoVJjs", "scope": "GOOGLE", "types": ["bar", "point_of_interest", "establishment"], "user_ratings_total": 821, "vicinity": "Vilniaus gatv\u0117 13, Kaunas"}, {"business_status": "OPERATIONAL", "geometry": {"location": {"lat": 54.89692059999999, "lng": 23.920283}, "viewport": {"northeast": {"lat": 54.89817337989272, "lng": 23.92147517989272}, "southwest": {"lat": 54.89547372010728, "lng": 23.91877552010728}}}, "icon": "https://maps.gstatic.com/mapfiles/place_api/icons/v1/png_71/bar-71.png", "icon_background_color": "#FF9E67", "icon_mask_base_uri": "https://maps.gstatic.com/mapfiles/place_api/icons/v2/bar_pinlet", "name": "Genys Taproom Kaunas / Laisv\u0117s al.", "opening_hours": {"open_now": false}, "photos": [{"height": 4032, "html_attributions": ["<a href=\"https://maps.google.com/maps/contrib/118099480118921860946\">Gintare D</a>"], "photo_reference": "AUGGfZlygV0wqZlupJlP7NJUl1jFBMCND7piCuzyd-IgOKObOA3H7oTmWKbiEpa-AbFh8aOX6vfpTvulYWC8nB5xDYJBYb6pxfeEHxIowkM2-30R1c5H01pp0B5oGXYINIaiif2dc4U32BdALeiurgrP-0XnER8EYOEpUTvfK2NcAgk8So3m", "width": 3024}], "place_id": "ChIJbU60eEwj50YRZo-rKgsPzJs", "plus_code": {"compound_code": "VWWC+Q4 Kaunas, Kaunas City Municipality, Lithuania", "global_code": "9G65VWWC+Q4"}, "price_level": 2, "rating": 4.6, "reference": "ChIJbU60eEwj50YRZo-rKgsPzJs", "scope": "GOOGLE", "types": ["bar", "restaurant", "food", "point_of_interest", "establishment"], "user_ratings_total": 682, "vicinity": "Laisv\u0117s al. 21, Kaunas"}, {"business_status": "OPERATIONAL", "geometry": {"location": {"lat": 54.8973889, "lng": 23.9067107}, "viewport": {"northeast": {"lat": 54.89875212989272, "lng": 23.90821982989272}, "southwest": {"lat": 54.89605247010728, "lng": 23.90552017010727}}}, "icon": "https://maps.gstatic.com/mapfiles/place_api/icons/v1/png_71/bar-71.png", "icon_background_color": "#FF9E67", "icon_mask_base_uri": "https://maps.gstatic.com/mapfiles/place_api/icons/v2/bar_pinlet", "name": "Godo", "opening_hours": {"open_now": false}, "photos": [{"height": 3493, "html_attributions": ["<a href=\"https://maps.google.com/maps/contrib/116450950769275435008\">A Google User</a>"], "photo_reference": "AUGGfZnyaoAnFAJOAr-vpQ9ShLKlTwZmvaiPN40bJeS7GbKoFzoOK2ZHzUYFBJZR42RhV6Arb1SuMNr6_f3gbezRHlQOHwSinkYQWoocpY_U_7PjSYb6ZkKUD9tZ04JSGGkDCEiPP3f0mhb-csk741Ab9uxwVDKZGtoxoQ_WBVS0-2ArC0F6", "width": 5239}], "place_id": "ChIJy7LFYDQj50YRhMbjGZqJ3ic", "plus_code": {"compound_code": "VWW4+XM Kaunas, Kaunas City Municipality, Lithuania", "global_code": "9G65VWW4+XM"}, "price_level": 2, "rating": 4.6, "reference": "ChIJy7LFYDQj50YRhMbjGZqJ3ic", "scope": "GOOGLE", "types": ["bar", "cafe", "food", "point_of_interest", "establishment"], "user_ratings_total": 815, "vicinity": "Laisv\u0117s al. 89-1D, Kaunas"}, {"business_status": "OPERATIONAL", "geometry": {"location": {"lat": 54.8964784, "lng": 23.8966832}, "viewport": {"northeast": {"lat": 54.89784477989272, "lng": 23.89804852989272}, "southwest": {"lat": 54.89514512010727, "lng": 23.89534887010728}}}, "icon": "https://maps.gstatic.com/mapfiles/place_api/icons/v1/png_71/bar-71.png", "icon_background_color": "#FF9E67", "icon_mask_base_uri": "https://maps.gstatic.com/mapfiles/place_api/icons/v2/bar_pinlet", "name": "Galera Pub", "opening_hours": {"open_now": false}, "photos": [{"height": 3024, "html_attributions": ["<a href=\"https://maps.google.com/maps/contrib/107694312279824900939\">Aist\u0117 I\u017eikovait\u0117</a>"], "photo_reference": "AUGGfZn0bMmobZVtEqYl1Km0orqkwjm69_nIj9Ql2qjxH2abakRn630UUkbmvkbdUynLFlJ1-SLl_wlLUEqWz1HLVKWXoAFGqB7Tr-zrkDRoud8fawPJE6N4SHJqhaBpGjnwqmHbEDnssAcym7ozTmM3xI9CMAdvjUToROlOVbsa8GD-lBV-", "width": 4032}], "place_id": "ChIJrWJAfg4i50YRYcct3etGKgY", "plus_code": {"compound_code": "VVWW+HM Kaunas, Kaunas City Municipality, Lithuania", "global_code": "9G65VVWW+HM"}, "rating": 4.6, "reference": "ChIJrWJAfg4i50YRYcct3etGKgY", "scope": "GOOGLE", "types": ["night_club", "bar", "restaurant", "food", "point_of_interest", "establishment"], "user_ratings_total": 249, "vicinity": "Nemuno g. 45, Kaunas"}, {"business_status": "OPERATIONAL", "geometry": {"location": {"lat": 54.8983784, "lng": 23.9135925}, "viewport": {"northeast": {"lat": 54.89961037989273, "lng": 23.91474677989272}, "southwest": {"lat": 54.89691072010729, "lng": 23.91204712010728}}}, "icon": "https://maps.gstatic.com/mapfiles/place_api/icons/v1/png_71/bar-71.png", "icon_background_color": "#FF9E67", "icon_mask_base_uri": "https://maps.gstatic.com/mapfiles/place_api/icons/v2/bar_pinlet", "name": "Smukl\u0117", "opening_hours": {"open_now": false}, "photos": [{"height": 4032, "html_attributions": ["<a href=\"https://maps.google.com/maps/contrib/112194424209790001953\">Tautvydas Padgurskas</a>"], "photo_reference": "AUGGfZl3tV2A-oSLiXR63toTNpbVCyCtpEcd1OkvAWXSSlUEhBv5O3K5xYUhsUMr_D2j4UINhihU92Tg-BbBh6s2Qfoxsygwt5c9CnXVvfIFXW8PCdzPmDk5dUajtW1P9jwNUxm-ezUV8kFSSCBVzEdxKeGkvQ8z7qzGWJqTtafgbCOQ-WWP", "width": 3024}], "place_id": "ChIJMzktVlAj50YRGy25rqj9H68", "plus_code": {"compound_code": "VWX7+9C Kaunas, Kaunas City Municipality, Lithuania", "global_code": "9G65VWX7+9C"}, "rating": 4.5, "reference": "ChIJMzktVlAj50YRGy25rqj9H68", "scope": "GOOGLE", "types": ["bar", "point_of_interest", "establishment"], "user_ratings_total": 55, "vicinity": "S. Daukanto g. 23, Kaunas"}, {"business_status": "OPERATIONAL", "geometry": {"location": {"lat": 54.8972576, "lng": 23.9125066}, "viewport": {"northeast": {"lat": 54.89869157989272, "lng": 23.91394255000001}, "southwest": {"lat": 54.89599192010728, "lng": 23.90822675}}}, "icon": "https://maps.gstatic.com/mapfiles/place_api/icons/v1/png_71/bar-71.png", "icon_background_color": "#FF9E67", "icon_mask_base_uri": "https://maps.gstatic.com/mapfiles/place_api/icons/v2/bar_pinlet", "name": "D\u017eem'pub", "opening_hours": {"open_now": false}, "photos": [{"height": 3024, "html_attributions": ["<a href=\"https://maps.google.com/maps/contrib/106670638400699243965\">\u0412\u0430\u0434\u0438\u043c \u041c\u0438\u0440\u043e\u043d</a>"], "photo_reference": "AUGGfZkVhh2tB7bQwFnvQNrRpFnxpPCrLU2CuIjOqfFuMCcpizQEQUZ07WKO-cJbSq5Hgc_uYONQkaE2heM1UE8AjADj6cDRJFukHocTTNx-6ACBW61-VR9k4Tk9IiWF6kn3Sq-8GUoE-8-UGUA55GPuw5rzfTju4ipZKPIk83ibUSpIuSVq", "width": 4032}], "place_id": "ChIJcYwMZHQi50YRmEt-LCNq4EA", "plus_code": {"compound_code": "VWW7+W2 Kaunas, Kaunas City Municipality, Lithuania", "global_code": "9G65VWW7+W2"}, "price_level": 1, "rating": 4.2, "reference": "ChIJcYwMZHQi50YRmEt-LCNq4EA", "scope": "GOOGLE", "types": ["night_club", "bar", "point_of_interest", "establishment"], "user_ratings_total": 2455, "vicinity": "5th floor, Laisv\u0117s al. 59, Kaunas"}, {"business_status": "OPERATIONAL", "geometry": {"location": {"lat": 54.900367, "lng": 23.9322548}, "viewport": {"northeast": {"lat": 54.90168642989271, "lng": 23.93338027989272}, "southwest": {"lat": 54.89898677010727, "lng": 23.93068062010728}}}, "icon": "https://maps.gstatic.com/mapfiles/place_api/icons/v1/png_71/bar-71.png", "icon_background_color": "#FF9E67", "icon_mask_base_uri": "https://maps.gstatic.com/mapfiles/place_api/icons/v2/bar_pinlet", "name": "Biergarten (Beer-garden) baras KIEMAS", "opening_hours": {"open_now": true}, "photos": [{"height": 602, "html_attributions": ["<a href=\"https://maps.google.com/maps/contrib/115955506565567449629\">A Google User</a>"], "photo_reference": "AUGGfZkHu8DhJTgcVS4HZn0QYyIhSEg4a4vPuTQQWP09UgJdI9ylpZGSe-HcOXjylyMjevpICAtUQRXsm_iWDcx6wFjaXo0b7qjJbWyji9YdtBHsXIITd6a8YDGRsnGutCW0FGmC-nn4FrpHQizrLGq6wjPf2RGczgYg7-bmHCDYtHMUl3rn", "width": 776}], "place_id": "ChIJVcSA2kMZ50YR2ehE7r9wSD4", "plus_code": {"compound_code": "WW2J+4W Kaunas, Kaunas City Municipality, Lithuania", "global_code": "9G65WW2J+4W"}, "rating": 4.7, "reference": "ChIJVcSA2kMZ50YR2ehE7r9wSD4", "scope": "GOOGLE", "types": ["bar", "restaurant", "food", "point_of_interest", "establishment"], "user_ratings_total": 92, "vicinity": "K. Petrausko g. 33, Kaunas"}, {"business_status": "OPERATIONAL", "geometry": {"location": {"lat": 54.8988662, "lng": 23.9241927}, "viewport": {"northeast": {"lat": 54.90008437989272, "lng": 23.92539132989272}, "southwest": {"lat": 54.89738472010728, "lng": 23.92269167010728}}}, "icon": "https://maps.gstatic.com/mapfiles/place_api/icons/v1/png_71/bar-71.png", "icon_background_color": "#FF9E67", "icon_mask_base_uri": "https://maps.gstatic.com/mapfiles/place_api/icons/v2/bar_pinlet", "name": "Kultura!", "opening_hours": {"open_now": true}, "photos": [{"height": 3456, "html_attributions": ["<a href=\"https://maps.google.com/maps/contrib/102897653928362172833\">\u00c1ron B\u00f6r\u00f6czky</a>"], "photo_reference": "AUGGfZktV6gGypqnJPcqIkg8eKXuEmsBaNgUGsUDzeqXFkZk900rcq8IgRkw0eh0hEtXs5OdXq9mJONUId_dX0_3JijOBzjcT-iK-MKNCFGdRb4eeFeFuvxxa7k_7eD6RnNShwSbLDD3YeeCggiahutfmsMAftpiOxdVfMpXze9OyBzZ_yr6", "width": 4608}], "place_id": "ChIJk4md0nci50YR5iJHJ3z-3OQ", "plus_code": {"compound_code": "VWXF+GM Kaunas, Kaunas City Municipality, Lithuania", "global_code": "9G65VWXF+GM"}, "price_level": 2, "rating": 4.6, "reference": "ChIJk4md0nci50YR5iJHJ3z-3OQ", "scope": "GOOGLE", "types": ["bar", "restaurant", "food", "point_of_interest", "establishment"], "user_ratings_total": 1838, "vicinity": "K. Donelai\u010dio g. 16, Kaunas"}, {"business_status": "OPERATIONAL", "geometry": {"location": {"lat": 54.89730549999999, "lng": 23.8911906}, "viewport": {"northeast": {"lat": 54.89865472989272, "lng": 23.89259907989272}, "southwest": {"lat": 54.89595507010728, "lng": 23.88989942010727}}}, "icon": "https://maps.gstatic.com/mapfiles/place_api/icons/v1/png_71/bar-71.png", "icon_background_color": "#FF9E67", "icon_mask_base_uri": "https://maps.gstatic.com/mapfiles/place_api/icons/v2/bar_pinlet", "name": "HOP DOC Gastropub", "opening_hours": {"open_now": false}, "photos": [{"height": 1825, "html_attributions": ["<a href=\"https://maps.google.com/maps/contrib/111652219218924043231\">HOP DOC Gastropub</a>"], "photo_reference": "AUGGfZngF4cUyXVeMS8ezAjvTbbTJbm7dxArKXkybC-RvKU4do7tl7Feli3BBpFHGprXpaEx7Glei-UGei1BFwSykrjlrJDbNWxe1XM_yJtzeuChCSZVIu9J0lp8FH66XVx4g3bVzN9wtP-wv_3Vb6XudNW67ZkiWbnG61N4UrUs6T4e701I", "width": 2738}], "place_id": "ChIJBSiGpQ8i50YRk1QAEnL46qw", "plus_code": {"compound_code": "VVWR+WF Kaunas, Kaunas City Municipality, Lithuania", "global_code": "9G65VVWR+WF"}, "price_level": 2, "rating": 4.5, "reference": "ChIJBSiGpQ8i50YRk1QAEnL46qw", "scope": "GOOGLE", "types": ["bar", "restaurant", "food", "point_of_interest", "establishment"], "user_ratings_total": 1282, "vicinity": "M. Dauk\u0161os g. 23, Kaunas"}, {"business_status": "OPERATIONAL", "geometry": {"location": {"lat": 54.8964886, "lng": 23.8913816}, "viewport": {"northeast": {"lat": 54.89782682989272, "lng": 23.89263472989272}, "southwest": {"lat": 54.89512717010728, "lng": 23.88993507010727}}}, "icon": "https://maps.gstatic.com/mapfiles/place_api/icons/v1/png_71/bar-71.png", "icon_background_color": "#FF9E67", "icon_mask_base_uri": "https://maps.gstatic.com/mapfiles/place_api/icons/v2/bar_pinlet", "name": "Pal\u0117 Al\u0117 Bar", "opening_hours": {"open_now": false}, "photos": [{"height": 3709, "html_attributions": ["<a href=\"https://maps.google.com/maps/contrib/107673987398638130148\">A Google User</a>"], "photo_reference": "AUGGfZl5AMDgyavfMBNgb9pYt5LjhD1vahDPSdVnJL__daaA8WQbxyUcAfzyZuefoZQwz_-FgyMMNa8T5H5cvN0Y0pxOiyQTBq6AWBkM8ZTEJ9eklSbShyd9Xg5t_5R1MzoQEoJcs-qud5QyPBEkaqXfEs5nn14AYP5kCK-XpGSKBVTojFnO", "width": 5563}], "place_id": "ChIJHScl6Asj50YR9vdktYGbgD8", "plus_code": {"compound_code": "VVWR+HH Kaunas, Kaunas City Municipality, Lithuania", "global_code": "9G65VVWR+HH"}, "rating": 4.3, "reference": "ChIJHScl6Asj50YR9vdktYGbgD8", "scope": "GOOGLE", "types": ["bar", "point_of_interest", "establishment"], "user_ratings_total": 70, "vicinity": "Vilniaus gatv\u0117 26-21, Kaunas"}, {"business_status": "OPERATIONAL", "geometry": {"location": {"lat": 54.8969219, "lng": 23.8879367}, "viewport": {"northeast": {"lat": 54.89832692989273, "lng": 23.88937817989272}, "southwest": {"lat": 54.89562727010728, "lng": 23.88667852010728}}}, "icon": "https://maps.gstatic.com/mapfiles/place_api/icons/v1/png_71/restaurant-71.png", "icon_background_color": "#FF9E67", "icon_mask_base_uri": "https://maps.gstatic.com/mapfiles/place_api/icons/v2/restaurant_pinlet", "name": "Antys Pub'e", "opening_hours": {"open_now": false}, "place_id": "ChIJpWxXMiAj50YRsucxb-tknfE", "plus_code": {"compound_code": "VVWQ+Q5 Kaunas, Kaunas City Municipality, Lithuania", "global_code": "9G65VVWQ+Q5"}, "rating": 0, "reference": "ChIJpWxXMiAj50YRsucxb-tknfE", "scope": "GOOGLE", "types": ["restaurant", "food", "point_of_interest", "establishment"], "user_ratings_total": 0, "vicinity": "Rotu\u0161\u0117s a. 1, Kaunas"}, {"business_status": "OPERATIONAL", "geometry": {"location": {"lat": 54.8986809, "lng": 23.9175909}, "viewport": {"northeast": {"lat": 54.90013162989272, "lng": 23.91895402989272}, "southwest": {"lat": 54.89743197010728, "lng": 23.91625437010728}}}, "icon": "https://maps.gstatic.com/mapfiles/place_api/icons/v1/png_71/bar-71.png", "icon_background_color": "#FF9E67", "icon_mask_base_uri": "https://maps.gstatic.com/mapfiles/place_api/icons/v2/bar_pinlet", "name": "Vingiu Dubingiu Alud\u0117", "opening_hours": {"open_now": false}, "photos": [{"height": 2000, "html_attributions": ["<a href=\"https://maps.google.com/maps/contrib/114261221788436089416\">Vingiu Dubingiu Alud\u0117</a>"], "photo_reference": "AUGGfZkTT9PnUTZezMI_NLOurh6P1jkuN8lKqsYIgLSyXJLD8vZ7fr6enhUG-ixXEDQGZqcLBECeKuRftg-EfASoJtT-WBaQnls76zOxaSgU4UgkLyEwRHAQWb7Dm1IFGBx4Pt2NYNsxtd88_KM_s-Ymcye4JYcGI0cDl_QIOkZE5RfV0e8k", "width": 3000}], "place_id": "ChIJBTtH0HUi50YRNntqWHDaOZ0", "plus_code": {"compound_code": "VWX9+F2 Kaunas, Kaunas City Municipality, Lithuania", "global_code": "9G65VWX9+F2"}, "price_level": 2, "rating": 4.8, "reference": "ChIJBTtH0HUi50YRNntqWHDaOZ0", "scope": "GOOGLE", "types": ["bar", "restaurant", "food", "point_of_interest", "establishment"], "user_ratings_total": 1258, "vicinity": "K. Donelai\u010dio g. 41, Kaunas"}, {"business_status": "OPERATIONAL", "geometry": {"location": {"lat": 54.8965088, "lng": 23.9177169}, "viewport": {"northeast": {"lat": 54.89785687989273, "lng": 23.91905777989272}, "southwest": {"lat": 54.89515722010729, "lng": 23.91635812010728}}}, "icon": "https://maps.gstatic.com/mapfiles/place_api/icons/v1/png_71/restaurant-71.png", "icon_background_color": "#FF9E67", "icon_mask_base_uri": "https://maps.gstatic.com/mapfiles/place_api/icons/v2/restaurant_pinlet", "name": "Baking Mad Hidden Lab", "opening_hours": {"open_now": true}, "photos": [{"height": 3024, "html_attributions": ["<a href=\"https://maps.google.com/maps/contrib/114473549786349942223\">Joe Seale</a>"], "photo_reference": "AUGGfZnDYYyYHHkqhqcl28MHrccxYP6BCOz4HZSy7c35gZ2vDKS4MqcyIn9VTAr0J6LRIujZ_jDDmIsoW9i7_JXZf-Qty-qp3q8BOBLHWuKv-mAlmo-Xbw8V03hk_rceiWa5GaAI8eaJiGn2uqRoKqJPI9UV8A0uN5ufvKI-YeM4yv64P9jR", "width": 4032}], "place_id": "ChIJtx3evHYi50YRL6OixQ7jpA8", "plus_code": {"compound_code": "VWW9+H3 Kaunas, Kaunas City Municipality, Lithuania", "global_code": "9G65VWW9+H3"}, "price_level": 2, "rating": 4.5, "reference": "ChIJtx3evHYi50YRL6OixQ7jpA8", "scope": "GOOGLE", "types": ["restaurant", "bar", "cafe", "food", "point_of_interest", "store", "establishment"], "user_ratings_total": 1848, "vicinity": "A. Mickevi\u010diaus g. 30, Kaunas"}, {"business_status": "OPERATIONAL", "geometry": {"location": {"lat": 54.897589, "lng": 23.912492}, "viewport": {"northeast": {"lat": 54.89880172989272, "lng": 23.91391015}, "southwest": {"lat": 54.89610207010728, "lng": 23.90823755}}}, "icon": "https://maps.gstatic.com/mapfiles/place_api/icons/v1/png_71/bar-71.png", "icon_background_color": "#FF9E67", "icon_mask_base_uri": "https://maps.gstatic.com/mapfiles/place_api/icons/v2/bar_pinlet", "name": "JazzBar", "opening_hours": {"open_now": false}, "photos": [{"height": 9248, "html_attributions": ["<a href=\"https://maps.google.com/maps/contrib/114812709811029244944\">Dovil\u0117 Bla\u017eonyt\u0117</a>"], "photo_reference": "AUGGfZly1XM-dHX0mEiSLEsJH_gGVdSxQGWwyEQh_J_K9xyAvwCGNaTPl5o1Uu38jc-5pCnCyHgjQLT-9UZ1JR8tESuxLPuYvAmvnwgu5AqAcsd6sBVWuUH2xs7wFPthZKghRxPKaHFMZWq_dok9pnDjLL6zSDa7HidaG1eOTT2qu711-7ZJ", "width": 6936}], "place_id": "ChIJZ4j0XXQi50YRxFBvbH2IfPA", "plus_code": {"compound_code": "VWX6+2X Kaunas, Kaunas City Municipality, Lithuania", "global_code": "9G65VWX6+2X"}, "rating": 4.2, "reference": "ChIJZ4j0XXQi50YRxFBvbH2IfPA", "scope": "GOOGLE", "types": ["bar", "point_of_interest", "establishment"], "user_ratings_total": 100, "vicinity": "Laisv\u0117s al. 70, Kaunas"}, {"business_status": "OPERATIONAL", "geometry": {"location": {"lat": 54.89660809999999, "lng": 23.8894489}, "viewport": {"northeast": {"lat": 54.89800132989272, "lng": 23.89106422989272}, "southwest": {"lat": 54.89530167010728, "lng": 23.88836457010728}}}, "icon": "https://maps.gstatic.com/mapfiles/place_api/icons/v1/png_71/bar-71.png", "icon_background_color": "#FF9E67", "icon_mask_base_uri": "https://maps.gstatic.com/mapfiles/place_api/icons/v2/bar_pinlet", "name": "rePUBlic No.3", "opening_hours": {"open_now": false}, "photos": [{"height": 3120, "html_attributions": ["<a href=\"https://maps.google.com/maps/contrib/106081838848705897703\">carlos gonzalez</a>"], "photo_reference": "AUGGfZn3EvUsa63maDrD4whVa2Ft8pRzj27zcaIUul5JFujaSYnEp55CvshVnWu8dyWutMcHAik1essz-kJqtZui38q3degg9fDWugCKzhzWkzxE0rnfEv83aXkVx7TFKRbHIIGQAA8m5b9NWSPdibIIJFxOu-vWzkMcpx74Scu9cXf3m5do", "width": 4160}], "place_id": "ChIJyzRqtg8i50YR6Bs3iQ-K8dY", "plus_code": {"compound_code": "VVWQ+JQ Kaunas, Kaunas City Municipality, Lithuania", "global_code": "9G65VVWQ+JQ"}, "price_level": 2, "rating": 4.5, "reference": "ChIJyzRqtg8i50YR6Bs3iQ-K8dY", "scope": "GOOGLE", "types": ["bar", "point_of_interest", "establishment"], "user_ratings_total": 1357, "vicinity": "Vilniaus gatv\u0117 10, Kaunas"}]