[{"business_status": "OPERATIONAL", "geometry": {"location": {"lat": 51.8140349, "lng": -8.3925976}, "viewport": {"northeast": {"lat": 51.81536287989272, "lng": -8.391047920107278}, "southwest": {"lat": 51.81266322010728, "lng": -8.393747579892722}}}, "icon": "https://maps.gstatic.com/mapfiles/place_api/icons/v1/png_71/restaurant-71.png", "icon_background_color": "#FF9E67", "icon_mask_base_uri": "https://maps.gstatic.com/mapfiles/place_api/icons/v2/restaurant_pinlet", "name": "Mabel Lane", "opening_hours": {"open_now": true}, "photos": [{"height": 3468, "html_attributions": ["<a href=\"https://maps.google.com/maps/contrib/107154280757440273083\">A Google User</a>"], "photo_reference": "AUc7tXUe8wY4jtH7yOYK7ZdxIwb7XDpEULGqbSh2IY-3JIYIOf3zRMgkYSB-BBn4AelOoGRE6xCNYzrFzfhV2XgH8h0tY6OBbR_8N7U_Gf4gbbBKJ_p0haB-_Sy5CWDZGDBKuZ9dNPVw6LNaPtzUssQ3ifOQh42JSVAJq1gExXNMQ7f4yQVf", "width": 4624}], "place_id": "ChIJezUHAeWFREgRaxpouRoIKSc", "plus_code": {"compound_code": "RJ74+JX Carrigaline, County Cork, Ireland", "global_code": "9C3HRJ74+JX"}, "price_level": 2, "rating": 4.4, "reference": "ChIJezUHAeWFREgRaxpouRoIKSc", "scope": "GOOGLE", "types": ["restaurant", "food", "point_of_interest", "establishment"], "user_ratings_total": 381, "vicinity": "Cork Rd, Carrigaline West, Carrigaline"}, {"business_status": "OPERATIONAL", "geometry": {"location": {"lat": 51.8117804, "lng": -8.392840099999999}, "viewport": {"northeast": {"lat": 51.81312582989273, "lng": -8.391395720107278}, "southwest": {"lat": 51.81042617010728, "lng": -8.394095379892722}}}, "icon": "https://maps.gstatic.com/mapfiles/place_api/icons/v1/png_71/bar-71.png", "icon_background_color": "#FF9E67", "icon_mask_base_uri": "https://maps.gstatic.com/mapfiles/place_api/icons/v2/bar_pinlet", "name": "The Corner House", "opening_hours": {"open_now": false}, "photos": [{"height": 720, "html_attributions": ["<a href=\"https://maps.google.com/maps/contrib/113330161638863901715\">mick</a>"], "photo_reference": "AUc7tXXxSbA1jMKfJAZBQ8wP5bfRUNA3V2CUYQzQmN3KPasz37m1LQP0my2Veel4Natt6wfGorjNZHoqWojetKoIrFIBjCkcAEN3a4j3pF6o3vGV5vY5SZsxk9A_lbvaFCDwXuMSKuk0gywww6VARrHTRCvdtiJq1g8YT5XY8XoVA3hDyVf9", "width": 1280}], "place_id": "ChIJyyqxe9mFREgROUs3vSJbCNU", "plus_code": {"compound_code": "RJ64+PV Carrigaline, County Cork, Ireland", "global_code": "9C3HRJ64+PV"}, "price_level": 2, "rating": 4.5, "reference": "ChIJyyqxe9mFREgROUs3vSJbCNU", "scope": "GOOGLE", "types": ["bar", "restaurant", "food", "point_of_interest", "establishment"], "user_ratings_total": 219, "vicinity": "Kilmoney, Carrigaline"}, {"business_status": "OPERATIONAL", "geometry": {"location": {"lat": 51.8121331, "lng": -8.392934700000001}, "viewport": {"northeast": {"lat": 51.81347157989272, "lng": -8.391414570107278}, "southwest": {"lat": 51.81077192010728, "lng": -8.394114229892722}}}, "icon": "https://maps.gstatic.com/mapfiles/place_api/icons/v1/png_71/bar-71.png", "icon_background_color": "#FF9E67", "icon_mask_base_uri": "https://maps.gstatic.com/mapfiles/place_api/icons/v2/bar_pinlet", "name": "The Stables Bar", "opening_hours": {"open_now": false}, "photos": [{"height": 3024, "html_attributions": ["<a href=\"https://maps.google.com/maps/contrib/105151067363199241794\">Glen Pitter</a>"], "photo_reference": "AUc7tXVq8Z3BxPxlK0cAMQSJoW2tutxT7spT_gozpX-Xa-d5zpQ84jY1IuX9FlWcu4W45Yw1iiFlwiFpOBJVWoRS6i4HSK-TZMapyTIOqpWBOKGr0uOWkHP7JEd7blPSjHuN5F5c6MBaJmKYW7gBgF7NJ8647YRXvrA_adw18t238WF7qTOl", "width": 4032}], "place_id": "ChIJq2CkMtqFREgRWzh0QDPlviw", "plus_code": {"compound_code": "RJ64+VR Carrigaline, County Cork, Ireland", "global_code": "9C3HRJ64+VR"}, "price_level": 2, "rating": 4.3, "reference": "ChIJq2CkMtqFREgRWzh0QDPlviw", "scope": "GOOGLE", "types": ["bar", "restaurant", "food", "point_of_interest", "establishment"], "user_ratings_total": 438, "vicinity": "Main St, Kilmoney, Carrigaline"}, {"business_status": "OPERATIONAL", "geometry": {"location": {"lat": 51.8128952, "lng": -8.3921266}, "viewport": {"northeast": {"lat": 51.81427752989273, "lng": -8.39078192010728}, "southwest": {"lat": 51.81157787010728, "lng": -8.393481579892724}}}, "icon": "https://maps.gstatic.com/mapfiles/place_api/icons/v1/png_71/bar-71.png", "icon_background_color": "#FF9E67", "icon_mask_base_uri": "https://maps.gstatic.com/mapfiles/place_api/icons/v2/bar_pinlet", "name": "The Gaelic Bar", "opening_hours": {"open_now": false}, "photos": [{"height": 1908, "html_attributions": ["<a href=\"https://maps.google.com/maps/contrib/105822992295748711995\">Jim Lesniak</a>"], "photo_reference": "AUc7tXXqGwry5H3SLL5Q8YsQdBLqcOga2ohHeqjSLFOujo-N2Q-ERrfa3wjIe3VcsOv6k8Vz_vKfQ2JinQQF8TR-SynTVbo83W26fotm6qGx4eOqHY6jartB2s58HddNaiLkFgwvdkrg_XGPZCduzo9FTVhIFKKKi6dGj8Mxc4APVhPjN1wD", "width": 4032}], "place_id": "ChIJc7cqxayGREgRcRDgSeuszLI", "plus_code": {"compound_code": "RJ75+54 Crosshaven, County Cork, Ireland", "global_code": "9C3HRJ75+54"}, "price_level": 2, "rating": 4.5, "reference": "ChIJc7cqxayGREgRcRDgSeuszLI", "scope": "GOOGLE", "types": ["bar", "restaurant", "food", "point_of_interest", "establishment"], "user_ratings_total": 385, "vicinity": "Carrigaline Rd, Kilnaglery, Carrigaline"}, {"business_status": "OPERATIONAL", "geometry": {"location": {"lat": 51.8162259, "lng": -8.391941}, "viewport": {"northeast": {"lat": 51.81766312989272, "lng": -8.390586470107278}, "southwest": {"lat": 51.81496347010727, "lng": -8.393286129892722}}}, "icon": "https://maps.gstatic.com/mapfiles/place_api/icons/v1/png_71/restaurant-71.png", "icon_background_color": "#FF9E67", "icon_mask_base_uri": "https://maps.gstatic.com/mapfiles/place_api/icons/v2/restaurant_pinlet", "name": "Collins Bar", "photos": [{"height": 4032, "html_attributions": ["<a href=\"https://maps.google.com/maps/contrib/107857311510674817177\">iexam</a>"], "photo_reference": "AUc7tXW73EVC8npL6gTs3Czom2iAKKUEhYGkBe1xmDfDZuL744SxBcCC1WEEQO98hvC0UmJ_ApU6teCnvw3k2Qh_Yaplmssayo2jpJjdZUvwkIetH0Iwzp7EJ2dQq3EOiJQr4v8daWInPaPK202fK0-OrXOlzihkRHGUzMCaD5UBbQVJc_zX", "width": 3024}], "place_id": "ChIJFaQSEv-FREgRreMJiliECu4", "plus_code": {"compound_code": "RJ85+F6 Carrigaline, County Cork, Ireland", "global_code": "9C3HRJ85+F6"}, "rating": 4, "reference": "ChIJFaQSEv-FREgRreMJiliECu4", "scope": "GOOGLE", "types": ["restaurant", "food", "point_of_interest", "establishment"], "user_ratings_total": 1, "vicinity": "Main St, Carrigaline West, Carrigaline"}, {"business_status": "OPERATIONAL", "geometry": {"location": {"lat": 51.8137775, "lng": -8.3918993}, "viewport": {"northeast": {"lat": 51.81500312989272, "lng": -8.39052592010728}, "southwest": {"lat": 51.81230347010728, "lng": -8.393225579892723}}}, "icon": "https://maps.gstatic.com/mapfiles/place_api/icons/v1/png_71/restaurant-71.png", "icon_background_color": "#FF9E67", "icon_mask_base_uri": "https://maps.gstatic.com/mapfiles/place_api/icons/v2/restaurant_pinlet", "name": "Royal Pacific", "opening_hours": {"open_now": false}, "photos": [{"height": 1360, "html_attributions": ["<a href=\"https://maps.google.com/maps/contrib/107669351134311967124\">Royal Pacific Chinese</a>"], "photo_reference": "AUc7tXXTDsUDyE_m4HH_WAdo7_krYtAyk8pqwp_8bMDHdcss6jTvcizlAqwjcyWJor3FFVGmzMGQZKfU8J20aTD9mgqhTja3bN2ujlWPI80gna4QLAY7XLlo_IznYC8TVd-NQSeM5k9ci7N0ZCYswpJyTTIQ1kLcYei2tUChLZs8abEIHzkW", "width": 2048}], "place_id": "ChIJe6RbstuFREgRKYvq4KpsWLo", "plus_code": {"compound_code": "RJ75+G6 Carrigaline, County Cork, Ireland", "global_code": "9C3HRJ75+G6"}, "price_level": 2, "rating": 4.4, "reference": "ChIJe6RbstuFREgRKYvq4KpsWLo", "scope": "GOOGLE", "types": ["restaurant", "food", "point_of_interest", "establishment"], "user_ratings_total": 281, "vicinity": "Owenabue Mall, Main St, Carrigaline Middle, Carrigaline"}]