[{"business_status": "OPERATIONAL", "geometry": {"location": {"lat": 52.40967389999999, "lng": 16.9342892}, "viewport": {"northeast": {"lat": 52.41086202989273, "lng": 16.93549212989272}, "southwest": {"lat": 52.40816237010728, "lng": 16.93279247010728}}}, "icon": "https://maps.gstatic.com/mapfiles/place_api/icons/v1/png_71/bar-71.png", "icon_background_color": "#FF9E67", "icon_mask_base_uri": "https://maps.gstatic.com/mapfiles/place_api/icons/v2/bar_pinlet", "name": "Tanner's Irish Pub", "opening_hours": {"open_now": true}, "photos": [{"height": 810, "html_attributions": ["<a href=\"https://maps.google.com/maps/contrib/107958648830597106675\">A Google User</a>"], "photo_reference": "AUGGfZl7ZIi9STvuhVv3S9hX3lEhGRbhzI5dBUJ8kO3ahPJMrOJZnUkaihAiVxjSi56eD6hVbRFpfe7AtzhWMhkMR93HJf642aZzqiCO9sf2KyoSh667_7hQ_oOQDWfnapTAg8SDRetYIf_FBtH_An6ERp9cQKWcCjKzIy-jWNtE9n1JMCo", "width": 1440}], "place_id": "ChIJgzuQXj9bBEcRcrnA3K-hmlk", "plus_code": {"compound_code": "CW5M+VP Pozna\u0144, Poland", "global_code": "9F4RCW5M+VP"}, "price_level": 2, "rating": 4.4, "reference": "ChIJgzuQXj9bBEcRcrnA3K-hmlk", "scope": "GOOGLE", "types": ["bar", "restaurant", "food", "point_of_interest", "establishment"], "user_ratings_total": 840, "vicinity": "Wroniecka 22, Pozna\u0144"}, {"business_status": "OPERATIONAL", "geometry": {"location": {"lat": 52.4101717, "lng": 16.9364816}, "viewport": {"northeast": {"lat": 52.41151237989273, "lng": 16.93791817989272}, "southwest": {"lat": 52.40881272010728, "lng": 16.93521852010728}}}, "icon": "https://maps.gstatic.com/mapfiles/place_api/icons/v1/png_71/bar-71.png", "icon_background_color": "#FF9E67", "icon_mask_base_uri": "https://maps.gstatic.com/mapfiles/place_api/icons/v2/bar_pinlet", "name": "Piwna Stopa", "opening_hours": {"open_now": true}, "photos": [{"height": 3464, "html_attributions": ["<a href=\"https://maps.google.com/maps/contrib/100061840871646793946\">Maksymilian Ohde</a>"], "photo_reference": "AUGGfZmfIawpObWa-G0yuZezdAjS_Yur1ozoFxESjdc6NCYvxgAGaF7V6lF4BpntJe2WhobTU3C4io0dHU52H60NcRHOrKIJPXpkBiv8Yr9pUv8vx2TLtBRpsLZRz43KB41IomeI66qOWl8v3AyTsdf90khQ_p_VUTnQBo68XUlkBzQ3F4gA", "width": 4618}], "place_id": "ChIJf6n720BbBEcRekOAxllHyQo", "plus_code": {"compound_code": "CW6P+3H Pozna\u0144, Poland", "global_code": "9F4RCW6P+3H"}, "price_level": 2, "rating": 4.7, "reference": "ChIJf6n720BbBEcRekOAxllHyQo", "scope": "GOOGLE", "types": ["bar", "restaurant", "food", "point_of_interest", "establishment"], "user_ratings_total": 3910, "vicinity": "Szewska 7, Pozna\u0144"}, {"business_status": "OPERATIONAL", "geometry": {"location": {"lat": 52.4053744, "lng": 16.9235047}, "viewport": {"northeast": {"lat": 52.40668337989272, "lng": 16.92483702989272}, "southwest": {"lat": 52.40398372010728, "lng": 16.92213737010728}}}, "icon": "https://maps.gstatic.com/mapfiles/place_api/icons/v1/png_71/bar-71.png", "icon_background_color": "#FF9E67", "icon_mask_base_uri": "https://maps.gstatic.com/mapfiles/place_api/icons/v2/bar_pinlet", "name": "ROZLEWNIA Pub", "opening_hours": {"open_now": true}, "photos": [{"height": 698, "html_attributions": ["<a href=\"https://maps.google.com/maps/contrib/114116886082005504495\">ROZLEWNIA Pub</a>"], "photo_reference": "AUGGfZntkwR3zk7HIPlCk6Mm9g0Om0UUXR9GiBqwRXpeiV2maUFobdi1A_8vQ-jk3w6whsF09Xrd1s0KOwRySGa8_TT7vLDnSKQ7znxcH_66HCjIU7HP_9gkcgtJ6dqJM-QoPe4woodHxSlr47EmRQYQjBZ8I8UR9KQQ8tLTx4XrntcK3xRy", "width": 960}], "place_id": "ChIJn-_oXjdbBEcR64pcGZqz25s", "plus_code": {"compound_code": "CW4F+4C Pozna\u0144, Poland", "global_code": "9F4RCW4F+4C"}, "price_level": 1, "rating": 4.5, "reference": "ChIJn-_oXjdbBEcR64pcGZqz25s", "scope": "GOOGLE", "types": ["bar", "restaurant", "food", "point_of_interest", "establishment"], "user_ratings_total": 445, "vicinity": "Stanis\u0142awa Taczaka 21, Pozna\u0144"}, {"business_status": "OPERATIONAL", "geometry": {"location": {"lat": 52.4079515, "lng": 16.9356598}, "viewport": {"northeast": {"lat": 52.40933497989272, "lng": 16.93720867989272}, "southwest": {"lat": 52.40663532010728, "lng": 16.93450902010728}}}, "icon": "https://maps.gstatic.com/mapfiles/place_api/icons/v1/png_71/bar-71.png", "icon_background_color": "#FF9E67", "icon_mask_base_uri": "https://maps.gstatic.com/mapfiles/place_api/icons/v2/bar_pinlet", "name": "Deja Vu - Pub", "opening_hours": {"open_now": true}, "photos": [{"height": 3072, "html_attributions": ["<a href=\"https://maps.google.com/maps/contrib/108226224314358148022\">A Google User</a>"], "photo_reference": "AUGGfZlJUS_IJE-nt9EarDNB4UG02R1JqwDD-wyLL_tNYj5m5In4HZTQDtHtEdJCPdJz44mmit3RJ08X0DQUFbiTsVUxTh5QpIljIFqlmrtoRJ48EeYwsc6KoGjMJ_uZlNvmNCaw768HWO6ghxW0WJKwZ5JLmkHYFQK-1wGyLfMeiCvmVfRT", "width": 4096}], "place_id": "ChIJY2p_oEBbBEcRFu66H_4auAw", "plus_code": {"compound_code": "CW5P+57 Pozna\u0144, Poland", "global_code": "9F4RCW5P+57"}, "price_level": 1, "rating": 4.3, "reference": "ChIJY2p_oEBbBEcRFu66H_4auAw", "scope": "GOOGLE", "types": ["night_club", "bar", "restaurant", "food", "point_of_interest", "establishment"], "user_ratings_total": 827, "vicinity": "Wo\u017ana 21, Pozna\u0144"}, {"business_status": "OPERATIONAL", "geometry": {"location": {"lat": 52.4091925, "lng": 16.9270071}, "viewport": {"northeast": {"lat": 52.41053312989271, "lng": 16.92821267989272}, "southwest": {"lat": 52.40783347010726, "lng": 16.92551302010728}}}, "icon": "https://maps.gstatic.com/mapfiles/place_api/icons/v1/png_71/bar-71.png", "icon_background_color": "#FF9E67", "icon_mask_base_uri": "https://maps.gstatic.com/mapfiles/place_api/icons/v2/bar_pinlet", "name": "Mustang Pub", "opening_hours": {"open_now": true}, "photos": [{"height": 3036, "html_attributions": ["<a href=\"https://maps.google.com/maps/contrib/107708777791367029006\">Jakub Chromiak</a>"], "photo_reference": "AUGGfZkKwEmphNWMx4cpRZ8Da5VwCbjgCBN3mWJHIu6zoGPZ5bbF6DiiMHv4k0dIl77PdVvE0oRvzJalG-TqZt9QaHoOy6naAOBcD8PxoD1cEmbacAOxu4oS9wWmV06zsZqELTaWXvEna9j8VUM_v4MDPp-EdAPS6Y3-YoNCwY7gRVFhaITH", "width": 4048}], "place_id": "ChIJj6KHBzhbBEcR9J2hHkEGG-4", "plus_code": {"compound_code": "CW5G+MR Pozna\u0144, Poland", "global_code": "9F4RCW5G+MR"}, "price_level": 1, "rating": 4.5, "reference": "ChIJj6KHBzhbBEcR9J2hHkEGG-4", "scope": "GOOGLE", "types": ["bar", "restaurant", "food", "point_of_interest", "establishment"], "user_ratings_total": 905, "vicinity": "Feliksa Nowowiejskiego 6, Pozna\u0144"}, {"business_status": "OPERATIONAL", "geometry": {"location": {"lat": 52.4025915, "lng": 16.9302828}, "viewport": {"northeast": {"lat": 52.40385497989271, "lng": 16.93157277989272}, "southwest": {"lat": 52.40115532010727, "lng": 16.92887312010728}}}, "icon": "https://maps.gstatic.com/mapfiles/place_api/icons/v1/png_71/bar-71.png", "icon_background_color": "#FF9E67", "icon_mask_base_uri": "https://maps.gstatic.com/mapfiles/place_api/icons/v2/bar_pinlet", "name": "Workshop pub", "opening_hours": {"open_now": true}, "photos": [{"height": 3000, "html_attributions": ["<a href=\"https://maps.google.com/maps/contrib/106503753211784053411\">A Google User</a>"], "photo_reference": "AUGGfZn3pSEWpgoPmFAL0Um0AFM2FIFyGkhBjgbkgAe6kUQxNgP59Shi8lKbA8YkjmcqCnRbrIFu9gxevletV1e1-xUVyEKhgG4NWLUOSLpmuK-9CGnwKnU9tQwUxp6hQubcRZ8cdBXFL5DzSgUDBTmRjyT_UKbpU_FAttbAuwIGz6to4q8K", "width": 4000}], "place_id": "ChIJ_zMFoAlbBEcRmU_xlsArF9I", "plus_code": {"compound_code": "CW3J+24 Pozna\u0144, Poland", "global_code": "9F4RCW3J+24"}, "rating": 4.5, "reference": "ChIJ_zMFoAlbBEcRmU_xlsArF9I", "scope": "GOOGLE", "types": ["bar", "restaurant", "food", "point_of_interest", "establishment"], "user_ratings_total": 44, "vicinity": "Kwiatowa 2, Pozna\u0144"}, {"business_status": "OPERATIONAL", "geometry": {"location": {"lat": 52.4093124, "lng": 16.9270295}, "viewport": {"northeast": {"lat": 52.41067417989272, "lng": 16.92824212989272}, "southwest": {"lat": 52.40797452010728, "lng": 16.92554247010727}}}, "icon": "https://maps.gstatic.com/mapfiles/place_api/icons/v1/png_71/bar-71.png", "icon_background_color": "#FF9E67", "icon_mask_base_uri": "https://maps.gstatic.com/mapfiles/place_api/icons/v2/bar_pinlet", "name": "Rojber Pub", "opening_hours": {"open_now": true}, "photos": [{"height": 2268, "html_attributions": ["<a href=\"https://maps.google.com/maps/contrib/117692833269260362657\">Carlos Morales</a>"], "photo_reference": "AUGGfZk5dRvDP5dAgZQliRv11p_AaCKd0CHl69pftGBZc94FOApKjNhTVmMz3C934VODAyK75LnQFPPcY-GW4DjOCev38pdMxxQQdhWxurD2-FtDjrXOTJk4HwOPWFZzBvc5vBgOGmo9HE9vXfyYHwPPfzVyxfwz9YAPliPPDZXtN7BuYpsu", "width": 4032}], "place_id": "ChIJmaNpYx9bBEcREh0cprML73A", "plus_code": {"compound_code": "CW5G+PR Pozna\u0144, Poland", "global_code": "9F4RCW5G+PR"}, "price_level": 2, "rating": 4.7, "reference": "ChIJmaNpYx9bBEcREh0cprML73A", "scope": "GOOGLE", "types": ["bar", "restaurant", "food", "point_of_interest", "establishment"], "user_ratings_total": 836, "vicinity": "Feliksa Nowowiejskiego 8/5, Pozna\u0144"}, {"business_status": "OPERATIONAL", "geometry": {"location": {"lat": 52.407436, "lng": 16.9368338}, "viewport": {"northeast": {"lat": 52.40870492989271, "lng": 16.93816432989272}, "southwest": {"lat": 52.40600527010727, "lng": 16.93546467010728}}}, "icon": "https://maps.gstatic.com/mapfiles/place_api/icons/v1/png_71/bar-71.png", "icon_background_color": "#FF9E67", "icon_mask_base_uri": "https://maps.gstatic.com/mapfiles/place_api/icons/v2/bar_pinlet", "name": "NaPiwek PUB", "opening_hours": {"open_now": true}, "photos": [{"height": 3456, "html_attributions": ["<a href=\"https://maps.google.com/maps/contrib/100164354914027035714\">Piotr Wyrwi\u0144ski</a>"], "photo_reference": "AUGGfZlRufBtA_tf-IUUqu2x-6A5IF8MOtT8hctGSYqV5lvJJIHXoCx-Gs6IL9WoeSN39ATHugk0drx7NSV3yOq3IZCRwU5CjNO22MLm0sXItj_cA3e7VMYWfevsIZoslvG0UVsI5D5mJ9P1D2dDwuYpASJWK-G-0Ye9yB6DWUyIRX4h5NMC", "width": 4608}], "place_id": "ChIJw0A5eT9bBEcRPj-d3iN1bnQ", "plus_code": {"compound_code": "CW4P+XP Pozna\u0144, Poland", "global_code": "9F4RCW4P+XP"}, "price_level": 2, "rating": 4.8, "reference": "ChIJw0A5eT9bBEcRPj-d3iN1bnQ", "scope": "GOOGLE", "types": ["bar", "restaurant", "food", "point_of_interest", "establishment"], "user_ratings_total": 1346, "vicinity": "Wodna 12, Pozna\u0144"}, {"business_status": "OPERATIONAL", "geometry": {"location": {"lat": 52.4044155, "lng": 16.9332684}, "viewport": {"northeast": {"lat": 52.40574852989272, "lng": 16.93459927989272}, "southwest": {"lat": 52.40304887010727, "lng": 16.93189962010728}}}, "icon": "https://maps.gstatic.com/mapfiles/place_api/icons/v1/png_71/bar-71.png", "icon_background_color": "#FF9E67", "icon_mask_base_uri": "https://maps.gstatic.com/mapfiles/place_api/icons/v2/bar_pinlet", "name": "Kosteczka Pub", "opening_hours": {"open_now": true}, "photos": [{"height": 3000, "html_attributions": ["<a href=\"https://maps.google.com/maps/contrib/101028959259136484342\">\u0141ukasz</a>"], "photo_reference": "AUGGfZmhJGpK9V_aQICl_A-jqicWEmMJTIO_SXzu3ir3_mbT85eGhQJmYAQK1-AFGvGt36Hr8DQzdg2IMPC8jjhdyC_4ler9-1UhbHidmorxfWrfBOzgPylAWrLUi7qm8Cx-tzsX5iEyaKwLDBxq8fG4Tdx9tKY-MCoKpo8iUYAfwVaQbZVG", "width": 4000}], "place_id": "ChIJd5TywT5bBEcRFjK0RvdtZo4", "plus_code": {"compound_code": "CW3M+Q8 Pozna\u0144, Poland", "global_code": "9F4RCW3M+Q8"}, "price_level": 1, "rating": 4.8, "reference": "ChIJd5TywT5bBEcRFjK0RvdtZo4", "scope": "GOOGLE", "types": ["bar", "restaurant", "food", "point_of_interest", "establishment"], "user_ratings_total": 585, "vicinity": "Strzelecka 13/1, Pozna\u0144"}, {"business_status": "OPERATIONAL", "geometry": {"location": {"lat": 52.4081534, "lng": 16.9180913}, "viewport": {"northeast": {"lat": 52.40951867989272, "lng": 16.91926532989272}, "southwest": {"lat": 52.40681902010728, "lng": 16.91656567010728}}}, "icon": "https://maps.gstatic.com/mapfiles/place_api/icons/v1/png_71/bar-71.png", "icon_background_color": "#FF9E67", "icon_mask_base_uri": "https://maps.gstatic.com/mapfiles/place_api/icons/v2/bar_pinlet", "name": "The Dubliner Irish Pub", "opening_hours": {"open_now": false}, "photos": [{"height": 3000, "html_attributions": ["<a href=\"https://maps.google.com/maps/contrib/113773516588584659893\">A Google User</a>"], "photo_reference": "AUGGfZnjdpsXhhS7QFQjqw92P04ssT7os33_gBD-IAemnumx-AYYeakVNED8h4o2AOo9Mrbweb9PGhcz9YMfntjOYpOeWNWrvbFvS2NJPrfKbYJ0vcJxIZ-QqnH6gSbMJR4MV1RHnPpD9QunwnHOiSg2jTvfu0kDHCBF1fDHaVcSZ1LC_UYM", "width": 4000}], "place_id": "ChIJ4cq8YzZbBEcRuesb_X13Qdw", "plus_code": {"compound_code": "CW59+76 Pozna\u0144, Poland", "global_code": "9F4RCW59+76"}, "price_level": 2, "rating": 4.4, "reference": "ChIJ4cq8YzZbBEcRuesb_X13Qdw", "scope": "GOOGLE", "types": ["bar", "restaurant", "food", "point_of_interest", "establishment"], "user_ratings_total": 930, "vicinity": "\u015awi\u0119ty Marcin 80/82, Pozna\u0144"}, {"business_status": "OPERATIONAL", "geometry": {"location": {"lat": 52.4086872, "lng": 16.9351593}, "viewport": {"northeast": {"lat": 52.41006757989273, "lng": 16.93672332989272}, "southwest": {"lat": 52.40736792010728, "lng": 16.93402367010728}}}, "icon": "https://maps.gstatic.com/mapfiles/place_api/icons/v1/png_71/bar-71.png", "icon_background_color": "#FF9E67", "icon_mask_base_uri": "https://maps.gstatic.com/mapfiles/place_api/icons/v2/bar_pinlet", "name": "Kolejka Pub", "opening_hours": {"open_now": true}, "photos": [{"height": 3024, "html_attributions": ["<a href=\"https://maps.google.com/maps/contrib/115151242780742237951\">Eric Helgeson</a>"], "photo_reference": "AUGGfZlooI7RbovMoNVPUf72c2y4GM3Hu8cpz1l0o41xTs_-QLnowGnckemPCcERvvHKYMGolO4aeiA5G501K7647SPVsPUVr29vvmhBD3WrPuCrij_sKZnGahflQNbQPROD16B6wi5XnTNpWszF5yCPydp3vJUJydkIt9znugEWXrsv3VX5", "width": 4032}], "place_id": "ChIJBwY0pUBbBEcRtr82jV1KOu8", "plus_code": {"compound_code": "CW5P+F3 Pozna\u0144, Poland", "global_code": "9F4RCW5P+F3"}, "price_level": 1, "rating": 4.6, "reference": "ChIJBwY0pUBbBEcRtr82jV1KOu8", "scope": "GOOGLE", "types": ["bar", "restaurant", "food", "point_of_interest", "establishment"], "user_ratings_total": 953, "vicinity": "Wielka 27/29, Pozna\u0144"}, {"business_status": "OPERATIONAL", "geometry": {"location": {"lat": 52.4099938, "lng": 16.9350866}, "viewport": {"northeast": {"lat": 52.41133587989272, "lng": 16.93651587989272}, "southwest": {"lat": 52.40863622010728, "lng": 16.93381622010728}}}, "icon": "https://maps.gstatic.com/mapfiles/place_api/icons/v1/png_71/bar-71.png", "icon_background_color": "#FF9E67", "icon_mask_base_uri": "https://maps.gstatic.com/mapfiles/place_api/icons/v2/bar_pinlet", "name": "Van Gogh PUB", "opening_hours": {"open_now": true}, "photos": [{"height": 3840, "html_attributions": ["<a href=\"https://maps.google.com/maps/contrib/111962523230188224733\">Tomasz Gwia\u017adzi\u0144ski</a>"], "photo_reference": "AUGGfZkYDrAP8ROp-PsN0OBipsAtsCTrXrnK3j6z31-FYqEIO0rQHD8jiI3aCDlioY-nIfLTbmagkS209myoahzvksrrlCdrevo-PuqZ8I-jv-BaXshtvmxaRL5-AidWeRTlWaNeODA--zg1V7yTGDDwAr_3ikMhy_vPuowrT92xjtt_RXfA", "width": 5760}], "place_id": "ChIJd1NUzUBbBEcRKWCmOtCIenQ", "plus_code": {"compound_code": "CW5P+X2 Pozna\u0144, Poland", "global_code": "9F4RCW5P+X2"}, "price_level": 1, "rating": 4.4, "reference": "ChIJd1NUzUBbBEcRKWCmOtCIenQ", "scope": "GOOGLE", "types": ["bar", "restaurant", "food", "point_of_interest", "establishment"], "user_ratings_total": 773, "vicinity": "\u017bydowska 12, Pozna\u0144"}, {"business_status": "OPERATIONAL", "geometry": {"location": {"lat": 52.41024609999999, "lng": 16.9342663}, "viewport": {"northeast": {"lat": 52.41160012989273, "lng": 16.93557502989272}, "southwest": {"lat": 52.40890047010728, "lng": 16.93287537010728}}}, "icon": "https://maps.gstatic.com/mapfiles/place_api/icons/v1/png_71/bar-71.png", "icon_background_color": "#FF9E67", "icon_mask_base_uri": "https://maps.gstatic.com/mapfiles/place_api/icons/v2/bar_pinlet", "name": "Ministerstwo Browaru", "opening_hours": {"open_now": true}, "photos": [{"height": 3024, "html_attributions": ["<a href=\"https://maps.google.com/maps/contrib/103170695044854817454\">Piotr Jaworski</a>"], "photo_reference": "AUGGfZlFCCloCAYzAL8SVlTNpbKW67_hEewlCvxt3PPllsz_HkFcgLlhTMtTlvHsoGta8K_YEsj0VuDMUcspMgbld8v9FSBmq-s1TrU637UDky6p6lD-ndoRGfyU7pa80_2obJGjRA65O1irSwEWNqXmqdfkWC1PLreMIHiuoYiXMegpTw8o", "width": 4032}], "place_id": "ChIJ8WEyLkdbBEcRAkuiIab-6bQ", "plus_code": {"compound_code": "CW6M+3P Pozna\u0144, Poland", "global_code": "9F4RCW6M+3P"}, "price_level": 2, "rating": 4.6, "reference": "ChIJ8WEyLkdbBEcRAkuiIab-6bQ", "scope": "GOOGLE", "types": ["bar", "restaurant", "food", "point_of_interest", "establishment"], "user_ratings_total": 1996, "vicinity": "Wroniecka 16, Pozna\u0144"}, {"business_status": "OPERATIONAL", "geometry": {"location": {"lat": 52.4075639, "lng": 16.9344113}, "viewport": {"northeast": {"lat": 52.40880877989272, "lng": 16.9366433}, "southwest": {"lat": 52.40610912010727, "lng": 16.9336565}}}, "icon": "https://maps.gstatic.com/mapfiles/place_api/icons/v1/png_71/restaurant-71.png", "icon_background_color": "#FF9E67", "icon_mask_base_uri": "https://maps.gstatic.com/mapfiles/place_api/icons/v2/restaurant_pinlet", "name": "Columbus Pub & Restaurant", "opening_hours": {"open_now": true}, "photos": [{"height": 2268, "html_attributions": ["<a href=\"https://maps.google.com/maps/contrib/104230210336236881114\">Adam Ilona Skowronek</a>"], "photo_reference": "AUGGfZlalt64aQZXHVZ-enesEKtmm5pLUzRfjeqAK1_NY2eEGacR8hPdj47orc8zRbaeua84cE0vp7KSljyiIEjcmsVtB2W0_IoC4Bo5R33FWSsyMmbQTf_wWpeO2M85PaZICvN8xW2NUYoCVVcGXrvOpww28HoaikwnbceX1hvoin8kaAp0", "width": 4032}], "place_id": "ChIJ46B2_YpbBEcRv9M5SK2PFV0", "plus_code": {"compound_code": "CW5M+2Q Pozna\u0144, Poland", "global_code": "9F4RCW5M+2Q"}, "rating": 3.3, "reference": "ChIJ46B2_YpbBEcRv9M5SK2PFV0", "scope": "GOOGLE", "types": ["restaurant", "food", "point_of_interest", "establishment"], "user_ratings_total": 378, "vicinity": "Stary Rynek 51, Pozna\u0144"}, {"business_status": "OPERATIONAL", "geometry": {"location": {"lat": 52.4078598, "lng": 16.9318083}, "viewport": {"northeast": {"lat": 52.40917927989273, "lng": 16.93319262989272}, "southwest": {"lat": 52.40647962010728, "lng": 16.93049297010728}}}, "icon": "https://maps.gstatic.com/mapfiles/place_api/icons/v1/png_71/bar-71.png", "icon_background_color": "#FF9E67", "icon_mask_base_uri": "https://maps.gstatic.com/mapfiles/place_api/icons/v2/bar_pinlet", "name": "Pod Filarem", "opening_hours": {"open_now": true}, "photos": [{"height": 1153, "html_attributions": ["<a href=\"https://maps.google.com/maps/contrib/109702007178360970000\">A Google User</a>"], "photo_reference": "AUGGfZkGJ3Yu4LEFnff3Uo-grRlSE-loeEluySSmgTfy_Ud5sOyBcVTZ0vLWab3RN6_2sl265K1j91ITHwgyrPwnK2iYtQWpquw3b_sSuo_cVgvxK2Z1Ostn4tFA-_OLSpWTaBraQGQaEqGYHqlz6DIQeSHovMbadgteeAagN5bYVLBkb-c-", "width": 2048}], "place_id": "ChIJ4RebozhbBEcRKPiOuFs9488", "plus_code": {"compound_code": "CW5J+4P Pozna\u0144, Poland", "global_code": "9F4RCW5J+4P"}, "price_level": 2, "rating": 4.4, "reference": "ChIJ4RebozhbBEcRKPiOuFs9488", "scope": "GOOGLE", "types": ["bar", "restaurant", "food", "point_of_interest", "establishment"], "user_ratings_total": 910, "vicinity": "Ignacego Paderewskiego 11, Pozna\u0144"}, {"business_status": "OPERATIONAL", "geometry": {"location": {"lat": 52.4101958, "lng": 16.9102524}, "viewport": {"northeast": {"lat": 52.41149982989272, "lng": 16.91157752989272}, "southwest": {"lat": 52.40880017010728, "lng": 16.90887787010728}}}, "icon": "https://maps.gstatic.com/mapfiles/place_api/icons/v1/png_71/bar-71.png", "icon_background_color": "#FF9E67", "icon_mask_base_uri": "https://maps.gstatic.com/mapfiles/place_api/icons/v2/bar_pinlet", "name": "Je\u017cyc\u00f3wka", "opening_hours": {"open_now": true}, "photos": [{"height": 4032, "html_attributions": ["<a href=\"https://maps.google.com/maps/contrib/111494762288721888024\">Liliia Drahomaretska</a>"], "photo_reference": "AUGGfZm621VJqAIi1Ua-2yDtqOvO5BLwue86xMUcYBQZiFNpnI-K4tA0caxynnwiA6RNg1Sbe6r3XjYtoCAFBKMdF4MhAhS-y8qrY0gXBAZcOXwkkeNqxYcIyHW-y3Qkj4Lm1AALldRjNFWwROmmnXvMawouDQYDjMRmdFviNeUGlxZbxG6F", "width": 3024}], "place_id": "ChIJQanyyspEBEcRSfbXUCaxYGQ", "plus_code": {"compound_code": "CW66+34 Pozna\u0144, Poland", "global_code": "9F4RCW66+34"}, "price_level": 2, "rating": 4.6, "reference": "ChIJQanyyspEBEcRSfbXUCaxYGQ", "scope": "GOOGLE", "types": ["bar", "restaurant", "food", "point_of_interest", "establishment"], "user_ratings_total": 698, "vicinity": "S\u0142owackiego 16, Pozna\u0144"}, {"business_status": "OPERATIONAL", "geometry": {"location": {"lat": 52.4038438, "lng": 16.9176267}, "viewport": {"northeast": {"lat": 52.40511882989272, "lng": 16.91904187989272}, "southwest": {"lat": 52.40241917010727, "lng": 16.91634222010728}}}, "icon": "https://maps.gstatic.com/mapfiles/place_api/icons/v1/png_71/bar-71.png", "icon_background_color": "#FF9E67", "icon_mask_base_uri": "https://maps.gstatic.com/mapfiles/place_api/icons/v2/bar_pinlet", "name": "Fort Colomb", "opening_hours": {"open_now": true}, "photos": [{"height": 3648, "html_attributions": ["<a href=\"https://maps.google.com/maps/contrib/115232250027112836599\">Jerzy Gregorowicz</a>"], "photo_reference": "AUGGfZlyEMfAM7lzCTfWut1j4s-LTDU11YIyG3nIzlOr4akbYi0Sculj_QBjHoPgmcc2O_Jc_MPQegpRTC8tEM1rCXYonQBCrPMc2qw0IWMW1-qu4GAPo0u0VVQ6yeyJM-97-0_cYUv4mx5Ia9VB93mLpWqF9zaVZSS0vgyL9lM8uQ8ZLUaE", "width": 2736}], "place_id": "ChIJx0PgFzFbBEcRIaRS7OdVjE0", "plus_code": {"compound_code": "CW39+G3 Pozna\u0144, Poland", "global_code": "9F4RCW39+G3"}, "price_level": 1, "rating": 4.5, "reference": "ChIJx0PgFzFbBEcRIaRS7OdVjE0", "scope": "GOOGLE", "types": ["bar", "restaurant", "food", "point_of_interest", "establishment"], "user_ratings_total": 781, "vicinity": "Pozna\u0144, ul. Powsta\u0144c\u00f3w Wlkp, Pozna\u0144"}, {"business_status": "OPERATIONAL", "geometry": {"location": {"lat": 52.406991, "lng": 16.9333829}, "viewport": {"northeast": {"lat": 52.40849627989272, "lng": 16.93414942989272}, "southwest": {"lat": 52.40579662010727, "lng": 16.93144977010728}}}, "icon": "https://maps.gstatic.com/mapfiles/place_api/icons/v1/png_71/bar-71.png", "icon_background_color": "#FF9E67", "icon_mask_base_uri": "https://maps.gstatic.com/mapfiles/place_api/icons/v2/bar_pinlet", "name": "# hashtag", "opening_hours": {"open_now": true}, "photos": [{"height": 667, "html_attributions": ["<a href=\"https://maps.google.com/maps/contrib/116518578554845470874\">Jaga Kraupe</a>"], "photo_reference": "AUGGfZkzqRzomXTf9hGvlRJmHtusuVKtv6x3LwEtvlWKOPBFqVaPauWr43aPtkWmCAp2xKoE_IMA6nygEYtRGzjdqlYynfzBXMWwB6GxmRF5UabOGPLj0at50BU1X-aqG4EWOEjgYzRvP623wJGCUh2sbe_J0dHJHtN9Xdpy4yhpY5TGvVCn", "width": 1000}], "place_id": "ChIJX178oYJbBEcRG81_yKPub0g", "plus_code": {"compound_code": "CW4M+Q9 Pozna\u0144, Poland", "global_code": "9F4RCW4M+Q9"}, "rating": 4, "reference": "ChIJX178oYJbBEcRG81_yKPub0g", "scope": "GOOGLE", "types": ["bar", "restaurant", "food", "point_of_interest", "establishment"], "user_ratings_total": 1950, "vicinity": "Wroc\u0142awska 7, Pozna\u0144"}, {"business_status": "OPERATIONAL", "geometry": {"location": {"lat": 52.4069444, "lng": 16.9333334}, "viewport": {"northeast": {"lat": 52.40847297989272, "lng": 16.93412467989272}, "southwest": {"lat": 52.40577332010728, "lng": 16.93142502010728}}}, "icon": "https://maps.gstatic.com/mapfiles/place_api/icons/v1/png_71/bar-71.png", "icon_background_color": "#FF9E67", "icon_mask_base_uri": "https://maps.gstatic.com/mapfiles/place_api/icons/v2/bar_pinlet", "name": "Proletaryat", "opening_hours": {"open_now": true}, "photos": [{"height": 3024, "html_attributions": ["<a href=\"https://maps.google.com/maps/contrib/111967162511678685292\">Jarek Radim\u011b\u0159sk\u00fd</a>"], "photo_reference": "AUGGfZlDw_s1eKuDOQzybulGu7RU-Yh99n9k5LMteDPHY8-eo6mKjt-2kZFqdvUM7BwZsIuM887z4JwwNsNwEFbDaylSKa6yzJql4ZDgDn9mUxAvz_KmjMSr3Kx-foATfN6yexgjXhGwQwp9_oLOk4HIrk0e4y0xcDl5fCmloXyqCEu5HpCY", "width": 4032}], "place_id": "ChIJ-cuHNT9bBEcRd2sXeI9JOcg", "plus_code": {"compound_code": "CW4M+Q8 Pozna\u0144, Poland", "global_code": "9F4RCW4M+Q8"}, "price_level": 1, "rating": 4.4, "reference": "ChIJ-cuHNT9bBEcRd2sXeI9JOcg", "scope": "GOOGLE", "types": ["bar", "restaurant", "food", "point_of_interest", "establishment"], "user_ratings_total": 1635, "vicinity": "Wroc\u0142awska 9, Pozna\u0144"}, {"business_status": "OPERATIONAL", "geometry": {"location": {"lat": 52.4016908, "lng": 16.9246868}, "viewport": {"northeast": {"lat": 52.40301617989272, "lng": 16.92608092989272}, "southwest": {"lat": 52.40031652010727, "lng": 16.92338127010728}}}, "icon": "https://maps.gstatic.com/mapfiles/place_api/icons/v1/png_71/bar-71.png", "icon_background_color": "#FF9E67", "icon_mask_base_uri": "https://maps.gstatic.com/mapfiles/place_api/icons/v2/bar_pinlet", "name": "Sport Club Pozna\u0144", "opening_hours": {"open_now": true}, "photos": [{"height": 1908, "html_attributions": ["<a href=\"https://maps.google.com/maps/contrib/108958389903501757118\">Simon M</a>"], "photo_reference": "AUGGfZkVjWgjSxQaedqjmGBsrt6-NwbBScJtA3FnFr0biQk7a3QsFnpIB7yPOV_GpE-iWYkRQcbeGHefZAi86RIhTPLvTngwvdnMpDPZ42fBuK5jTnsORLGzhEExfYn19vCWrlfhrOsY3pZ_5MkMO6lIxA0nLSECmzy0Dy_SdSzrEdJqVUYq", "width": 4032}], "place_id": "ChIJAQBAWTpbBEcRrFgVhK2vJSQ", "plus_code": {"compound_code": "CW2F+MV Pozna\u0144, Poland", "global_code": "9F4RCW2F+MV"}, "rating": 4.4, "reference": "ChIJAQBAWTpbBEcRrFgVhK2vJSQ", "scope": "GOOGLE", "types": ["bar", "restaurant", "food", "point_of_interest", "establishment"], "user_ratings_total": 17, "vicinity": "pl. W\u0142adys\u0142awa Andersa 1, Pozna\u0144"}]