[{"business_status": "OPERATIONAL", "geometry": {"location": {"lat": 53.14406040000001, "lng": -6.061807099999999}, "viewport": {"northeast": {"lat": 53.14546232989273, "lng": -6.060393370107278}, "southwest": {"lat": 53.14276267010729, "lng": -6.063093029892721}}}, "icon": "https://maps.gstatic.com/mapfiles/place_api/icons/v1/png_71/bar-71.png", "icon_background_color": "#FF9E67", "icon_mask_base_uri": "https://maps.gstatic.com/mapfiles/place_api/icons/v2/bar_pinlet", "name": "The Burnaby Pub & Restaurant", "opening_hours": {"open_now": false}, "photos": [{"height": 2988, "html_attributions": ["<a href=\"https://maps.google.com/maps/contrib/108802527083672121302\">Janusz Barczak</a>"], "photo_reference": "AUc7tXVPfSFHwaOFeVDfbJMQjbDC4c1FhAUGDaQ0Dc2pI8wkf9_6JwXILi9RAdwz_PCIM4q6BybjwlC8m2KauP_fB8ToYDxVgj1glbaiiooJDU5IVrWFydq_UOANlAKNzxAGPrQxOuyO6fMCrhSvA2kLeWm-72o_bSj0xa-xYuw_-qfvFWeT", "width": 5312}], "place_id": "ChIJlYCLTSmvZ0gR2GJ0wLcaqak", "plus_code": {"compound_code": "4WVQ+J7 Greystones, County Wicklow, Ireland", "global_code": "9C5M4WVQ+J7"}, "price_level": 2, "rating": 4.2, "reference": "ChIJlYCLTSmvZ0gR2GJ0wLcaqak", "scope": "GOOGLE", "types": ["bar", "restaurant", "food", "point_of_interest", "establishment"], "user_ratings_total": 1077, "vicinity": "R762, Rathdown Lower, Greystones"}, {"business_status": "OPERATIONAL", "geometry": {"location": {"lat": 53.13300169999999, "lng": -6.0920879}, "viewport": {"northeast": {"lat": 53.13428792989271, "lng": -6.090679570107278}, "southwest": {"lat": 53.13158827010727, "lng": -6.093379229892721}}}, "icon": "https://maps.gstatic.com/mapfiles/place_api/icons/v1/png_71/bar-71.png", "icon_background_color": "#FF9E67", "icon_mask_base_uri": "https://maps.gstatic.com/mapfiles/place_api/icons/v2/bar_pinlet", "name": "The Wicklow Arms", "opening_hours": {"open_now": false}, "photos": [{"height": 1728, "html_attributions": ["<a href=\"https://maps.google.com/maps/contrib/108186800985419274982\">A Google User</a>"], "photo_reference": "AUc7tXX0VEkqZeeD4fAtSVRN8sQNNbTTFzUvIfIFAIwQXEysZ62N90wQ7MOIuPQFyjBBgIeCa25Nv17iPs3Ds6a-rT-RS-mqruFm0YT6ySE_W1r06HL1Si_UGa8SXrz3Bu6ITXfnhlDkwexIZgFj1W8pGSR1EKrhVodBEKqC3gpFXqtdbDok", "width": 2592}], "place_id": "ChIJj-8nd2CvZ0gROv1FPsuwIF4", "plus_code": {"compound_code": "4WM5+65 Delgany, County Wicklow, Ireland", "global_code": "9C5M4WM5+65"}, "price_level": 2, "rating": 4.6, "reference": "ChIJj-8nd2CvZ0gROv1FPsuwIF4", "scope": "GOOGLE", "types": ["bar", "night_club", "restaurant", "food", "point_of_interest", "establishment"], "user_ratings_total": 255, "vicinity": "Wicklow Arms Complex, Delgany"}, {"business_status": "OPERATIONAL", "geometry": {"location": {"lat": 53.1339249, "lng": -6.0906221}, "viewport": {"northeast": {"lat": 53.13533937989271, "lng": -6.089080020107278}, "southwest": {"lat": 53.13263972010727, "lng": -6.091779679892722}}}, "icon": "https://maps.gstatic.com/mapfiles/place_api/icons/v1/png_71/bar-71.png", "icon_background_color": "#FF9E67", "icon_mask_base_uri": "https://maps.gstatic.com/mapfiles/place_api/icons/v2/bar_pinlet", "name": "The Horse and Hound, Delgany / Bellevue Restaurant", "opening_hours": {"open_now": false}, "photos": [{"height": 2902, "html_attributions": ["<a href=\"https://maps.google.com/maps/contrib/101909722443901808257\">The Horse and Hound, Delgany</a>"], "photo_reference": "AUc7tXXTh5DOdlhrzggML3lXawptY7hd5ewJw-YWMA9urXD4PNFzJdS7UadAMpc6AGsG0R-uHDpzKLHh0jJY5UBGbP5LSHfCwLYJgRgTc0h7ooIzBW_oDAKUxlYscG7Yj2OHM4tRAEb_QydHbIQ-dup1q76Xi-7G6EQV2ntTVJxb9ez7KRp9", "width": 5415}], "place_id": "ChIJedUCYESvZ0gRytclBp-mnR0", "plus_code": {"compound_code": "4WM5+HQ Convent Road, Greystones, County Wicklow, Ireland", "global_code": "9C5M4WM5+HQ"}, "rating": 4.4, "reference": "ChIJedUCYESvZ0gRytclBp-mnR0", "scope": "GOOGLE", "types": ["bar", "lodging", "restaurant", "food", "point_of_interest", "establishment"], "user_ratings_total": 592, "vicinity": "Convent Road"}, {"business_status": "OPERATIONAL", "geometry": {"location": {"lat": 53.14457900000001, "lng": -6.062967}, "viewport": {"northeast": {"lat": 53.14598127989272, "lng": -6.061554170107278}, "southwest": {"lat": 53.14328162010728, "lng": -6.064253829892722}}}, "icon": "https://maps.gstatic.com/mapfiles/place_api/icons/v1/png_71/restaurant-71.png", "icon_background_color": "#FF9E67", "icon_mask_base_uri": "https://maps.gstatic.com/mapfiles/place_api/icons/v2/restaurant_pinlet", "name": "The Hungry Monk", "opening_hours": {"open_now": false}, "photos": [{"height": 2268, "html_attributions": ["<a href=\"https://maps.google.com/maps/contrib/117278217363947579316\">Yury Kulakov</a>"], "photo_reference": "AUc7tXVhSlGiqxq4f9rPfPFhDvJ4YL1O8e4ycgiz8D8fCk1RltG6jEJVlavo-BuxAgCmZaqQ2ScPYPEjxIdUXL7my9Qs4Bc-m1QaCWGJaHCov_9hzSbP8ZVP-zBPL0l_c80nij7KL4K34W8wB1ePINVfRTLnUR65ei2SHCM9Lqv9P0_pCeyk", "width": 4032}], "place_id": "ChIJi9r-4javZ0gRpFIj_8TIcaU", "plus_code": {"compound_code": "4WVP+RR Greystones, County Wicklow, Ireland", "global_code": "9C5M4WVP+RR"}, "price_level": 2, "rating": 4.5, "reference": "ChIJi9r-4javZ0gRpFIj_8TIcaU", "scope": "GOOGLE", "types": ["restaurant", "food", "point_of_interest", "establishment"], "user_ratings_total": 675, "vicinity": "1 Church Rd, Rathdown Lower, Greystones"}, {"business_status": "OPERATIONAL", "geometry": {"location": {"lat": 53.1330288, "lng": -6.0937442}, "viewport": {"northeast": {"lat": 53.13439407989272, "lng": -6.092396970107279}, "southwest": {"lat": 53.13169442010727, "lng": -6.095096629892723}}}, "icon": "https://maps.gstatic.com/mapfiles/place_api/icons/v1/png_71/restaurant-71.png", "icon_background_color": "#FF9E67", "icon_mask_base_uri": "https://maps.gstatic.com/mapfiles/place_api/icons/v2/restaurant_pinlet", "name": "Pigeon House Delgany", "opening_hours": {"open_now": true}, "photos": [{"height": 3000, "html_attributions": ["<a href=\"https://maps.google.com/maps/contrib/110253565216402848333\">Bernard Dunne</a>"], "photo_reference": "AUc7tXXiH-8jM9b-HD-e_uyXERX-AiIxyON0O0KwPKwXgC8YB9893bMrLBOcswjqe7cAtX3W4QYmoHpWxEghvqZWQDGr0qerNU1NA-eR84ya_CkHjcMTh6nlaL_IVO0OS-qa8aOobDspaJD5CHXlgpbx7FihR-v-ydqGTRdXAAan1NIR4eMt", "width": 4000}], "place_id": "ChIJPx1ankSvZ0gRYEURBfrebb8", "plus_code": {"compound_code": "4WM4+6G Delgany, County Wicklow, Ireland", "global_code": "9C5M4WM4+6G"}, "price_level": 2, "rating": 4.4, "reference": "ChIJPx1ankSvZ0gRYEURBfrebb8", "scope": "GOOGLE", "types": ["restaurant", "cafe", "food", "store", "point_of_interest", "establishment"], "user_ratings_total": 788, "vicinity": "Delgany"}]