[{"business_status": "OPERATIONAL", "geometry": {"location": {"lat": 49.0085841, "lng": 8.4129212}, "viewport": {"northeast": {"lat": 49.00991702989272, "lng": 8.414287029892721}, "southwest": {"lat": 49.00721737010728, "lng": 8.411587370107277}}}, "icon": "https://maps.gstatic.com/mapfiles/place_api/icons/v1/png_71/restaurant-71.png", "icon_background_color": "#FF9E67", "icon_mask_base_uri": "https://maps.gstatic.com/mapfiles/place_api/icons/v2/restaurant_pinlet", "name": "Oxford Pub - Bier & Burger", "opening_hours": {"open_now": true}, "photos": [{"height": 2000, "html_attributions": ["<a href=\"https://maps.google.com/maps/contrib/108959916793273330917\">A Google User</a>"], "photo_reference": "AUGGfZmG-8Q3_esXoUYTI7dPLbdvZv4pswfKc3WvZluUPV1pBmomzqPLSYG8SjZugEogIgLLXVpgVzccZhyvbpjlaz0L0006QPysXvELZV75cZMV4bSKS8XEfqGM0LN7FGCJfniOIDRg2GYZo5IU03cYh01Q8oX2PMt-lTfCGUwOuAoYzJF1", "width": 2929}], "place_id": "ChIJXRBylDcGl0cRHbvo6_mtOoI", "plus_code": {"compound_code": "2C57+C5 Karlsruhe, Germany", "global_code": "8FXC2C57+C5"}, "price_level": 1, "rating": 4.6, "reference": "ChIJXRBylDcGl0cRHbvo6_mtOoI", "scope": "GOOGLE", "types": ["bar", "restaurant", "food", "point_of_interest", "establishment"], "user_ratings_total": 3387, "vicinity": "Fasanenstra\u00dfe 6, Karlsruhe"}, {"business_status": "OPERATIONAL", "geometry": {"location": {"lat": 49.00149159999999, "lng": 8.405232999999999}, "viewport": {"northeast": {"lat": 49.00280082989272, "lng": 8.406610929892722}, "southwest": {"lat": 49.00010117010728, "lng": 8.403911270107278}}}, "icon": "https://maps.gstatic.com/mapfiles/place_api/icons/v1/png_71/bar-71.png", "icon_background_color": "#FF9E67", "icon_mask_base_uri": "https://maps.gstatic.com/mapfiles/place_api/icons/v2/bar_pinlet", "name": "W21 - Karlsruhe", "opening_hours": {"open_now": true}, "photos": [{"height": 3120, "html_attributions": ["<a href=\"https://maps.google.com/maps/contrib/113930852210203261073\">Ulrich Nennemann</a>"], "photo_reference": "AUGGfZmSRhC_tt6SUubO3sQJvUtVAqBEPoN80KpSt7NPi7WOVPX4b2kU-tpmrdG0OyXWJk2r4NW3A95RaU_k4HePqpw47z2KwGQGTjrBiLjOXAYG0UIBA004NooKcGM6dCV51hE1P8TLzyQrm4yVp0UwlOghZFurevRO-zGMirGUCVvJOXLJ", "width": 4160}], "place_id": "ChIJe9Yr40AGl0cREsGRCrng9-4", "plus_code": {"compound_code": "2C24+H3 Karlsruhe, Germany", "global_code": "8FXC2C24+H3"}, "rating": 4, "reference": "ChIJe9Yr40AGl0cREsGRCrng9-4", "scope": "GOOGLE", "types": ["bar", "point_of_interest", "establishment"], "user_ratings_total": 50, "vicinity": "Werderstra\u00dfe 21, Karlsruhe"}, {"business_status": "OPERATIONAL", "geometry": {"location": {"lat": 49.00763440000001, "lng": 8.4145013}, "viewport": {"northeast": {"lat": 49.00893172989272, "lng": 8.415893279892721}, "southwest": {"lat": 49.00623207010728, "lng": 8.413193620107277}}}, "icon": "https://maps.gstatic.com/mapfiles/place_api/icons/v1/png_71/bar-71.png", "icon_background_color": "#FF9E67", "icon_mask_base_uri": "https://maps.gstatic.com/mapfiles/place_api/icons/v2/bar_pinlet", "name": "Old Chapel Pub", "opening_hours": {"open_now": false}, "photos": [{"height": 2252, "html_attributions": ["<a href=\"https://maps.google.com/maps/contrib/108236976219527361516\">muhannad musa</a>"], "photo_reference": "AUGGfZn7kLMFpa4Vw1ZOgLQBUI4vVbxaEOkouD8O82tM3HVl1bHq5MRGJqpuCKHiEiV225hRKzgv0qFN355fdKJVEYXHr68GkdfGOLUASfMTBu6aRxqThkmqBSYadG4QBTkDo2CXIQxdnT1zvFvDjPJFIF_gRKMCirvA0BVvSZC77RTp-qLF", "width": 4000}], "place_id": "ChIJ-Tgh3zkGl0cRZUwa0Cy4msM", "plus_code": {"compound_code": "2C57+3R Karlsruhe, Germany", "global_code": "8FXC2C57+3R"}, "price_level": 2, "rating": 4.6, "reference": "ChIJ-Tgh3zkGl0cRZUwa0Cy4msM", "scope": "GOOGLE", "types": ["bar", "point_of_interest", "establishment"], "user_ratings_total": 419, "vicinity": "Kapellenstra\u00dfe 40, Karlsruhe"}, {"business_status": "OPERATIONAL", "geometry": {"location": {"lat": 49.011631, "lng": 8.3949936}, "viewport": {"northeast": {"lat": 49.01299217989272, "lng": 8.39651157989272}, "southwest": {"lat": 49.01029252010728, "lng": 8.393811920107277}}}, "icon": "https://maps.gstatic.com/mapfiles/place_api/icons/v1/png_71/bar-71.png", "icon_background_color": "#FF9E67", "icon_mask_base_uri": "https://maps.gstatic.com/mapfiles/place_api/icons/v2/bar_pinlet", "name": "Scruffy's Irish Pub", "opening_hours": {"open_now": false}, "photos": [{"height": 3096, "html_attributions": ["<a href=\"https://maps.google.com/maps/contrib/102028825197651346114\">A Google User</a>"], "photo_reference": "AUGGfZkNMOzpIc5DywVxKPA_XMdz1_b7AUWv2QfjFGaIihuvt4334WMsvgkC-927pFBn62CLEdtebH5kktxtGdxmVYTpYziH4BQYKxFbwPH1S1M2R1Uo51Y48I11rjtm1lWpoQprN22GPAiV1zEakiJYXEvkIJtb5RZe14nQTQegqmU1e3c6", "width": 4128}], "place_id": "ChIJp1te_lAGl0cRsUKVMqbJiZc", "plus_code": {"compound_code": "296W+M2 Karlsruhe, Germany", "global_code": "8FXC296W+M2"}, "price_level": 2, "rating": 4.5, "reference": "ChIJp1te_lAGl0cRsUKVMqbJiZc", "scope": "GOOGLE", "types": ["bar", "restaurant", "food", "point_of_interest", "establishment"], "user_ratings_total": 1378, "vicinity": "Karlstra\u00dfe 4, Karlsruhe"}, {"business_status": "OPERATIONAL", "geometry": {"location": {"lat": 49.0040247, "lng": 8.4076519}, "viewport": {"northeast": {"lat": 49.00543802989272, "lng": 8.408983779892722}, "southwest": {"lat": 49.00273837010728, "lng": 8.406284120107278}}}, "icon": "https://maps.gstatic.com/mapfiles/place_api/icons/v1/png_71/bar-71.png", "icon_background_color": "#FF9E67", "icon_mask_base_uri": "https://maps.gstatic.com/mapfiles/place_api/icons/v2/bar_pinlet", "name": "Schorle's Pfalz - Karlsruhe", "opening_hours": {"open_now": true}, "photos": [{"height": 1440, "html_attributions": ["<a href=\"https://maps.google.com/maps/contrib/113055987916515666480\">Claus Lapp</a>"], "photo_reference": "AUGGfZlm2Kn_abVFcHhd_pQJFzNUCY2jSWkOP8vjsGMc9cmqb_2tblDR1IYBFdhU-bNFTOqmIMukodUOm0xyms0qLs8bJ8YYwsfGYFIWChtXFCZZhjeBSDv6zjKzDgtWs8yoDuxIlt5zFTK9MtoKrtFK3YultUkre_72Wr1oseLQ61YmxbDs", "width": 2560}], "place_id": "ChIJZ9rvRkcGl0cRUbEfc7ZrQ5Q", "plus_code": {"compound_code": "2C35+J3 Karlsruhe, Germany", "global_code": "8FXC2C35+J3"}, "price_level": 1, "rating": 3.6, "reference": "ChIJZ9rvRkcGl0cRUbEfc7ZrQ5Q", "scope": "GOOGLE", "types": ["bar", "point_of_interest", "establishment"], "user_ratings_total": 50, "vicinity": "Baumeisterstra\u00dfe 34, Karlsruhe"}, {"business_status": "OPERATIONAL", "geometry": {"location": {"lat": 49.0102124, "lng": 8.4208097}, "viewport": {"northeast": {"lat": 49.01154627989272, "lng": 8.422030229892721}, "southwest": {"lat": 49.00884662010728, "lng": 8.419330570107277}}}, "icon": "https://maps.gstatic.com/mapfiles/place_api/icons/v1/png_71/bar-71.png", "icon_background_color": "#FF9E67", "icon_mask_base_uri": "https://maps.gstatic.com/mapfiles/place_api/icons/v2/bar_pinlet", "name": "Henderson's Irish Pub", "opening_hours": {"open_now": false}, "photos": [{"height": 3566, "html_attributions": ["<a href=\"https://maps.google.com/maps/contrib/105937399653797793732\">Carroll&#39;s Irish Pub</a>"], "photo_reference": "AUGGfZnx1vvAqMS93nIT9yhSvWF3Z2dwvpE9QHxc_YAvEf8UhRpXfkUuIBmOx3zKSewY6eFzqPQzgz00K58qNHRZdd0wvSGm09IVpbRLR-Tw3j_H1o3fO0ztGUywRJqYfhFrMU_deMj1cV1lEFVXmO6EbqroEjq0suHubYQmUA_1OXZeJ3M", "width": 5350}], "place_id": "ChIJX5O8rjEGl0cRiJ8XqvxGquw", "plus_code": {"compound_code": "2C6C+38 Karlsruhe, Germany", "global_code": "8FXC2C6C+38"}, "price_level": 2, "rating": 4.6, "reference": "ChIJX5O8rjEGl0cRiJ8XqvxGquw", "scope": "GOOGLE", "types": ["bar", "restaurant", "food", "point_of_interest", "establishment"], "user_ratings_total": 659, "vicinity": "Karl-Wilhelm-Stra\u00dfe 10, Karlsruhe"}, {"business_status": "OPERATIONAL", "geometry": {"location": {"lat": 49.0101372, "lng": 8.406473300000002}, "viewport": {"northeast": {"lat": 49.01149512989272, "lng": 8.40784412989272}, "southwest": {"lat": 49.00879547010728, "lng": 8.405144470107276}}}, "icon": "https://maps.gstatic.com/mapfiles/place_api/icons/v1/png_71/bar-71.png", "icon_background_color": "#FF9E67", "icon_mask_base_uri": "https://maps.gstatic.com/mapfiles/place_api/icons/v2/bar_pinlet", "name": "Pap - Karlsruhe", "opening_hours": {"open_now": true}, "photos": [{"height": 4032, "html_attributions": ["<a href=\"https://maps.google.com/maps/contrib/100920530845342346877\">Souria titi</a>"], "photo_reference": "AUGGfZmHfWrsDIq5qDB97fa5Poe2RKsI9X00ugbHNsfIpmWUocyeTHfBZs-vHbL-dgTv08xLU6cB3HJ0X3mOxowrQzO-W5mY1lxzvI2PURDQv097fKYd2UE3AiiR2FM74ANw2Epaa6dPniO9h7OGYFgR9ItJe3rgJme9KlVoIwiPcupdgtVD", "width": 3024}], "place_id": "ChIJPXmSsyEHl0cR6HaOK5CNqMQ", "plus_code": {"compound_code": "2C64+3J Karlsruhe, Germany", "global_code": "8FXC2C64+3J"}, "rating": 4, "reference": "ChIJPXmSsyEHl0cR6HaOK5CNqMQ", "scope": "GOOGLE", "types": ["bar", "point_of_interest", "establishment"], "user_ratings_total": 50, "vicinity": "Adlerstra\u00dfe 3, Karlsruhe"}, {"business_status": "OPERATIONAL", "geometry": {"location": {"lat": 48.99483799999999, "lng": 8.3932865}, "viewport": {"northeast": {"lat": 48.99614127989272, "lng": 8.39464007989272}, "southwest": {"lat": 48.99344162010728, "lng": 8.391940420107277}}}, "icon": "https://maps.gstatic.com/mapfiles/place_api/icons/v1/png_71/bar-71.png", "icon_background_color": "#FF9E67", "icon_mask_base_uri": "https://maps.gstatic.com/mapfiles/place_api/icons/v2/bar_pinlet", "name": "S\u00fcdwest-Treff", "opening_hours": {"open_now": true}, "photos": [{"height": 1200, "html_attributions": ["<a href=\"https://maps.google.com/maps/contrib/106757035635216854943\">A Google User</a>"], "photo_reference": "AUGGfZlkb8fUQdhZHcf-4FnhKQjZYoRno8LOCXiDJ-wXkbY1VIB5pcZrOfjC3et9DWhfiik8eoQfB9-Xh2r93F_stgZJrTRK-Mw9RWeIzF7aCQXm-5P0OZoUv-E_lV3CeQTnA4PpoTwbLWk7uB4l5TVPaphepGXjvkzUq7Qs8vpfnWEbl6C2", "width": 1600}], "place_id": "ChIJ94biHGYGl0cRZQ6lTEk4Rsg", "plus_code": {"compound_code": "X9VV+W8 Karlsruhe, Germany", "global_code": "8FWCX9VV+W8"}, "price_level": 1, "rating": 4.1, "reference": "ChIJ94biHGYGl0cRZQ6lTEk4Rsg", "scope": "GOOGLE", "types": ["bar", "point_of_interest", "establishment"], "user_ratings_total": 55, "vicinity": "Ebertstra\u00dfe 18A, Karlsruhe"}, {"business_status": "OPERATIONAL", "geometry": {"location": {"lat": 49.0047158, "lng": 8.3909485}, "viewport": {"northeast": {"lat": 49.00600107989272, "lng": 8.392351529892723}, "southwest": {"lat": 49.00330142010728, "lng": 8.38965187010728}}}, "icon": "https://maps.gstatic.com/mapfiles/place_api/icons/v1/png_71/bar-71.png", "icon_background_color": "#FF9E67", "icon_mask_base_uri": "https://maps.gstatic.com/mapfiles/place_api/icons/v2/bar_pinlet", "name": "Linden\u2019s Irish Pub", "opening_hours": {"open_now": false}, "photos": [{"height": 4032, "html_attributions": ["<a href=\"https://maps.google.com/maps/contrib/115175632954574998952\">Sebastian Jenett</a>"], "photo_reference": "AUGGfZkXgOVOVAKbm11p_dlcOj9FCvnuJzgNbA-LkaVp1WsDSqGqGpKehczkzsImK-s87CKgVYIE90iDh5qOHk3SByHl63YhBpoRFwWBs1tRmptPM3xrpe0qIdNQuyn7ZU6JqZTRJVKtdQtuIF_e6UHhguw44GrIbYCjrmJo5NDhMCkn_yuF", "width": 3024}], "place_id": "ChIJHRA091sGl0cRxPB5jdpE6SI", "plus_code": {"compound_code": "293R+V9 Karlsruhe, Germany", "global_code": "8FXC293R+V9"}, "price_level": 2, "rating": 4.5, "reference": "ChIJHRA091sGl0cRxPB5jdpE6SI", "scope": "GOOGLE", "types": ["bar", "restaurant", "food", "point_of_interest", "establishment"], "user_ratings_total": 492, "vicinity": "Hirschstra\u00dfe 70, Karlsruhe"}, {"business_status": "OPERATIONAL", "geometry": {"location": {"lat": 49.0009254, "lng": 8.4104489}, "viewport": {"northeast": {"lat": 49.00229802989273, "lng": 8.411875329892725}, "southwest": {"lat": 48.99959837010728, "lng": 8.409175670107281}}}, "icon": "https://maps.gstatic.com/mapfiles/place_api/icons/v1/png_71/bar-71.png", "icon_background_color": "#FF9E67", "icon_mask_base_uri": "https://maps.gstatic.com/mapfiles/place_api/icons/v2/bar_pinlet", "name": "Pils Karussell - Karlsruhe", "opening_hours": {"open_now": true}, "photos": [{"height": 2988, "html_attributions": ["<a href=\"https://maps.google.com/maps/contrib/115549603651632370974\">sabine schulte</a>"], "photo_reference": "AUGGfZm28TqjvUxCy6RO5lNFDYZyd52T-6ZCu121yDxG9lSyKfK8Vv8kdoneaSlWExc2HLyzv5QDBJTt2Zpt4hpHOS6EACL9n3DqKPZQrXMeGBMb8FRg5RRPK-j2HJ3N0q-oKpcFPqdSHvGtUFaTCDuM7tX5E2JfpUYvBgK9sTf4U5Z2SSph", "width": 5312}], "place_id": "ChIJT3p8BT8Gl0cR0LnqgjBQ_YU", "plus_code": {"compound_code": "2C26+95 Karlsruhe, Germany", "global_code": "8FXC2C26+95"}, "price_level": 1, "rating": 3.8, "reference": "ChIJT3p8BT8Gl0cR0LnqgjBQ_YU", "scope": "GOOGLE", "types": ["bar", "point_of_interest", "establishment"], "user_ratings_total": 237, "vicinity": "R\u00fcppurrer Str. 48, Karlsruhe"}, {"business_status": "OPERATIONAL", "geometry": {"location": {"lat": 49.010233, "lng": 8.387151099999999}, "viewport": {"northeast": {"lat": 49.01162992989272, "lng": 8.388539379892721}, "southwest": {"lat": 49.00893027010728, "lng": 8.385839720107278}}}, "icon": "https://maps.gstatic.com/mapfiles/place_api/icons/v1/png_71/bar-71.png", "icon_background_color": "#FF9E67", "icon_mask_base_uri": "https://maps.gstatic.com/mapfiles/place_api/icons/v2/bar_pinlet", "name": "Dani&Tina AM-K 1 - Bar Caf\u00e9 Kneipe Pub - Karlsruhe", "opening_hours": {"open_now": true}, "photos": [{"height": 1080, "html_attributions": ["<a href=\"https://maps.google.com/maps/contrib/104164545680951197908\">K. Verduyn Lunel</a>"], "photo_reference": "AUGGfZkH7pZUcH9IAQrqE-R-SbuBzIOLsd77r9iKqq2oll_MUfsY2Svhaluf3W_AHatC4JcITsjxEJiQ7nJPD8dZT8lOEUmfQ4kUEfYOv5GBLBefo5jFSqBtvHJ-ddi4k9lOeNoIfaUHjAv5R7cEFYAKC6YBEtqhw8cwNmtGseWoB3k7nnMC", "width": 1920}], "place_id": "ChIJl1lQjFcGl0cRBRFFhil6kt8", "plus_code": {"compound_code": "296P+3V Karlsruhe, Germany", "global_code": "8FXC296P+3V"}, "rating": 3.8, "reference": "ChIJl1lQjFcGl0cRBRFFhil6kt8", "scope": "GOOGLE", "types": ["night_club", "cafe", "bar", "restaurant", "food", "point_of_interest", "store", "establishment"], "user_ratings_total": 18, "vicinity": "Kaiserallee 1, Karlsruhe"}, {"business_status": "OPERATIONAL", "geometry": {"location": {"lat": 49.0088725, "lng": 8.3797158}, "viewport": {"northeast": {"lat": 49.01022782989271, "lng": 8.380975729892722}, "southwest": {"lat": 49.00752817010726, "lng": 8.378276070107278}}}, "icon": "https://maps.gstatic.com/mapfiles/place_api/icons/v1/png_71/bar-71.png", "icon_background_color": "#FF9E67", "icon_mask_base_uri": "https://maps.gstatic.com/mapfiles/place_api/icons/v2/bar_pinlet", "name": "Music Pub Bergbr\u00e4u Stube", "opening_hours": {"open_now": false}, "photos": [{"height": 2268, "html_attributions": ["<a href=\"https://maps.google.com/maps/contrib/116941359180051047233\">Brett Bouet</a>"], "photo_reference": "AUGGfZnL-FHpp8nZyyIgPysZ4t3ECPUyVgxp52cg17Y7Kha11kpF1m-fBV95KxBCJS4P_A2ONX0Ie1DlnqhD6EKiCjn1QxS1qirHXVh_-Kll6FmFB4iAvgJ8WBWCxdqBudeP1s5ho3oC132NGc6244ic0BjKxRwwrCLeGKIqwkR3uWIG0Ot2", "width": 4032}], "place_id": "ChIJCTIXOfcGl0cRxS5uXlfQxhs", "plus_code": {"compound_code": "295H+GV Karlsruhe, Germany", "global_code": "8FXC295H+GV"}, "price_level": 1, "rating": 4.6, "reference": "ChIJCTIXOfcGl0cRxS5uXlfQxhs", "scope": "GOOGLE", "types": ["bar", "point_of_interest", "establishment"], "user_ratings_total": 110, "vicinity": "Schillerstra\u00dfe 25, Karlsruhe"}, {"business_status": "OPERATIONAL", "geometry": {"location": {"lat": 49.0118167, "lng": 8.3938044}, "viewport": {"northeast": {"lat": 49.01310062989271, "lng": 8.395197329892722}, "southwest": {"lat": 49.01040097010727, "lng": 8.392497670107279}}}, "icon": "https://maps.gstatic.com/mapfiles/place_api/icons/v1/png_71/restaurant-71.png", "icon_background_color": "#FF9E67", "icon_mask_base_uri": "https://maps.gstatic.com/mapfiles/place_api/icons/v2/restaurant_pinlet", "name": "Badisch Brauhaus", "opening_hours": {"open_now": true}, "photos": [{"height": 3648, "html_attributions": ["<a href=\"https://maps.google.com/maps/contrib/114052751461585866108\">BADISCH BRAUHAUS</a>"], "photo_reference": "AUGGfZld8rfN0p3mA4wO0slaNilnlgRRrVTYEOzlK40zkNXCOAUiv0-q5hMBdVqtYi8ID-cBoRCDIJMDraXDLXAtwgy11_RtehFYWwc7sytTHDdAo6Uh-1bTT05c1PWbm4zwZOPwkvgJllmKjSjigXbXYhEvXIF202wo2sGfe14IPKvmstEo", "width": 5472}], "place_id": "ChIJ798n4FAGl0cRvULWFRKXaYY", "plus_code": {"compound_code": "296V+PG Karlsruhe, Germany", "global_code": "8FXC296V+PG"}, "price_level": 2, "rating": 4.3, "reference": "ChIJ798n4FAGl0cRvULWFRKXaYY", "scope": "GOOGLE", "types": ["restaurant", "bar", "food", "point_of_interest", "establishment"], "user_ratings_total": 1453, "vicinity": "Stephanienstra\u00dfe 38-40, Karlsruhe"}, {"business_status": "OPERATIONAL", "geometry": {"location": {"lat": 49.00797379999999, "lng": 8.414109700000001}, "viewport": {"northeast": {"lat": 49.00931787989273, "lng": 8.41536922989272}, "southwest": {"lat": 49.00661822010728, "lng": 8.412669570107276}}}, "icon": "https://maps.gstatic.com/mapfiles/place_api/icons/v1/png_71/bar-71.png", "icon_background_color": "#FF9E67", "icon_mask_base_uri": "https://maps.gstatic.com/mapfiles/place_api/icons/v2/bar_pinlet", "name": "Old School Bar - Karlsruhe", "opening_hours": {"open_now": false}, "photos": [{"height": 3024, "html_attributions": ["<a href=\"https://maps.google.com/maps/contrib/103026080116737489728\">A Google User</a>"], "photo_reference": "AUGGfZm0e6Itrs2m95L6QlmYaRjmTAS5y35EGgFotPxQ4ONlx0SA1xdlyJzJYppBDI7iYKmPm4lPbAbH5D8YZdMg-qorui8V3uPrNOMXeAloI5CJpCsNDJ7HdU7GhK_EUfMifpjf-wowqKpsTD4wXWeCoBPXNqL2QZ8-MdWks18l0o4CCAGS", "width": 4032}], "place_id": "ChIJE7DVfDcGl0cRMDWoeMdMyCs", "plus_code": {"compound_code": "2C57+5J Karlsruhe, Germany", "global_code": "8FXC2C57+5J"}, "price_level": 1, "rating": 4.6, "reference": "ChIJE7DVfDcGl0cRMDWoeMdMyCs", "scope": "GOOGLE", "types": ["bar", "point_of_interest", "establishment"], "user_ratings_total": 45, "vicinity": "Am K\u00fcnstlerhaus 45, Karlsruhe"}, {"business_status": "OPERATIONAL", "geometry": {"location": {"lat": 49.0079435, "lng": 8.3896897}, "viewport": {"northeast": {"lat": 49.00929212989272, "lng": 8.390973729892723}, "southwest": {"lat": 49.00659247010727, "lng": 8.388274070107279}}}, "icon": "https://maps.gstatic.com/mapfiles/place_api/icons/v1/png_71/bar-71.png", "icon_background_color": "#FF9E67", "icon_mask_base_uri": "https://maps.gstatic.com/mapfiles/place_api/icons/v2/bar_pinlet", "name": "\"Die Pinte\" Pub - Bar seit 1968 im Herzen von Karlsruhe - Gro\u00dfe Getr\u00e4nkeauswahl und leckeres aus unserer K\u00fcche.", "opening_hours": {"open_now": false}, "photos": [{"height": 399, "html_attributions": ["<a href=\"https://maps.google.com/maps/contrib/100790212695452029521\">Die Pinte</a>"], "photo_reference": "AUGGfZnMR48utFgo9smNW8RLWOqSNh7LVoJ77RrMRRkOezLPBQh3ZQUk73RVkzdq92XBRXBMLPfmdmmu2f9pQaQMnB9qfgEAh99y9gIxj5YVmZHITZqvih-GMOFe0L-6ogJPJmuEouLjfFLfUvTJlSVHluQY1vWuqEm9ItBvmarUVLIEnccy", "width": 600}], "place_id": "ChIJgVlfllkGl0cR-Tiet1hg7Yk", "plus_code": {"compound_code": "295Q+5V Karlsruhe, Germany", "global_code": "8FXC295Q+5V"}, "price_level": 1, "rating": 3.7, "reference": "ChIJgVlfllkGl0cR-Tiet1hg7Yk", "scope": "GOOGLE", "types": ["bar", "restaurant", "food", "point_of_interest", "establishment"], "user_ratings_total": 240, "vicinity": "Leopoldstra\u00dfe 15, Karlsruhe"}, {"business_status": "OPERATIONAL", "geometry": {"location": {"lat": 49.0102944, "lng": 8.42328}, "viewport": {"northeast": {"lat": 49.01165032989272, "lng": 8.424648229892721}, "southwest": {"lat": 49.00895067010728, "lng": 8.421948570107277}}}, "icon": "https://maps.gstatic.com/mapfiles/place_api/icons/v1/png_71/bar-71.png", "icon_background_color": "#FF9E67", "icon_mask_base_uri": "https://maps.gstatic.com/mapfiles/place_api/icons/v2/bar_pinlet", "name": "Hexenst\u00fcble", "opening_hours": {"open_now": true}, "photos": [{"height": 3024, "html_attributions": ["<a href=\"https://maps.google.com/maps/contrib/115261997414352156435\">MisterSchlemmer</a>"], "photo_reference": "AUGGfZl5Gq5scV6Jy_Lf7iqOxMPtQbUVuYuAJ9TkQQhGqqUI9UFB8Tt0AQ6Mv9bKTRbceUjswDrC3S_BgdigjnP4ASt8YyzHfPGWTQtglyM-gdaBdnll3UxQeVYycP0_Xo4J24_87ruLc9JzvyYZ7aTCM-hOUAP1NXnJ6wdVrGoA9K20Z2Cz", "width": 4032}], "place_id": "ChIJ9cxT1zEGl0cR-tAj2Lybtgk", "plus_code": {"compound_code": "2C6F+47 Karlsruhe, Germany", "global_code": "8FXC2C6F+47"}, "price_level": 1, "rating": 4.5, "reference": "ChIJ9cxT1zEGl0cR-tAj2Lybtgk", "scope": "GOOGLE", "types": ["bar", "point_of_interest", "establishment"], "user_ratings_total": 122, "vicinity": "Georg-Friedrich-Stra\u00dfe 14, Karlsruhe"}, {"business_status": "OPERATIONAL", "geometry": {"location": {"lat": 49.0008863, "lng": 8.4134174}, "viewport": {"northeast": {"lat": 49.00224787989272, "lng": 8.414717779892722}, "southwest": {"lat": 48.99954822010728, "lng": 8.412018120107279}}}, "icon": "https://maps.gstatic.com/mapfiles/place_api/icons/v1/png_71/bar-71.png", "icon_background_color": "#FF9E67", "icon_mask_base_uri": "https://maps.gstatic.com/mapfiles/place_api/icons/v2/bar_pinlet", "name": "Caf\u00e9 Bar Zick Zack", "opening_hours": {"open_now": true}, "photos": [{"height": 2988, "html_attributions": ["<a href=\"https://maps.google.com/maps/contrib/111914280187728301265\">Thomas Grie\u00dfer</a>"], "photo_reference": "AUGGfZk6ejkEQQCGZiA0QNkqFvKqjut6KEkwMfUKljKj89IIDqtYH3DsHhKyxfUhXfjZn_n9cQ1qo4W46DiYBIGrdbYLMRq2wuteHgbIlJb9eQ7uf-XoKWrVIoM9TRaAlE6CahUy75V0bBvAOd4lk_s6eOnt1On_5YBY1z3UNmEsObdAqvKF", "width": 3984}], "place_id": "ChIJh1ggjj4Gl0cRbEGFtQ7cTps", "plus_code": {"compound_code": "2C27+89 Karlsruhe, Germany", "global_code": "8FXC2C27+89"}, "price_level": 1, "rating": 4.4, "reference": "ChIJh1ggjj4Gl0cRbEGFtQ7cTps", "scope": "GOOGLE", "types": ["cafe", "bar", "restaurant", "food", "point_of_interest", "establishment"], "user_ratings_total": 113, "vicinity": "Morgenstra\u00dfe 31, Karlsruhe"}, {"business_status": "OPERATIONAL", "geometry": {"location": {"lat": 48.9948379, "lng": 8.4002091}, "viewport": {"northeast": {"lat": 48.99618187989272, "lng": 8.401483729892723}, "southwest": {"lat": 48.99348222010727, "lng": 8.39878407010728}}}, "icon": "https://maps.gstatic.com/mapfiles/place_api/icons/v1/png_71/restaurant-71.png", "icon_background_color": "#FF9E67", "icon_mask_base_uri": "https://maps.gstatic.com/mapfiles/place_api/icons/v2/restaurant_pinlet", "name": "Erste Fracht Braugasthaus", "opening_hours": {"open_now": true}, "photos": [{"height": 1800, "html_attributions": ["<a href=\"https://maps.google.com/maps/contrib/103737424056169747274\">Alexander L\u00f6sch</a>"], "photo_reference": "AUGGfZm6MfsROUAXe0pMOHEArpFi__AAKBve9zhxM6SYgats7Xvns-ENHSUt03Vm-8HSmh4WnHlxryKtrsKn5xnuXG4_Z-NClFncW6uf-ltZMSWcwvLhrVe9a6ceVU1ZIMvllKz793L0X2651vGEMqobUxYlSvxQ7tFp5YsK_HEby2bJCIIA", "width": 4000}], "place_id": "ChIJixsK3msGl0cRUspBoLL9AjI", "plus_code": {"compound_code": "XCV2+W3 Karlsruhe, Germany", "global_code": "8FWCXCV2+W3"}, "price_level": 2, "rating": 4.4, "reference": "ChIJixsK3msGl0cRUspBoLL9AjI", "scope": "GOOGLE", "types": ["restaurant", "bar", "food", "point_of_interest", "establishment"], "user_ratings_total": 2251, "vicinity": "Bahnhofpl. 6, Karlsruhe"}, {"business_status": "OPERATIONAL", "geometry": {"location": {"lat": 49.00778099999999, "lng": 8.413708999999999}, "viewport": {"northeast": {"lat": 49.00918637989272, "lng": 8.415032779892721}, "southwest": {"lat": 49.00648672010728, "lng": 8.412333120107277}}}, "icon": "https://maps.gstatic.com/mapfiles/place_api/icons/v1/png_71/restaurant-71.png", "icon_background_color": "#FF9E67", "icon_mask_base_uri": "https://maps.gstatic.com/mapfiles/place_api/icons/v2/restaurant_pinlet", "name": "Pfannestiel", "opening_hours": {"open_now": true}, "photos": [{"height": 1258, "html_attributions": ["<a href=\"https://maps.google.com/maps/contrib/114090272603777993142\">Pfannestiel Gastronomie</a>"], "photo_reference": "AUGGfZmDr70T1SdcCr3DDCLz2pLeBcqFJ0AQalfaz3phQwhczSflomivMN6ZbtY3iCb5gbvlY42b-hoAivBq3-rQB7FohgklObEvpf4HIDnvtx_cvmXWa7Got7QPLqR0aFAwqTrzkg0XciPK_4GuAYsHLzajuV9R5J4aASOfr4Z4fUo33w0D", "width": 2048}], "place_id": "ChIJzyNHKzgGl0cRFZfo4IQSnvE", "plus_code": {"compound_code": "2C57+4F Karlsruhe, Germany", "global_code": "8FXC2C57+4F"}, "price_level": 1, "rating": 4.3, "reference": "ChIJzyNHKzgGl0cRFZfo4IQSnvE", "scope": "GOOGLE", "types": ["restaurant", "bar", "food", "point_of_interest", "establishment"], "user_ratings_total": 360, "vicinity": "Am K\u00fcnstlerhaus 53, Karlsruhe"}, {"business_status": "OPERATIONAL", "geometry": {"location": {"lat": 49.00683410000001, "lng": 8.412376799999999}, "viewport": {"northeast": {"lat": 49.00816067989273, "lng": 8.413733379892724}, "southwest": {"lat": 49.00546102010728, "lng": 8.41103372010728}}}, "icon": "https://maps.gstatic.com/mapfiles/place_api/icons/v1/png_71/bar-71.png", "icon_background_color": "#FF9E67", "icon_mask_base_uri": "https://maps.gstatic.com/mapfiles/place_api/icons/v2/bar_pinlet", "name": "kap", "opening_hours": {"open_now": false}, "photos": [{"height": 567, "html_attributions": ["<a href=\"https://maps.google.com/maps/contrib/111645071189718820655\">A Google User</a>"], "photo_reference": "AUGGfZmZxce9gmbNZOKyNNFF31ZyqZEgoDcRaOOPlw9Y0Rvp9wukC0xKW1I0IX_2aYt-1dK5vMDWDwS85APGCv4To71bu711_tCxj0BEfF18Kt5FUyFsMDajuHmJRQnSIj1IYh9F-anTHbB3T8wFAJ6BOwsSmCAWuRSYva8pWHzlKH8fCiwQ", "width": 851}], "place_id": "ChIJ5csBNzgGl0cRL7TTvJOTDUk", "plus_code": {"compound_code": "2C46+PW Karlsruhe, Germany", "global_code": "8FXC2C46+PW"}, "price_level": 2, "rating": 4.5, "reference": "ChIJ5csBNzgGl0cRL7TTvJOTDUk", "scope": "GOOGLE", "types": ["bar", "restaurant", "food", "point_of_interest", "establishment"], "user_ratings_total": 584, "vicinity": "Kapellenstra\u00dfe 68, Karlsruhe"}]