[{"business_status": "OPERATIONAL", "geometry": {"location": {"lat": 52.3968318, "lng": -1.7862944}, "viewport": {"northeast": {"lat": 52.39817067989271, "lng": -1.784866670107278}, "southwest": {"lat": 52.39547102010727, "lng": -1.787566329892722}}}, "icon": "https://maps.gstatic.com/mapfiles/place_api/icons/v1/png_71/bar-71.png", "icon_background_color": "#FF9E67", "icon_mask_base_uri": "https://maps.gstatic.com/mapfiles/place_api/icons/v2/bar_pinlet", "name": "The Fieldhouse", "opening_hours": {"open_now": true}, "photos": [{"height": 3024, "html_attributions": ["<a href=\"https://maps.google.com/maps/contrib/106586299712479394820\">papa ratc</a>"], "photo_reference": "AUc7tXXFF7febVpWN-4uhQ13FqEdyGQAxgIflnedDFvStVVyvFPwL_l7VPF-A_WgLo4pwA4MzPocOIEAL_KUmvy7hjnEIHsNK5aFeIaH96ZlFsApNvkXVvz9aseVPjsemcMIJpv_p9aWLmq-dDa7f1-J8IL4nCni7IWjH4MoUgc7WAvi0xOf", "width": 4032}], "place_id": "ChIJlXif4tG5cEgRUV037qC8VlU", "plus_code": {"compound_code": "96W7+PC Solihull, United Kingdom", "global_code": "9C4W96W7+PC"}, "price_level": 2, "rating": 4.2, "reference": "ChIJlXif4tG5cEgRUV037qC8VlU", "scope": "GOOGLE", "types": ["bar", "restaurant", "food", "point_of_interest", "establishment"], "user_ratings_total": 1351, "vicinity": "10 Knightcote Dr, Solihull"}, {"business_status": "OPERATIONAL", "geometry": {"location": {"lat": 52.4144318, "lng": -1.7809063}, "viewport": {"northeast": {"lat": 52.41567997989272, "lng": -1.779741520107278}, "southwest": {"lat": 52.41298032010727, "lng": -1.782441179892722}}}, "icon": "https://maps.gstatic.com/mapfiles/place_api/icons/v1/png_71/bar-71.png", "icon_background_color": "#FF9E67", "icon_mask_base_uri": "https://maps.gstatic.com/mapfiles/place_api/icons/v2/bar_pinlet", "name": "Flute & Flagon", "opening_hours": {"open_now": true}, "photos": [{"height": 1992, "html_attributions": ["<a href=\"https://maps.google.com/maps/contrib/100827196321300050310\">Mark Chater</a>"], "photo_reference": "AUc7tXWLvJAwjhmmbgmrSRV5MwLG6AamFrff6WyV6JQBqxdty0vQJNf6DKdv9JTx6qNLyKh8IVmpSu0HBwcBGVh4SMffbAxgK4BRmPF-zZgE-Tnf43tjucmEZll9-jR_Z7LM9GXFtnF6SIbTbbqYqLfzoILE81Vv5BcAY4WXMiXAuqW09G1Q", "width": 2656}], "place_id": "ChIJXxVzlS3IcEgRHg6F-26bx4g", "plus_code": {"compound_code": "C679+QJ Solihull, United Kingdom", "global_code": "9C4WC679+QJ"}, "price_level": 1, "rating": 4.2, "reference": "ChIJXxVzlS3IcEgRHg6F-26bx4g", "scope": "GOOGLE", "types": ["bar", "restaurant", "food", "point_of_interest", "establishment"], "user_ratings_total": 776, "vicinity": "28-30 Station Rd, Solihull"}, {"business_status": "OPERATIONAL", "geometry": {"location": {"lat": 52.415201, "lng": -1.7751603}, "viewport": {"northeast": {"lat": 52.41650172989272, "lng": -1.773726670107278}, "southwest": {"lat": 52.41380207010728, "lng": -1.776426329892722}}}, "icon": "https://maps.gstatic.com/mapfiles/place_api/icons/v1/png_71/bar-71.png", "icon_background_color": "#FF9E67", "icon_mask_base_uri": "https://maps.gstatic.com/mapfiles/place_api/icons/v2/bar_pinlet", "name": "The Beech House", "opening_hours": {"open_now": true}, "photos": [{"height": 2000, "html_attributions": ["<a href=\"https://maps.google.com/maps/contrib/116682288778439950153\">The Beech House</a>"], "photo_reference": "AUc7tXXLxYYcVbTZi2Zsl3niBgwUndmk7_nR8H66YHtAeU5E9kdTByHtEW9CTY644nEaejrYVcwP2fLXK_W9hd_molFJXHz0-tsFQ4Th1cV40fbOE-TYcxpObLhaeYkjoUa9zLknm_oqpWl7gtb-hQufGSrNAtPjqF4r6p_K4KKUi4z6b8QJ", "width": 3000}], "place_id": "ChIJuR8be1-3cEgRNZyQG5nQj7o", "plus_code": {"compound_code": "C68F+3X Solihull, United Kingdom", "global_code": "9C4WC68F+3X"}, "price_level": 2, "rating": 4.2, "reference": "ChIJuR8be1-3cEgRNZyQG5nQj7o", "scope": "GOOGLE", "types": ["bar", "restaurant", "food", "point_of_interest", "establishment"], "user_ratings_total": 1127, "vicinity": "727 Warwick Rd, Solihull"}, {"business_status": "OPERATIONAL", "geometry": {"location": {"lat": 52.42229889999999, "lng": -1.7740693}, "viewport": {"northeast": {"lat": 52.42355592989271, "lng": -1.772788020107278}, "southwest": {"lat": 52.42085627010727, "lng": -1.775487679892722}}}, "icon": "https://maps.gstatic.com/mapfiles/place_api/icons/v1/png_71/bar-71.png", "icon_background_color": "#FF9E67", "icon_mask_base_uri": "https://maps.gstatic.com/mapfiles/place_api/icons/v2/bar_pinlet", "name": "The Flying Elephant", "opening_hours": {"open_now": true}, "photos": [{"height": 1200, "html_attributions": ["<a href=\"https://maps.google.com/maps/contrib/118074257637633975223\">Susan</a>"], "photo_reference": "AUc7tXUYW2YmMzauGQAD6T6EDHkJkh-BeHYPn2CXT8OOrMr7geXXsZ_8lIeYUYNdgh0vujlpUS_R4nyiY-E-y5xViMiOLSSPmTVw79K_UQ0jACBPL6-dre-A8WLDiB83WlxDnrI7g-u897aezD10_zu-da4uo0YKFiAewM4OGIs-bw1GKYRm", "width": 1600}], "place_id": "ChIJX6Fukcq3cEgRyAlkOIKkFug", "plus_code": {"compound_code": "C6CG+W9 Solihull, United Kingdom", "global_code": "9C4WC6CG+W9"}, "price_level": 2, "rating": 4.1, "reference": "ChIJX6Fukcq3cEgRyAlkOIKkFug", "scope": "GOOGLE", "types": ["bar", "restaurant", "food", "point_of_interest", "establishment"], "user_ratings_total": 545, "vicinity": "The Flying Elephant, 34 Hermitage Rd, Solihull"}, {"business_status": "OPERATIONAL", "geometry": {"location": {"lat": 52.4219173, "lng": -1.7658781}, "viewport": {"northeast": {"lat": 52.42327072989272, "lng": -1.764378870107278}, "southwest": {"lat": 52.42057107010728, "lng": -1.767078529892722}}}, "icon": "https://maps.gstatic.com/mapfiles/place_api/icons/v1/png_71/bar-71.png", "icon_background_color": "#FF9E67", "icon_mask_base_uri": "https://maps.gstatic.com/mapfiles/place_api/icons/v2/bar_pinlet", "name": "The Greville Arms", "opening_hours": {"open_now": true}, "photos": [{"height": 2322, "html_attributions": ["<a href=\"https://maps.google.com/maps/contrib/115016097113548019497\">Carl Tuohy</a>"], "photo_reference": "AUc7tXXpsTMrlYesreL2EeMEqUR-4jP080ZnMkGTajr3hTq_DGSvAFjXI9Jg4OwjI1jSRg4fMpwt6PS4aIE-jQ5HQMlLdZck4vSreEhRq2WZEIgn2FSu4YMcuiIwX609oT1II0FIlozU0pp3mW50fQTNADjWJaCsxpKNxAxUn-cdk-oF0ZU5", "width": 4128}], "place_id": "ChIJ91RoylC3cEgR0osvtod16y8", "plus_code": {"compound_code": "C6CM+QJ Solihull, United Kingdom", "global_code": "9C4WC6CM+QJ"}, "price_level": 1, "rating": 4, "reference": "ChIJ91RoylC3cEgR0osvtod16y8", "scope": "GOOGLE", "types": ["bar", "restaurant", "food", "point_of_interest", "establishment"], "user_ratings_total": 841, "vicinity": "Cornyx Ln, Solihull"}, {"business_status": "OPERATIONAL", "geometry": {"location": {"lat": 52.414457, "lng": -1.781063}, "viewport": {"northeast": {"lat": 52.41578172989272, "lng": -1.779841170107278}, "southwest": {"lat": 52.41308207010728, "lng": -1.782540829892722}}}, "icon": "https://maps.gstatic.com/mapfiles/place_api/icons/v1/png_71/bar-71.png", "icon_background_color": "#FF9E67", "icon_mask_base_uri": "https://maps.gstatic.com/mapfiles/place_api/icons/v2/bar_pinlet", "name": "The White Swan - JD Wetherspoon", "opening_hours": {"open_now": true}, "photos": [{"height": 2322, "html_attributions": ["<a href=\"https://maps.google.com/maps/contrib/106980246287139172645\">Heather Turner</a>"], "photo_reference": "AUc7tXXsIzJRXU4Axhv5_YfgRjoQupqf4VIEcU-6W2B_1o0bfFPJ8yCYoCzuqlzH-J_P8QAD0KoysUozpiOYF48vCu3HhWLjUUt2TE30VRW63Q3-lUvEjqWmmcB-DyTc7npVcW73h165M64z2M5aYygkFH4GxYznx30r3boRx9VbEE1N8EIC", "width": 4128}], "place_id": "ChIJse2X1-C5cEgR1P0fFHB9Eas", "plus_code": {"compound_code": "C679+QH Solihull, United Kingdom", "global_code": "9C4WC679+QH"}, "price_level": 1, "rating": 3.9, "reference": "ChIJse2X1-C5cEgR1P0fFHB9Eas", "scope": "GOOGLE", "types": ["bar", "restaurant", "food", "point_of_interest", "establishment"], "user_ratings_total": 2149, "vicinity": "32-34 Station Rd, Solihull"}, {"business_status": "OPERATIONAL", "geometry": {"location": {"lat": 52.41495219999999, "lng": -1.7777747}, "viewport": {"northeast": {"lat": 52.41632812989272, "lng": -1.776423220107278}, "southwest": {"lat": 52.41362847010728, "lng": -1.779122879892723}}}, "icon": "https://maps.gstatic.com/mapfiles/place_api/icons/v1/png_71/bar-71.png", "icon_background_color": "#FF9E67", "icon_mask_base_uri": "https://maps.gstatic.com/mapfiles/place_api/icons/v2/bar_pinlet", "name": "Tap & Tandoor", "opening_hours": {"open_now": true}, "photos": [{"height": 3421, "html_attributions": ["<a href=\"https://maps.google.com/maps/contrib/116739750250287602448\">A Google User</a>"], "photo_reference": "AUc7tXU_81MA_O8Sp8Zi_ZsI7vZLikInWAtisXX-EoEMPAgi7Iz4ntEJE43Y9m-GhXF0znIsV6hHM3SIKF128gMw4_S1_Kj_6A_Abs7NB4BHkWlSYjdPMX219thfDLI8t5HzePgq80AqT_mSSvXah7sJU0pNt4_wU-WsgWzOWtAmg0xaRks1", "width": 5131}], "place_id": "ChIJjwCisUi5cEgRbGgZcFU17r4", "plus_code": {"compound_code": "C67C+XV Solihull, United Kingdom", "global_code": "9C4WC67C+XV"}, "price_level": 2, "rating": 4.4, "reference": "ChIJjwCisUi5cEgRbGgZcFU17r4", "scope": "GOOGLE", "types": ["bar", "restaurant", "food", "point_of_interest", "establishment"], "user_ratings_total": 929, "vicinity": "658 Warwick Rd, Solihull"}, {"business_status": "OPERATIONAL", "geometry": {"location": {"lat": 52.41453809999999, "lng": -1.781246}, "viewport": {"northeast": {"lat": 52.41582977989272, "lng": -1.779949370107278}, "southwest": {"lat": 52.41313012010728, "lng": -1.782649029892722}}}, "icon": "https://maps.gstatic.com/mapfiles/place_api/icons/v1/png_71/restaurant-71.png", "icon_background_color": "#FF9E67", "icon_mask_base_uri": "https://maps.gstatic.com/mapfiles/place_api/icons/v2/restaurant_pinlet", "name": "Turtle Bay Solihull", "opening_hours": {"open_now": true}, "photos": [{"height": 3024, "html_attributions": ["<a href=\"https://maps.google.com/maps/contrib/114371860636618348110\">Kaushik Paul</a>"], "photo_reference": "AUc7tXXGo792Gbr9710evfsFjj4w6prjT3bgPuKrCabcdEE2u1dhXJv_7WaGWjyFxwYTZ_7aOY48IOPk0rku27eSUqqMpsVypo-X-cki4OWdJSlsmLMCoBGYuOgz28nUZIQZIM6q3EqLAvgyJJVCrS-9umxz1xwNBsEUL-QuML1sgpiYjanX", "width": 4032}], "place_id": "ChIJEYjY1-C5cEgRWPrXeugVE_k", "plus_code": {"compound_code": "C679+RG Solihull, United Kingdom", "global_code": "9C4WC679+RG"}, "price_level": 2, "rating": 4.8, "reference": "ChIJEYjY1-C5cEgRWPrXeugVE_k", "scope": "GOOGLE", "types": ["bar", "restaurant", "food", "point_of_interest", "establishment"], "user_ratings_total": 5074, "vicinity": "36-38 Station Rd, Solihull"}, {"business_status": "OPERATIONAL", "geometry": {"location": {"lat": 52.4298847, "lng": -1.7981069}, "viewport": {"northeast": {"lat": 52.43122747989272, "lng": -1.796807620107278}, "southwest": {"lat": 52.42852782010728, "lng": -1.799507279892722}}}, "icon": "https://maps.gstatic.com/mapfiles/place_api/icons/v1/png_71/bar-71.png", "icon_background_color": "#FF9E67", "icon_mask_base_uri": "https://maps.gstatic.com/mapfiles/place_api/icons/v2/bar_pinlet", "name": "No.1 DoveHouse Parade", "opening_hours": {"open_now": true}, "photos": [{"height": 3024, "html_attributions": ["<a href=\"https://maps.google.com/maps/contrib/110104626995919862724\">A Google User</a>"], "photo_reference": "AUc7tXVRlk9G1LKz-F7AOTsV7RFbxHDZ8En63n_DV7NDA2XmWWsEwp0RScF_qC4igji0-ILOcdgjRX9QnzdCBzDe6RI_GBEwRqeBf8KgnpFD91Zu6eGEn2KsGg3kRYiEgGF8mzJNTfKXMvJ1kAOBogL67WvOSQguiHtHaOprxO9ljOQ83teN", "width": 4032}], "place_id": "ChIJHyJu6Z-5cEgRt5xQzziRrQ0", "plus_code": {"compound_code": "C6H2+XQ Solihull, United Kingdom", "global_code": "9C4WC6H2+XQ"}, "rating": 4.6, "reference": "ChIJHyJu6Z-5cEgRt5xQzziRrQ0", "scope": "GOOGLE", "types": ["bar", "restaurant", "food", "point_of_interest", "establishment"], "user_ratings_total": 147, "vicinity": "341 Warwick Rd, Solihull"}]