[{"business_status": "OPERATIONAL", "geometry": {"location": {"lat": 40.0290822, "lng": -75.1470946}, "viewport": {"northeast": {"lat": 40.03048757989273, "lng": -75.14576177010728}, "southwest": {"lat": 40.02778792010728, "lng": -75.14846142989273}}}, "icon": "https://maps.gstatic.com/mapfiles/place_api/icons/v1/png_71/bar-71.png", "icon_background_color": "#FF9E67", "icon_mask_base_uri": "https://maps.gstatic.com/mapfiles/place_api/icons/v2/bar_pinlet", "name": "Charley B's Bar & Grill", "opening_hours": {"open_now": true}, "photos": [{"height": 3464, "html_attributions": ["<a href=\"https://maps.google.com/maps/contrib/102291453190075812806\">Taiwan Brown</a>"], "photo_reference": "AUc7tXVOWYgOLigik_eFhGdg6RSQYCFrPaXvYfQ3CmKj14DFJJ2MkXmUlw9j8wImUDyDhvj8KPm74yuAGg5migj4eSgeg4XEKo9FslxYGig0-fI48DbubMF2y8LfMUoUs_ud7d2w_LWC7pkl92etK8gkAO2Gqo6H1UYaSKDSb7Rov0Dsv2lr", "width": 4618}], "place_id": "ChIJJWlnuYW3xokR-cOsjfCyShw", "plus_code": {"compound_code": "2VH3+J5 Philadelphia, Pennsylvania, USA", "global_code": "87G62VH3+J5"}, "price_level": 1, "rating": 4.1, "reference": "ChIJJWlnuYW3xokR-cOsjfCyShw", "scope": "GOOGLE", "types": ["bar", "restaurant", "food", "point_of_interest", "establishment"], "user_ratings_total": 902, "vicinity": "4948 N Broad St, Philadelphia"}, {"business_status": "OPERATIONAL", "geometry": {"location": {"lat": 40.0158016, "lng": -75.13996139999999}, "viewport": {"northeast": {"lat": 40.01708612989272, "lng": -75.13859902010728}, "southwest": {"lat": 40.01438647010728, "lng": -75.14129867989273}}}, "icon": "https://maps.gstatic.com/mapfiles/place_api/icons/v1/png_71/bar-71.png", "icon_background_color": "#FF9E67", "icon_mask_base_uri": "https://maps.gstatic.com/mapfiles/place_api/icons/v2/bar_pinlet", "name": "Babilonia Lounge & Restaurant", "opening_hours": {"open_now": true}, "photos": [{"height": 1960, "html_attributions": ["<a href=\"https://maps.google.com/maps/contrib/113584950119232623516\">Giovanni Perez</a>"], "photo_reference": "AUc7tXXEQo_cKXrB2Kvl9ueEOZJuvMkWSr6RD7uHEH4KVhylFP-slZhZw2pbzEDRVgWNPtmf6cCiosw4fVjy7NrtmdEB0wTtSV6XndNn0j0D340-8u_FThUjmkf7djFj-eqDns-Cu2Ga3jCOjDOQApZ_IZ5qgD8ULEJDVPxIGZGHRkEGs0yo", "width": 4032}], "place_id": "ChIJbWbt1-y3xokROEYheg4wIw8", "plus_code": {"compound_code": "2V86+82 Philadelphia, Pennsylvania, USA", "global_code": "87G62V86+82"}, "price_level": 2, "rating": 4.4, "reference": "ChIJbWbt1-y3xokROEYheg4wIw8", "scope": "GOOGLE", "types": ["bar", "restaurant", "food", "point_of_interest", "establishment"], "user_ratings_total": 105, "vicinity": "4201 N 8th St, Philadelphia"}, {"business_status": "OPERATIONAL", "geometry": {"location": {"lat": 39.991618, "lng": -75.1128228}, "viewport": {"northeast": {"lat": 39.99301602989272, "lng": -75.11148652010728}, "southwest": {"lat": 39.99031637010728, "lng": -75.11418617989271}}}, "icon": "https://maps.gstatic.com/mapfiles/place_api/icons/v1/png_71/bar-71.png", "icon_background_color": "#FF9E67", "icon_mask_base_uri": "https://maps.gstatic.com/mapfiles/place_api/icons/v2/bar_pinlet", "name": "CBG Phila 19134", "opening_hours": {"open_now": false}, "photos": [{"height": 3024, "html_attributions": ["<a href=\"https://maps.google.com/maps/contrib/107378305983927363855\">A Google User</a>"], "photo_reference": "AUc7tXWfNolAEd5-zuRpUtyF8dKmkt8BP4QriioH9dENrg1j-8bgoS0WafiLPszKxuR8o4Pwa8Ipk19Hu8qjy8LIhWyT3_H9se68lYKa5g30g7-y0sEwZ0t5_DkTJ3EynvV2xMFlS0dIMVhZlxg7z3TBGN_UKqHzsRu8Z4JfwuWhvvW_h8Yy", "width": 4032}], "place_id": "ChIJx0zIONfJxokRUQlw8o1CxVw", "plus_code": {"compound_code": "XVRP+JV Philadelphia, Pennsylvania, USA", "global_code": "87F6XVRP+JV"}, "rating": 4.8, "reference": "ChIJx0zIONfJxokRUQlw8o1CxVw", "scope": "GOOGLE", "types": ["bar", "restaurant", "food", "point_of_interest", "establishment"], "user_ratings_total": 17, "vicinity": "3057 Frankford Ave, Philadelphia"}, {"business_status": "OPERATIONAL", "geometry": {"location": {"lat": 39.9923055, "lng": -75.1357895}, "viewport": {"northeast": {"lat": 39.99362242989272, "lng": -75.13452192010728}, "southwest": {"lat": 39.99092277010728, "lng": -75.13722157989272}}}, "icon": "https://maps.gstatic.com/mapfiles/place_api/icons/v1/png_71/bar-71.png", "icon_background_color": "#FF9E67", "icon_mask_base_uri": "https://maps.gstatic.com/mapfiles/place_api/icons/v2/bar_pinlet", "name": "Izlas Latin Cuisine Restaurant and Nightclub", "opening_hours": {"open_now": false}, "photos": [{"height": 3600, "html_attributions": ["<a href=\"https://maps.google.com/maps/contrib/108968271627229585433\">A Google User</a>"], "photo_reference": "AUc7tXVWD7gIfaBCqHeasG-yupn_Cc3N8RDxtq8oh3vq75_Avfi1od4YRhJu3j1ulG2n9lv4VjtxNsOBCIswjyFflIlz-GjH-TtJ6AbDrQ6YAVrXXDuzW6QyQLSXbWuAPqTnJVPc_yJvYMfRxX93gl4kyv3_GsUhbZfs8FzzsOP_PZw5lPOx", "width": 5400}], "place_id": "ChIJe0_fChrJxokRULpeeQyhi0M", "plus_code": {"compound_code": "XVR7+WM Philadelphia, Pennsylvania, USA", "global_code": "87F6XVR7+WM"}, "price_level": 2, "rating": 4.5, "reference": "ChIJe0_fChrJxokRULpeeQyhi0M", "scope": "GOOGLE", "types": ["night_club", "bar", "restaurant", "food", "point_of_interest", "establishment"], "user_ratings_total": 306, "vicinity": "2725 N American St, Philadelphia"}]