[{"business_status": "OPERATIONAL", "geometry": {"location": {"lat": 51.2540692, "lng": 7.1349711}, "viewport": {"northeast": {"lat": 51.25545632989272, "lng": 7.13627887989272}, "southwest": {"lat": 51.25275667010727, "lng": 7.133579220107277}}}, "icon": "https://maps.gstatic.com/mapfiles/place_api/icons/v1/png_71/bar-71.png", "icon_background_color": "#FF9E67", "icon_mask_base_uri": "https://maps.gstatic.com/mapfiles/place_api/icons/v2/bar_pinlet", "name": "King's Head Pub", "opening_hours": {"open_now": false}, "photos": [{"height": 3024, "html_attributions": ["<a href=\"https://maps.google.com/maps/contrib/107465530021215177656\">asczo g.</a>"], "photo_reference": "AUGGfZmaKD08CPxIolvBMTYy-ykruzdP_tCC9-_8ifuZwnmIWPPk08AveJW7kGvA_Z4IDdHN0yb88Oxn0NLSDbj5Sgf2nqkISntA29TOtiAMYub9vOAVPTZgfZ3alhrx6lG_fvxkYDiS3jWVQL6W4s3KiMzZ_zbiSa_boypu_2eHREbPTXFP", "width": 4032}], "place_id": "ChIJJZWDk1TWuEcR4Z6UspPoymY", "plus_code": {"compound_code": "743M+JX Wuppertal, Germany", "global_code": "9F39743M+JX"}, "price_level": 2, "rating": 4.7, "reference": "ChIJJZWDk1TWuEcR4Z6UspPoymY", "scope": "GOOGLE", "types": ["bar", "restaurant", "food", "point_of_interest", "establishment"], "user_ratings_total": 510, "vicinity": "Friedrich-Ebert-Stra\u00dfe 77, Wuppertal"}, {"business_status": "OPERATIONAL", "geometry": {"location": {"lat": 51.2598773, "lng": 7.137728099999999}, "viewport": {"northeast": {"lat": 51.26123802989272, "lng": 7.139081129892722}, "southwest": {"lat": 51.25853837010727, "lng": 7.136381470107279}}}, "icon": "https://maps.gstatic.com/mapfiles/place_api/icons/v1/png_71/bar-71.png", "icon_background_color": "#FF9E67", "icon_mask_base_uri": "https://maps.gstatic.com/mapfiles/place_api/icons/v2/bar_pinlet", "name": "Domhan - Der Pub auf dem \u00d6lberg - Wuppertal", "opening_hours": {"open_now": false}, "photos": [{"height": 1268, "html_attributions": ["<a href=\"https://maps.google.com/maps/contrib/110724038873586012862\">Gastst\u00e4tte Domhan</a>"], "photo_reference": "AUGGfZl02HwTaj87cJvowWV01Tw7f1SJ1omfrI8-M-pWT9NHggh2FZ5oeVZPwMcUHysThq41myakyEk-RNoW27tmP6dK0uw9HWMLwsvD6emQDcwx_-c0-DFOiSQzZ0U2fcEaFs4RNGbxYvllQf9JcJsLDMonCRchgxCgrkG2fe6EaWvDkRg9", "width": 2000}], "place_id": "ChIJfwWk9qvXuEcR7S0EvM1duFc", "plus_code": {"compound_code": "745Q+X3 Wuppertal, Germany", "global_code": "9F39745Q+X3"}, "price_level": 2, "rating": 4.7, "reference": "ChIJfwWk9qvXuEcR7S0EvM1duFc", "scope": "GOOGLE", "types": ["bar", "restaurant", "food", "point_of_interest", "establishment"], "user_ratings_total": 235, "vicinity": "Marienstra\u00dfe 36, Wuppertal"}, {"business_status": "OPERATIONAL", "geometry": {"location": {"lat": 51.2643152, "lng": 7.1490295}, "viewport": {"northeast": {"lat": 51.26566417989272, "lng": 7.150458979892721}, "southwest": {"lat": 51.26296452010728, "lng": 7.147759320107277}}}, "icon": "https://maps.gstatic.com/mapfiles/place_api/icons/v1/png_71/bar-71.png", "icon_background_color": "#FF9E67", "icon_mask_base_uri": "https://maps.gstatic.com/mapfiles/place_api/icons/v2/bar_pinlet", "name": "Spunk", "opening_hours": {"open_now": false}, "photos": [{"height": 3024, "html_attributions": ["<a href=\"https://maps.google.com/maps/contrib/107039253831424999165\">Frank Petrat</a>"], "photo_reference": "AUGGfZmlINOrfOQeXERTiD5kTF62iySChTxrvygx20xu6S3gTw9ynXhHC9kmJ3g9Pe1kRM2R9Cb1Flrw25lsgegnH4XoyS41DPEem7R-jNQXosp5TwQn_vB72R3ttWIxY7B-cBq94tINpGdYhsz-9p7R9eIDQmr2FleXxRwK-5kMIOEeTwYB", "width": 4032}], "place_id": "ChIJY-jCYbDXuEcRkXZBsE4VaI0", "plus_code": {"compound_code": "747X+PJ Wuppertal, Germany", "global_code": "9F39747X+PJ"}, "price_level": 1, "rating": 4.6, "reference": "ChIJY-jCYbDXuEcRkXZBsE4VaI0", "scope": "GOOGLE", "types": ["bar", "restaurant", "food", "point_of_interest", "establishment"], "user_ratings_total": 297, "vicinity": "Flensburger Str. 38, Wuppertal"}, {"business_status": "OPERATIONAL", "geometry": {"location": {"lat": 51.2515874, "lng": 7.135911999999999}, "viewport": {"northeast": {"lat": 51.25295907989273, "lng": 7.137222029892722}, "southwest": {"lat": 51.25025942010728, "lng": 7.134522370107279}}}, "icon": "https://maps.gstatic.com/mapfiles/place_api/icons/v1/png_71/bar-71.png", "icon_background_color": "#FF9E67", "icon_mask_base_uri": "https://maps.gstatic.com/mapfiles/place_api/icons/v2/bar_pinlet", "name": "Figge - Wuppertal", "opening_hours": {"open_now": true}, "photos": [{"height": 2268, "html_attributions": ["<a href=\"https://maps.google.com/maps/contrib/115384563476817462614\">Khalil Osman</a>"], "photo_reference": "AUGGfZn3I-93cmVcNlSvs1udbB3gfsHFX1Z0FNihZMrZzQYHxckyQLszyLPlgqrwnLds1YgdQGlo-1g9BaTMrjtpSs4X69yOH-_FVZWfm05GIPALoWx2gAY4dckIoh1nC8V0Jp8rNvm8uDcExRi-qk2fuKjID9wo4uURn0FkM-wymetreB0j", "width": 4032}], "place_id": "ChIJR10E9VPWuEcRocDeDuUzPRA", "plus_code": {"compound_code": "742P+M8 Wuppertal, Germany", "global_code": "9F39742P+M8"}, "price_level": 1, "rating": 4.4, "reference": "ChIJR10E9VPWuEcRocDeDuUzPRA", "scope": "GOOGLE", "types": ["bar", "restaurant", "food", "point_of_interest", "establishment"], "user_ratings_total": 61, "vicinity": "Arrenberger Str. 2, Wuppertal"}, {"business_status": "OPERATIONAL", "geometry": {"location": {"lat": 51.2552439, "lng": 7.1438334}, "viewport": {"northeast": {"lat": 51.25666537989272, "lng": 7.145172979892721}, "southwest": {"lat": 51.25396572010727, "lng": 7.142473320107277}}}, "icon": "https://maps.gstatic.com/mapfiles/place_api/icons/v1/png_71/restaurant-71.png", "icon_background_color": "#FF9E67", "icon_mask_base_uri": "https://maps.gstatic.com/mapfiles/place_api/icons/v2/restaurant_pinlet", "name": "Island - Caf\u00e9, Bar & Essen", "opening_hours": {"open_now": true}, "photos": [{"height": 1836, "html_attributions": ["<a href=\"https://maps.google.com/maps/contrib/114886857405129107660\">J\u00f6rg Naderhirn</a>"], "photo_reference": "AUGGfZkN9112hI5Ug8qu-JEh0x0H0mI9TVQbwhZRL7q_PgMBQTewLUUkREnkGPuMmLfDAEkpCGDRN5wevEq3Yt7I9-CMsNtG-KJ9oQ_LniIb9SciCE_E7RL-jBFOfcRMonWEoUKAcQUm3VdutbG7_dCPQXGY5Ae91CvIyT1ZOLyUvp2vlSfB", "width": 3264}], "place_id": "ChIJK3BbU03WuEcRTWocNCNkH58", "plus_code": {"compound_code": "744V+3G Wuppertal, Germany", "global_code": "9F39744V+3G"}, "price_level": 2, "rating": 4.2, "reference": "ChIJK3BbU03WuEcRTWocNCNkH58", "scope": "GOOGLE", "types": ["restaurant", "cafe", "bar", "food", "point_of_interest", "establishment"], "user_ratings_total": 545, "vicinity": "Alexanderstra\u00dfe 18, Wuppertal"}, {"business_status": "OPERATIONAL", "geometry": {"location": {"lat": 51.2369, "lng": 7.1255123}, "viewport": {"northeast": {"lat": 51.23828952989272, "lng": 7.126896979892722}, "southwest": {"lat": 51.23558987010728, "lng": 7.124197320107278}}}, "icon": "https://maps.gstatic.com/mapfiles/place_api/icons/v1/png_71/restaurant-71.png", "icon_background_color": "#FF9E67", "icon_mask_base_uri": "https://maps.gstatic.com/mapfiles/place_api/icons/v2/restaurant_pinlet", "name": "Caf\u00e9 Restaurant K\u00f6nigsh\u00f6he - Wuppertal", "opening_hours": {"open_now": true}, "photos": [{"height": 1350, "html_attributions": ["<a href=\"https://maps.google.com/maps/contrib/102929493603976058054\">A Google User</a>"], "photo_reference": "AUGGfZlllaHD8K46i9tFK14Yoc4kQS1Ec8kNJ8UOZWNyPxRcEoqlvcNnXJG7FKOwpULydYdcw44-awss3_8QsGBcj87fBrrjVf-OGkla9P0XEo2WUpNXTM_REnUkxb2yyHxvJAVUw03ceLK_bqrkiFYWWYsbyKcg5AjbEAa0hc-IBxexMkIC", "width": 1080}], "place_id": "ChIJAzjEZPXWuEcR5TAMGMK1pe0", "plus_code": {"compound_code": "64PG+Q6 Wuppertal, Germany", "global_code": "9F3964PG+Q6"}, "price_level": 2, "rating": 4.3, "reference": "ChIJAzjEZPXWuEcR5TAMGMK1pe0", "scope": "GOOGLE", "types": ["restaurant", "meal_takeaway", "cafe", "bar", "store", "food", "point_of_interest", "establishment"], "user_ratings_total": 1054, "vicinity": "K\u00f6hlweg 5, Wuppertal"}, {"business_status": "OPERATIONAL", "geometry": {"location": {"lat": 51.2572282, "lng": 7.1428138}, "viewport": {"northeast": {"lat": 51.25871362989272, "lng": 7.144150279892722}, "southwest": {"lat": 51.25601397010728, "lng": 7.141450620107278}}}, "icon": "https://maps.gstatic.com/mapfiles/place_api/icons/v1/png_71/restaurant-71.png", "icon_background_color": "#FF9E67", "icon_mask_base_uri": "https://maps.gstatic.com/mapfiles/place_api/icons/v2/restaurant_pinlet", "name": "HANS IM GL\u00dcCK - WUPPERTAL Elberfeld", "opening_hours": {"open_now": true}, "photos": [{"height": 2333, "html_attributions": ["<a href=\"https://maps.google.com/maps/contrib/102387395322421742932\">HANS IM GL\u00dcCK - Burgergrill</a>"], "photo_reference": "AUGGfZnMYGSS5vk8s75rWoYbZ2fmy08f8MGBwatzhCaIQq5cIIfbHXEeXcu0o-AxR_NjSK5i1jwzqFmBsScvSTaW_IstQW6Tlua4SkY1tPTx7TEiKY4w_XMG5QY-GkXr1vLMfnsQE-afPPc7g2XK6FMX9OnRHuSdwa6VQMtVTk5CSBMw-2ez", "width": 3500}], "place_id": "ChIJYUkY4tHXuEcRjzNIkR6inSs", "plus_code": {"compound_code": "744V+V4 Wuppertal, Germany", "global_code": "9F39744V+V4"}, "price_level": 2, "rating": 4.4, "reference": "ChIJYUkY4tHXuEcRjzNIkR6inSs", "scope": "GOOGLE", "types": ["night_club", "bar", "restaurant", "food", "point_of_interest", "establishment"], "user_ratings_total": 3361, "vicinity": "Herzogstra\u00dfe 40, Wuppertal"}, {"business_status": "OPERATIONAL", "geometry": {"location": {"lat": 51.2537978, "lng": 7.1353578}, "viewport": {"northeast": {"lat": 51.25511672989272, "lng": 7.136758079892723}, "southwest": {"lat": 51.25241707010728, "lng": 7.134058420107279}}}, "icon": "https://maps.gstatic.com/mapfiles/place_api/icons/v1/png_71/bar-71.png", "icon_background_color": "#FF9E67", "icon_mask_base_uri": "https://maps.gstatic.com/mapfiles/place_api/icons/v2/bar_pinlet", "name": "Zweistein - Wuppertal", "opening_hours": {"open_now": false}, "photos": [{"height": 1365, "html_attributions": ["<a href=\"https://maps.google.com/maps/contrib/112398628993800943776\">A Google User</a>"], "photo_reference": "AUGGfZme_Pllzvg7GWP_dUNX-gkjaGpTthW-j4Uo625Df4MqPHXlGzxPcmhUvnVny59N2BXTXNYAxtPPfFQgwO2OUL3WA0NnloZy7N34ir4yCaikva5LrGWnlbHIQKhrYJpN7QcvF0DYV9t_Kd0z5kg2REQmAXtS9yPRoqUiB-HLEOaAiAx0", "width": 2048}], "place_id": "ChIJ_xE5kFTWuEcR6RqKrDaQZ94", "plus_code": {"compound_code": "743P+G4 Wuppertal, Germany", "global_code": "9F39743P+G4"}, "price_level": 2, "rating": 4.6, "reference": "ChIJ_xE5kFTWuEcR6RqKrDaQZ94", "scope": "GOOGLE", "types": ["cafe", "bar", "restaurant", "food", "point_of_interest", "establishment"], "user_ratings_total": 472, "vicinity": "Aue 84, Wuppertal"}, {"business_status": "OPERATIONAL", "geometry": {"location": {"lat": 51.2574352, "lng": 7.1523533}, "viewport": {"northeast": {"lat": 51.25885187989272, "lng": 7.15365777989272}, "southwest": {"lat": 51.25615222010727, "lng": 7.150958120107276}}}, "icon": "https://maps.gstatic.com/mapfiles/place_api/icons/v1/png_71/restaurant-71.png", "icon_background_color": "#FF9E67", "icon_mask_base_uri": "https://maps.gstatic.com/mapfiles/place_api/icons/v2/restaurant_pinlet", "name": "Restaurant & Bar atelier: Ihr Restaurant in Wuppertal", "opening_hours": {"open_now": true}, "photos": [{"height": 2121, "html_attributions": ["<a href=\"https://maps.google.com/maps/contrib/104541354600625464577\">Atelier - Das Restaurant</a>"], "photo_reference": "AUGGfZn4Mt1MXaG38ARWPs7hn4l6x_39YxByFavq8YSMdtVOIB_fZlVBt24GJzTOVmTM2PBXnOqrx2TEPI50ZOgLaWNlnWeIJaBPvU8cuo0zRww5VU6b9pfM80fCDTkhsH-hrKTPdd83_KN37YIrQvT2bcTVXgCpCCh0D4uKMhG3Gwr7NIN4", "width": 4000}], "place_id": "ChIJ-erPX7TXuEcRk5PkogKz7-o", "plus_code": {"compound_code": "7542+XW Wuppertal, Germany", "global_code": "9F397542+XW"}, "price_level": 2, "rating": 4.6, "reference": "ChIJ-erPX7TXuEcRk5PkogKz7-o", "scope": "GOOGLE", "types": ["restaurant", "bar", "food", "point_of_interest", "establishment"], "user_ratings_total": 705, "vicinity": "Hofaue 51, Wuppertal"}, {"business_status": "OPERATIONAL", "geometry": {"location": {"lat": 51.2585432, "lng": 7.147681899999999}, "viewport": {"northeast": {"lat": 51.26012782989272, "lng": 7.148752579892722}, "southwest": {"lat": 51.25742817010728, "lng": 7.146052920107278}}}, "icon": "https://maps.gstatic.com/mapfiles/place_api/icons/v1/png_71/cafe-71.png", "icon_background_color": "#FF9E67", "icon_mask_base_uri": "https://maps.gstatic.com/mapfiles/place_api/icons/v2/cafe_pinlet", "name": "Caf\u00e9 Extrablatt Wuppertal", "opening_hours": {"open_now": true}, "photos": [{"height": 3464, "html_attributions": ["<a href=\"https://maps.google.com/maps/contrib/110401399855193806095\">A Google User</a>"], "photo_reference": "AUGGfZk-PrntQawfXuYfIPVMa5xOR8YyEvk0iGjqyp2hYhNKa-5_D3gdUtGHHIUID8RQWyEnT1jkl0rwBX8JMxzY51XcuS6sRa7BaYkLyteiEDfZGG5-SPDh6TQ3-59SqQsnsEOc2I7eshx1CWiwQ6amq79IeSrrgObxkv0FgjmkNnWOCG0A", "width": 4618}], "place_id": "ChIJqzNOs7PXuEcRB9PnjLlRvtI", "plus_code": {"compound_code": "745X+C3 Wuppertal, Germany", "global_code": "9F39745X+C3"}, "price_level": 2, "rating": 4.2, "reference": "ChIJqzNOs7PXuEcRB9PnjLlRvtI", "scope": "GOOGLE", "types": ["cafe", "store", "restaurant", "food", "point_of_interest", "establishment"], "user_ratings_total": 3204, "vicinity": "Grabenstra\u00dfe 5, Wuppertal"}, {"business_status": "OPERATIONAL", "geometry": {"location": {"lat": 51.25287059999999, "lng": 7.167123499999999}, "viewport": {"northeast": {"lat": 51.25427672989272, "lng": 7.168381029892721}, "southwest": {"lat": 51.25157707010727, "lng": 7.165681370107277}}}, "icon": "https://maps.gstatic.com/mapfiles/place_api/icons/v1/png_71/cafe-71.png", "icon_background_color": "#FF9E67", "icon_mask_base_uri": "https://maps.gstatic.com/mapfiles/place_api/icons/v2/cafe_pinlet", "name": "Caf\u00e9 Podest", "opening_hours": {"open_now": true}, "photos": [{"height": 3024, "html_attributions": ["<a href=\"https://maps.google.com/maps/contrib/116546402843036070269\">J\u00f6rgen Jacobi</a>"], "photo_reference": "AUGGfZleIAPLFP04veYpG0hwdrpbW9DKXd4bRoBCdGgf9EzcgvrRFE2NeIjnPfzHaeSNCiRo4rNrkNJjX0RTQKky_yBKiR6kGQ4V9RfRpLYwp_RJT3T56RFxddptBwz0Zo5I_g-7KzpdkwftQbqbcKdPV5gcbFocXRyvy_8wznO8IYNSvKKu", "width": 4032}], "place_id": "ChIJ-0usxDLWuEcRGzEMt0bLcn4", "plus_code": {"compound_code": "7538+4V Wuppertal, Germany", "global_code": "9F397538+4V"}, "rating": 4.1, "reference": "ChIJ-0usxDLWuEcRGzEMt0bLcn4", "scope": "GOOGLE", "types": ["cafe", "bar", "restaurant", "food", "point_of_interest", "establishment"], "user_ratings_total": 123, "vicinity": "Hirschstra\u00dfe 12A, Wuppertal"}, {"business_status": "OPERATIONAL", "geometry": {"location": {"lat": 51.2571687, "lng": 7.142569099999999}, "viewport": {"northeast": {"lat": 51.25855577989273, "lng": 7.143794979892722}, "southwest": {"lat": 51.25585612010729, "lng": 7.141095320107278}}}, "icon": "https://maps.gstatic.com/mapfiles/place_api/icons/v1/png_71/restaurant-71.png", "icon_background_color": "#FF9E67", "icon_mask_base_uri": "https://maps.gstatic.com/mapfiles/place_api/icons/v2/restaurant_pinlet", "name": "SAUSALITOS", "opening_hours": {"open_now": false}, "photos": [{"height": 1080, "html_attributions": ["<a href=\"https://maps.google.com/maps/contrib/105060926965662139238\">SAUSALITOS Wuppertal</a>"], "photo_reference": "AUGGfZkKtGS8lfO9cmzp_Zx-XEKsF_fk1aT_bfN25Deg1qDkDis4G0N6GkztrPzqFGsLnSLBvqQUpn64zgSxS3afdv_6mOxLPdVwD1DlFLZnBYhkcd7SsUDe-WXzWtye2S72W5lwaLY7QHg75H3CKg7h4eaTopukgxGSLcEL6R8T-JlPb6eF", "width": 1920}], "place_id": "ChIJK5Xcba3XuEcRl4CopTj5nrw", "plus_code": {"compound_code": "744V+V2 Wuppertal, Germany", "global_code": "9F39744V+V2"}, "price_level": 2, "rating": 4.4, "reference": "ChIJK5Xcba3XuEcRl4CopTj5nrw", "scope": "GOOGLE", "types": ["restaurant", "bar", "food", "point_of_interest", "establishment"], "user_ratings_total": 1793, "vicinity": "Herzogstra\u00dfe 42, Wuppertal"}, {"business_status": "OPERATIONAL", "geometry": {"location": {"lat": 51.2557357, "lng": 7.137724299999999}, "viewport": {"northeast": {"lat": 51.25706477989272, "lng": 7.139034429892721}, "southwest": {"lat": 51.25436512010728, "lng": 7.136334770107277}}}, "icon": "https://maps.gstatic.com/mapfiles/place_api/icons/v1/png_71/restaurant-71.png", "icon_background_color": "#FF9E67", "icon_mask_base_uri": "https://maps.gstatic.com/mapfiles/place_api/icons/v2/restaurant_pinlet", "name": "Dios Taverne - Wuppertal", "opening_hours": {"open_now": true}, "photos": [{"height": 2448, "html_attributions": ["<a href=\"https://maps.google.com/maps/contrib/115149139776817905770\">Rk2018 SK2018</a>"], "photo_reference": "AUGGfZmKJDo6AQLRWdzjlPTxOFK40ezyJatxex7Pdl4qqDKxOxNUeMYHBO86FfsL7glYX4xPCpr1Cxu4811ws2p7MhHNYlaMGVzbIZXhV4hrCQvqat86Al8xrvT-DDKN6UrxwN93zaKBPJk_ndxpqOqTLOiC5O_V2Hq-2oomU3iyJEdBNXE", "width": 3264}], "place_id": "ChIJf2EB6QK5cUERkUTUmKr2_nk", "plus_code": {"compound_code": "744Q+72 Wuppertal, Germany", "global_code": "9F39744Q+72"}, "price_level": 1, "rating": 4.6, "reference": "ChIJf2EB6QK5cUERkUTUmKr2_nk", "scope": "GOOGLE", "types": ["meal_takeaway", "restaurant", "food", "point_of_interest", "establishment"], "user_ratings_total": 661, "vicinity": "Obergr\u00fcnewalder Str. 14, Wuppertal"}, {"business_status": "OPERATIONAL", "geometry": {"location": {"lat": 51.25735299999999, "lng": 7.149839}, "viewport": {"northeast": {"lat": 51.25863702989272, "lng": 7.151156879892721}, "southwest": {"lat": 51.25593737010728, "lng": 7.148457220107277}}}, "icon": "https://maps.gstatic.com/mapfiles/place_api/icons/v1/png_71/restaurant-71.png", "icon_background_color": "#FF9E67", "icon_mask_base_uri": "https://maps.gstatic.com/mapfiles/place_api/icons/v2/restaurant_pinlet", "name": "NORDSEE Wuppertal City Arkaden", "opening_hours": {"open_now": true}, "photos": [{"height": 4032, "html_attributions": ["<a href=\"https://maps.google.com/maps/contrib/100786770978318470429\">BananaTaha55 1</a>"], "photo_reference": "AUGGfZnmJ2foq25Md7S-XyynRmXxl1cQ6hFMz569WcO7qcM5dwxJHvWCdMbX7UgiOWjB1sgqSTEiOtWB1ySU_P4mDJyOez8NlWeDNzfAEii3pwSaLM1yYq0vptRnlAXZ0C1-V4dUhjH3wtu-8cxttD9EgYZA_vhzwpFb-Tb5StUC910exFaI", "width": 3024}], "place_id": "ChIJW5FkhLPXuEcRv8zd2RmI48c", "plus_code": {"compound_code": "744X+WW Wuppertal, Germany", "global_code": "9F39744X+WW"}, "price_level": 2, "rating": 3.8, "reference": "ChIJW5FkhLPXuEcRv8zd2RmI48c", "scope": "GOOGLE", "types": ["restaurant", "food", "point_of_interest", "establishment"], "user_ratings_total": 384, "vicinity": "Alte Freiheit 9, Wuppertal"}, {"business_status": "OPERATIONAL", "geometry": {"location": {"lat": 51.2573258, "lng": 7.148874999999999}, "viewport": {"northeast": {"lat": 51.25871022989272, "lng": 7.150343629892721}, "southwest": {"lat": 51.25601057010727, "lng": 7.147643970107278}}}, "icon": "https://maps.gstatic.com/mapfiles/place_api/icons/v1/png_71/restaurant-71.png", "icon_background_color": "#FF9E67", "icon_mask_base_uri": "https://maps.gstatic.com/mapfiles/place_api/icons/v2/restaurant_pinlet", "name": "TROJA Caf\u00e9 & Restaurant", "opening_hours": {"open_now": true}, "photos": [{"height": 1372, "html_attributions": ["<a href=\"https://maps.google.com/maps/contrib/118238389187341329993\">A. A.</a>"], "photo_reference": "AUGGfZn-NzNYmrsbItzwEJw2g07IdpLH2gz-dxm9-CK4HOdse18hnm766wIzP4TfuN0HmN3XUybSuMhMeSoywf_Y4VlfFVJfayBNVIP_j4pQjMzDyE6BZC8szs4QewsMEOpcamG9FwuOW_G4f1E4nQUMtD85u0KZM_rbfVmelo8mlXP3VLbm", "width": 2266}], "place_id": "ChIJAwAvnrPXuEcRC850a0OCctU", "plus_code": {"compound_code": "744X+WH Wuppertal, Germany", "global_code": "9F39744X+WH"}, "price_level": 2, "rating": 4.6, "reference": "ChIJAwAvnrPXuEcRC850a0OCctU", "scope": "GOOGLE", "types": ["restaurant", "food", "point_of_interest", "establishment"], "user_ratings_total": 2341, "vicinity": "Kipdorf 11, Wuppertal"}, {"business_status": "OPERATIONAL", "geometry": {"location": {"lat": 51.2552919, "lng": 7.1377543}, "viewport": {"northeast": {"lat": 51.25668332989272, "lng": 7.139076079892723}, "southwest": {"lat": 51.25398367010727, "lng": 7.136376420107279}}}, "icon": "https://maps.gstatic.com/mapfiles/place_api/icons/v1/png_71/cafe-71.png", "icon_background_color": "#FF9E67", "icon_mask_base_uri": "https://maps.gstatic.com/mapfiles/place_api/icons/v2/cafe_pinlet", "name": "Xaf\u00e9 Wuppertal", "opening_hours": {"open_now": true}, "photos": [{"height": 2341, "html_attributions": ["<a href=\"https://maps.google.com/maps/contrib/102221137977420187664\">Armand Hasa</a>"], "photo_reference": "AUGGfZltpM6QR6p2ONMmDwLNrrbLEAFed8KxbrKYo5nwn3FhelpZYStrOf_wtAzl1pH8l7PTSO0UH2dfCKKgYdNQ6NlpFnKrYxoqZ59kGjWdUbFGbujwUMrcg9X9IFdBknhwqxToPAyWSISYIhF-j5B7HQ5d5ScRaEZl01SxyITMvh5xnSGz", "width": 1784}], "place_id": "ChIJk983xdDXuEcRPvoWYzW1CuU", "plus_code": {"compound_code": "744Q+44 Wuppertal, Germany", "global_code": "9F39744Q+44"}, "price_level": 2, "rating": 4.6, "reference": "ChIJk983xdDXuEcRPvoWYzW1CuU", "scope": "GOOGLE", "types": ["cafe", "restaurant", "food", "point_of_interest", "establishment"], "user_ratings_total": 268, "vicinity": "Friedrich-Ebert-Stra\u00dfe 39, Wuppertal"}, {"business_status": "OPERATIONAL", "geometry": {"location": {"lat": 51.2582704, "lng": 7.1461228}, "viewport": {"northeast": {"lat": 51.25964467989272, "lng": 7.147550229892722}, "southwest": {"lat": 51.25694502010728, "lng": 7.144850570107279}}}, "icon": "https://maps.gstatic.com/mapfiles/place_api/icons/v1/png_71/restaurant-71.png", "icon_background_color": "#FF9E67", "icon_mask_base_uri": "https://maps.gstatic.com/mapfiles/place_api/icons/v2/restaurant_pinlet", "name": "NORDSEE Wuppertal Neumarkt", "opening_hours": {"open_now": true}, "photos": [{"height": 2736, "html_attributions": ["<a href=\"https://maps.google.com/maps/contrib/110868619173366916875\">Martin Hankel</a>"], "photo_reference": "AUGGfZkHUA2lItdVrPgHQWaugv-XQrpBhQTo8IZN6V1ZqdQwCzyeniEnuXr7NsGy9xMAHtU6qRfDhzoMt0tnnboiPmWncDjhDKuTd13_NpfpExZSpKvRv0R6sQ6_JsoQkRaL-zqOmUdk_9TLy9PmDT0oNIRYRXwEwPUylLl1PtSssyLZsP6P", "width": 3648}], "place_id": "ChIJMddiXLLXuEcRFDY50NFw9l4", "plus_code": {"compound_code": "745W+8C Wuppertal, Germany", "global_code": "9F39745W+8C"}, "price_level": 2, "rating": 4, "reference": "ChIJMddiXLLXuEcRFDY50NFw9l4", "scope": "GOOGLE", "types": ["restaurant", "food", "point_of_interest", "establishment"], "user_ratings_total": 498, "vicinity": "Neumarkt 28, Wuppertal"}, {"business_status": "OPERATIONAL", "geometry": {"location": {"lat": 51.2579413, "lng": 7.1497465}, "viewport": {"northeast": {"lat": 51.25933042989271, "lng": 7.151018079892721}, "southwest": {"lat": 51.25663077010727, "lng": 7.148318420107277}}}, "icon": "https://maps.gstatic.com/mapfiles/place_api/icons/v1/png_71/restaurant-71.png", "icon_background_color": "#FF9E67", "icon_mask_base_uri": "https://maps.gstatic.com/mapfiles/place_api/icons/v2/restaurant_pinlet", "name": "Vertellchen Bistro", "opening_hours": {"open_now": true}, "photos": [{"height": 3024, "html_attributions": ["<a href=\"https://maps.google.com/maps/contrib/111865763328890271544\">Mark Knight</a>"], "photo_reference": "AUGGfZnUEqvlO099wvZDEcti2mxhDqApPG-9uuJAXauuoodOp2eV8NRrh3msvyh-EaPiTvnzGPiMORxGkJyfx7GckWOa0mV3fp8Ljx4ujrBC_UjdhtwvG86spThvMPlu39-c565YhJ0ZlLD2aPJRRP3Kawlm9rdEu2JONqeTtl-9G9HRTuYq", "width": 4032}], "place_id": "ChIJY1bsDQK5cUERUIzzGeKe5hQ", "plus_code": {"compound_code": "745X+5V Wuppertal, Germany", "global_code": "9F39745X+5V"}, "rating": 4.4, "reference": "ChIJY1bsDQK5cUERUIzzGeKe5hQ", "scope": "GOOGLE", "types": ["restaurant", "food", "point_of_interest", "establishment"], "user_ratings_total": 53, "vicinity": "Kipdorf 28, Wuppertal"}, {"business_status": "OPERATIONAL", "geometry": {"location": {"lat": 51.25803459999999, "lng": 7.148806899999999}, "viewport": {"northeast": {"lat": 51.25934112989273, "lng": 7.150004179892721}, "southwest": {"lat": 51.25664147010728, "lng": 7.147304520107277}}}, "icon": "https://maps.gstatic.com/mapfiles/place_api/icons/v1/png_71/restaurant-71.png", "icon_background_color": "#FF9E67", "icon_mask_base_uri": "https://maps.gstatic.com/mapfiles/place_api/icons/v2/restaurant_pinlet", "name": "M\u00fcller Imbiss", "opening_hours": {"open_now": true}, "photos": [{"height": 2560, "html_attributions": ["<a href=\"https://maps.google.com/maps/contrib/110556456429710571367\">Christof</a>"], "photo_reference": "AUGGfZlxNx1pOs6EE6uvn_AI_pPVDOf30wv9XzpTLY4r9RESoEJqRTzUJZsJJd81w8tJDyfA-wiX9CG9Lr-82vN9kpymLPsqK4TfrpMQtqFkQYg1BITU8-vuMK10S_orOTVKcqFuxe0bh9m_AAzuAHtTikQnRr6MYefBEU0S5GfDh_dBMZYO", "width": 1440}], "place_id": "ChIJe6hqRbLXuEcR4epo3OFEI6A", "plus_code": {"compound_code": "745X+6G Wuppertal, Germany", "global_code": "9F39745X+6G"}, "price_level": 1, "rating": 3.3, "reference": "ChIJe6hqRbLXuEcR4epo3OFEI6A", "scope": "GOOGLE", "types": ["meal_takeaway", "restaurant", "food", "point_of_interest", "establishment"], "user_ratings_total": 43, "vicinity": "Platz am Kolk, Wuppertal"}, {"business_status": "OPERATIONAL", "geometry": {"location": {"lat": 51.2523101, "lng": 7.138013}, "viewport": {"northeast": {"lat": 51.25362342989271, "lng": 7.139311679892724}, "southwest": {"lat": 51.25092377010727, "lng": 7.13661202010728}}}, "icon": "https://maps.gstatic.com/mapfiles/place_api/icons/v1/png_71/generic_business-71.png", "icon_background_color": "#7B9EB0", "icon_mask_base_uri": "https://maps.gstatic.com/mapfiles/place_api/icons/v2/generic_pinlet", "name": "La Bottega 46", "opening_hours": {"open_now": false}, "photos": [{"height": 1069, "html_attributions": ["<a href=\"https://maps.google.com/maps/contrib/114312097485160884280\">Nikolaus Herbert</a>"], "photo_reference": "AUGGfZncVFTaJt-wjX4iYgjmb-1Rb3-P7cja3pBQXmv5hBiEmRzuMRGERIVf3l8iN8o0X8pAwiP4PHzvrhCTWe-Rtca52fcbsT8XIuanQ-SG9yJilaxs_Ik0jwMGKygpLOMvVOCqiveX1aNSND6TvNNCYUoHYJM9PCXNroSElbRQGaR6bJzm", "width": 2940}], "place_id": "ChIJ2xVIvYjXuEcRAF8xUGsUOKE", "plus_code": {"compound_code": "742Q+W6 Wuppertal, Germany", "global_code": "9F39742Q+W6"}, "rating": 3.7, "reference": "ChIJ2xVIvYjXuEcRAF8xUGsUOKE", "scope": "GOOGLE", "types": ["bowling_alley", "bar", "restaurant", "food", "point_of_interest", "establishment"], "user_ratings_total": 35, "vicinity": "Alsenstra\u00dfe 23, Wuppertal"}]