[{"business_status": "OPERATIONAL", "geometry": {"location": {"lat": 48.1435622, "lng": 17.107159}, "viewport": {"northeast": {"lat": 48.14493002989272, "lng": 17.10852452989272}, "southwest": {"lat": 48.14223037010728, "lng": 17.10582487010728}}}, "icon": "https://maps.gstatic.com/mapfiles/place_api/icons/v1/png_71/bar-71.png", "icon_background_color": "#FF9E67", "icon_mask_base_uri": "https://maps.gstatic.com/mapfiles/place_api/icons/v2/bar_pinlet", "name": "The Dubliner Irish Pub", "opening_hours": {"open_now": true}, "photos": [{"height": 2141, "html_attributions": ["<a href=\"https://maps.google.com/maps/contrib/109659928337175492809\">Stefan</a>"], "photo_reference": "AUGGfZm2oIRpCkc28SMPQ2O04TTC4pmp-9WcT4DRungKKMI65fpykdz_FxSgR6xKX7hZahJecRMN3ukpWG-eJBnG6g-zjsFJJcyGJqvtJnHmP1mlXuxXTubyZ6cVQvZf6Zh0kyBoykZJM8IHAHwIk_pfwoTvyvq6pgVMCbMJ9OucuXhh8uF2", "width": 4000}], "place_id": "ChIJKXrqK12JbEcR4ucgMRl9IvQ", "plus_code": {"compound_code": "44V4+CV Bratislava, Slovakia", "global_code": "8FWV44V4+CV"}, "price_level": 2, "rating": 4.3, "reference": "ChIJKXrqK12JbEcR4ucgMRl9IvQ", "scope": "GOOGLE", "types": ["bar", "restaurant", "point_of_interest", "food", "establishment"], "user_ratings_total": 4263, "vicinity": "Sedl\u00e1rska 6, Star\u00e9 Mesto"}, {"business_status": "OPERATIONAL", "geometry": {"location": {"lat": 48.1414801, "lng": 17.1067521}, "viewport": {"northeast": {"lat": 48.14274472989272, "lng": 17.10830212989272}, "southwest": {"lat": 48.14004507010728, "lng": 17.10560247010728}}}, "icon": "https://maps.gstatic.com/mapfiles/place_api/icons/v1/png_71/bar-71.png", "icon_background_color": "#FF9E67", "icon_mask_base_uri": "https://maps.gstatic.com/mapfiles/place_api/icons/v2/bar_pinlet", "name": "17\u2019s BAR", "opening_hours": {"open_now": true}, "photos": [{"height": 2268, "html_attributions": ["<a href=\"https://maps.google.com/maps/contrib/103206836045088472509\">Vojtech Vida</a>"], "photo_reference": "AUGGfZk-m26xtLJ5LXtbpvnHbFSOHTBwKoQvYBhz7984iZxpcWmanKa7yyMDtjW7yENsD5EGVcG_cI-ZFJ9TZx2-aByR7kjGLqpmPObyC4bGAcRG7g47yd97_oBV51s3VRop8rKyaeMvU0obKLFG0bKSIXbjYheDo2xe1yVkKXlZX5DHSUyP", "width": 4032}], "place_id": "ChIJL5CpqUKJbEcROR1xUmFYodk", "plus_code": {"compound_code": "44R4+HP Bratislava, Slovakia", "global_code": "8FWV44R4+HP"}, "price_level": 2, "rating": 4.5, "reference": "ChIJL5CpqUKJbEcROR1xUmFYodk", "scope": "GOOGLE", "types": ["bar", "restaurant", "point_of_interest", "food", "establishment"], "user_ratings_total": 2647, "vicinity": "Hviezdoslavovo n\u00e1mestie 171/17, Bratislava"}, {"business_status": "OPERATIONAL", "geometry": {"location": {"lat": 48.148371, "lng": 17.1123577}, "viewport": {"northeast": {"lat": 48.14994567989272, "lng": 17.11403597989272}, "southwest": {"lat": 48.14724602010727, "lng": 17.11133632010728}}}, "icon": "https://maps.gstatic.com/mapfiles/place_api/icons/v1/png_71/restaurant-71.png", "icon_background_color": "#FF9E67", "icon_mask_base_uri": "https://maps.gstatic.com/mapfiles/place_api/icons/v2/restaurant_pinlet", "name": "Slovak Pub", "opening_hours": {"open_now": false}, "photos": [{"height": 2976, "html_attributions": ["<a href=\"https://maps.google.com/maps/contrib/112023112624968672298\">A Google User</a>"], "photo_reference": "AUGGfZmzYV3-vCvhLdb1qF9Lw9zKxU5ZfejXWFPfeM4d3qmAT_q9FqmMNwuBCxHEORtPQfdVT-4GYyMsZUVlvgltOYWaNIwOlZiAUqRg0dWmYB4IYbbkFsNhcTeyd1kfdLNnKuMsxquDOW-rI0euMmrFwrp8pxQ8Ts_1ZtLDrT_VfIfZcUO-", "width": 3968}], "place_id": "ChIJu2IZH0WJbEcRzI6ZOFnnYRI", "plus_code": {"compound_code": "44X6+8W Bratislava, Slovakia", "global_code": "8FWV44X6+8W"}, "price_level": 2, "rating": 4.2, "reference": "ChIJu2IZH0WJbEcRzI6ZOFnnYRI", "scope": "GOOGLE", "types": ["restaurant", "bar", "point_of_interest", "food", "establishment"], "user_ratings_total": 12048, "vicinity": "62 613, Obchodn\u00e1, Bratislava"}, {"business_status": "OPERATIONAL", "geometry": {"location": {"lat": 48.1518058, "lng": 17.1072376}, "viewport": {"northeast": {"lat": 48.15306552989271, "lng": 17.10869857989272}, "southwest": {"lat": 48.15036587010727, "lng": 17.10599892010728}}}, "icon": "https://maps.gstatic.com/mapfiles/place_api/icons/v1/png_71/bar-71.png", "icon_background_color": "#FF9E67", "icon_mask_base_uri": "https://maps.gstatic.com/mapfiles/place_api/icons/v2/bar_pinlet", "name": "FABRIKA the beer pub", "opening_hours": {"open_now": true}, "photos": [{"height": 2320, "html_attributions": ["<a href=\"https://maps.google.com/maps/contrib/100210617036030582676\">Andrey Volkov</a>"], "photo_reference": "AUGGfZkXTZ4kQwVIBpOI603nHcnxSlaz-qF0j72CNrPpLUDFO_tAwU0I7T_9XRX9q0_UJKVw3DcBl7HqmT4sMheETKHHjToiSK6uPzvuHhht2sA1xg0ExUd46P8_f-BJQVUnff9Raq_yOBLf4GhJykTQIB3tqNAwTbblVGoLDXhkNCsnzLGH", "width": 4128}], "place_id": "ChIJuUI2n1CJbEcRdCHmojIQxSk", "plus_code": {"compound_code": "5424+PV Bratislava, Slovakia", "global_code": "8FWV5424+PV"}, "price_level": 3, "rating": 4.5, "reference": "ChIJuUI2n1CJbEcRdCHmojIQxSk", "scope": "GOOGLE", "types": ["bar", "restaurant", "point_of_interest", "food", "establishment"], "user_ratings_total": 3145, "vicinity": "\u0160tef\u00e1nikova 864/4, Star\u00e9 Mesto"}, {"business_status": "OPERATIONAL", "geometry": {"location": {"lat": 48.1305214, "lng": 17.0998728}, "viewport": {"northeast": {"lat": 48.13187122989272, "lng": 17.10122262989272}, "southwest": {"lat": 48.12917157010727, "lng": 17.09852297010728}}}, "icon": "https://maps.gstatic.com/mapfiles/place_api/icons/v1/png_71/restaurant-71.png", "icon_background_color": "#FF9E67", "icon_mask_base_uri": "https://maps.gstatic.com/mapfiles/place_api/icons/v2/restaurant_pinlet", "name": "Derby pub", "opening_hours": {"open_now": true}, "photos": [{"height": 480, "html_attributions": ["<a href=\"https://maps.google.com/maps/contrib/102366873048331092805\">A Google User</a>"], "photo_reference": "AUGGfZlkGAU_D45pu2kz0kWS-eOC6BeQMkRXAL0tTx7l1WDS7HTVOMdNQlMy_Ib8YtHXM0LLPqIBZmDzu432QerWo726fBDwBvN9M1rcZzdPq7Io-tYY2qLRCZsY5NlcZkLrIKiEo8eZB5KPpAt0VPhWPRv7C2FrAS0BcLz7MyNtEYoa8ihX", "width": 720}], "place_id": "ChIJh2oyd3CJbEcR0h1iOJtCCaE", "plus_code": {"compound_code": "43JX+6W Petr\u017ealka, Slovakia", "global_code": "8FWV43JX+6W"}, "price_level": 2, "rating": 4.2, "reference": "ChIJh2oyd3CJbEcR0h1iOJtCCaE", "scope": "GOOGLE", "types": ["restaurant", "bar", "point_of_interest", "food", "establishment"], "user_ratings_total": 554, "vicinity": "Nobelovo n\u00e1mestie 1, Nad Billou, Petr\u017ealka"}, {"business_status": "OPERATIONAL", "geometry": {"location": {"lat": 48.143582, "lng": 17.1069675}, "viewport": {"northeast": {"lat": 48.14497487989271, "lng": 17.10835492989272}, "southwest": {"lat": 48.14227522010727, "lng": 17.10565527010728}}}, "icon": "https://maps.gstatic.com/mapfiles/place_api/icons/v1/png_71/restaurant-71.png", "icon_background_color": "#FF9E67", "icon_mask_base_uri": "https://maps.gstatic.com/mapfiles/place_api/icons/v2/restaurant_pinlet", "name": "PHEASANT PUB", "opening_hours": {"open_now": true}, "photos": [{"height": 3000, "html_attributions": ["<a href=\"https://maps.google.com/maps/contrib/111742389380498674306\">Ond\u0159ej Ko\u0148a\u0159\u00edk</a>"], "photo_reference": "AUGGfZkheBUWvSD4yL7iNE0r1hdRmUO7h7otSDSWuGcmwiBxuzktsBdbYPIfIVeNDsvTOGLmRQ1Jj0P9GRmcaIGtF9v64oFaVb_-_hnCnubppJay4Cye-TR6duEajyDFKnifQFT_6b2mYsowLn9w8r3K-F_sZNyHQ9rMz44nfSsvV4fFo-B0", "width": 4000}], "place_id": "ChIJaVxrPn6JbEcRzlsnzsi0f_8", "plus_code": {"compound_code": "44V4+CQ Bratislava, Slovakia", "global_code": "8FWV44V4+CQ"}, "rating": 3.8, "reference": "ChIJaVxrPn6JbEcRzlsnzsi0f_8", "scope": "GOOGLE", "types": ["restaurant", "point_of_interest", "food", "establishment"], "user_ratings_total": 132, "vicinity": "Sedl\u00e1rska 6, Bratislava"}, {"business_status": "OPERATIONAL", "geometry": {"location": {"lat": 48.1628444, "lng": 17.1242665}, "viewport": {"northeast": {"lat": 48.16417777989273, "lng": 17.12565987989272}, "southwest": {"lat": 48.16147812010728, "lng": 17.12296022010728}}}, "icon": "https://maps.gstatic.com/mapfiles/place_api/icons/v1/png_71/bar-71.png", "icon_background_color": "#FF9E67", "icon_mask_base_uri": "https://maps.gstatic.com/mapfiles/place_api/icons/v2/bar_pinlet", "name": "Pub u Michaely", "opening_hours": {"open_now": true}, "photos": [{"height": 3359, "html_attributions": ["<a href=\"https://maps.google.com/maps/contrib/111344268118914289167\">Karol Bohm-Klein</a>"], "photo_reference": "AUGGfZkh8VLR9dtcldsWofmoUCOOatxnomF6PB0-TXap212xVn6R7X-deeK0vERQgIj8Ck3m1GurLm_t0SkEZH8veV8G-pPCQeamDM3O7dFEJEIXiwKpgt0_Iz3hxEZsS1K64nxTfr-5NlHGjK-isIJh9SFrozP_AF-UN6JUfDCFPUiqMBvo", "width": 3120}], "place_id": "ChIJmZT8PUePbEcRuJjmDZok1Bc", "plus_code": {"compound_code": "547F+4P Bratislava, Slovakia", "global_code": "8FWV547F+4P"}, "rating": 4.3, "reference": "ChIJmZT8PUePbEcRuJjmDZok1Bc", "scope": "GOOGLE", "types": ["bar", "restaurant", "point_of_interest", "food", "establishment"], "user_ratings_total": 83, "vicinity": "Ra\u010dianska 43, Bratislava"}, {"business_status": "OPERATIONAL", "geometry": {"location": {"lat": 48.1442196, "lng": 17.1073818}, "viewport": {"northeast": {"lat": 48.14601507989271, "lng": 17.10934407989272}, "southwest": {"lat": 48.14331542010727, "lng": 17.10664442010728}}}, "icon": "https://maps.gstatic.com/mapfiles/place_api/icons/v1/png_71/restaurant-71.png", "icon_background_color": "#FF9E67", "icon_mask_base_uri": "https://maps.gstatic.com/mapfiles/place_api/icons/v2/restaurant_pinlet", "name": "Factory Bratislava", "opening_hours": {"open_now": true}, "photos": [{"height": 9248, "html_attributions": ["<a href=\"https://maps.google.com/maps/contrib/116003683540788766580\">Bob FatAss</a>"], "photo_reference": "AUGGfZlf_bhsM2xoHze91wYfj0F_-JaxMK-RCG9W1tsQMJEkiF8SHvNCUbyHVHWMzOrdvsrsMfVGP2_TGMhzJZYV5qLkOJae2VBI0JXX4RZ3-aUaatpbFyFCE6UevQl-NY50rNLFw2o_4G-p98-eMvsYZ5eA82YkaZ1H-Bv9zMyoUIslCVfP", "width": 6936}], "place_id": "ChIJTe7VmH6JbEcRhxTCXMnlv30", "plus_code": {"compound_code": "44V4+MX Bratislava, Slovakia", "global_code": "8FWV44V4+MX"}, "price_level": 2, "rating": 4.4, "reference": "ChIJTe7VmH6JbEcRhxTCXMnlv30", "scope": "GOOGLE", "types": ["restaurant", "point_of_interest", "food", "establishment"], "user_ratings_total": 601, "vicinity": "Biela 5, Bratislava"}, {"business_status": "OPERATIONAL", "geometry": {"location": {"lat": 48.1547043, "lng": 17.1190439}, "viewport": {"northeast": {"lat": 48.15604767989273, "lng": 17.12043762989272}, "southwest": {"lat": 48.15334802010728, "lng": 17.11773797010728}}}, "icon": "https://maps.gstatic.com/mapfiles/place_api/icons/v1/png_71/restaurant-71.png", "icon_background_color": "#FF9E67", "icon_mask_base_uri": "https://maps.gstatic.com/mapfiles/place_api/icons/v2/restaurant_pinlet", "name": "\u010cesk\u00e1 pivnica", "opening_hours": {"open_now": true}, "photos": [{"height": 960, "html_attributions": ["<a href=\"https://maps.google.com/maps/contrib/111150311265352946951\">A Google User</a>"], "photo_reference": "AUGGfZlXlx3bS5je0MWsD4oM1_QsLFGrhT5uuaRc3YCfU0sd9i3w0cPi8xBkmlOWDu4GxkEK1KEUPMLrp3knIwspzhZI-bDsE3uKsAtc8smSlvNSfBrZGd5WocUJDyZ_JRB5HzrhCgYEp1Urhp909tkiUFDE3ENMlbw174CfTUWhmQ_NkJxy", "width": 1920}], "place_id": "ChIJKQBlnU6JbEcRfDzjlClDaYg", "plus_code": {"compound_code": "5439+VJ Bratislava, Slovakia", "global_code": "8FWV5439+VJ"}, "price_level": 2, "rating": 4, "reference": "ChIJKQBlnU6JbEcRfDzjlClDaYg", "scope": "GOOGLE", "types": ["restaurant", "bar", "point_of_interest", "food", "establishment"], "user_ratings_total": 780, "vicinity": "Radlinsk\u00e9ho 39, Star\u00e9 Mesto"}, {"business_status": "OPERATIONAL", "geometry": {"location": {"lat": 48.166572, "lng": 17.1383474}, "viewport": {"northeast": {"lat": 48.16796422989272, "lng": 17.13960822989272}, "southwest": {"lat": 48.16526457010728, "lng": 17.13690857010728}}}, "icon": "https://maps.gstatic.com/mapfiles/place_api/icons/v1/png_71/restaurant-71.png", "icon_background_color": "#FF9E67", "icon_mask_base_uri": "https://maps.gstatic.com/mapfiles/place_api/icons/v2/restaurant_pinlet", "name": "\u0160port Pub U Belas\u00fdch", "opening_hours": {"open_now": true}, "photos": [{"height": 3654, "html_attributions": ["<a href=\"https://maps.google.com/maps/contrib/107437842149865163788\">A Google User</a>"], "photo_reference": "AUGGfZl4OC_1xkiBqxzyC4vXi-Q3f1SHgSw2TRYi0rhbf4MR5zNAOYLFhpNEAwMQZXod7uK-XlGvIwtYfPVfOu4LP7invq3vzfiSqWXnUilvCzbt1QTjkDT6DJrTmzk31YtshEPrBnoRXs0ey_1xkAQ4mTsVfUOACdMPBU-im8EPUhc2vbKY", "width": 5480}], "place_id": "ChIJMd6gbciObEcRl720C7D5fzA", "plus_code": {"compound_code": "548Q+J8 Bratislava, Slovakia", "global_code": "8FWV548Q+J8"}, "price_level": 1, "rating": 4.1, "reference": "ChIJMd6gbciObEcRl720C7D5fzA", "scope": "GOOGLE", "types": ["restaurant", "bar", "point_of_interest", "food", "establishment"], "user_ratings_total": 858, "vicinity": "Jun\u00e1cka 4, Nov\u00e9 Mesto"}, {"business_status": "OPERATIONAL", "geometry": {"location": {"lat": 48.1497629, "lng": 17.1143265}, "viewport": {"northeast": {"lat": 48.15113762989272, "lng": 17.11562662989272}, "southwest": {"lat": 48.14843797010727, "lng": 17.11292697010728}}}, "icon": "https://maps.gstatic.com/mapfiles/place_api/icons/v1/png_71/bar-71.png", "icon_background_color": "#FF9E67", "icon_mask_base_uri": "https://maps.gstatic.com/mapfiles/place_api/icons/v2/bar_pinlet", "name": "The International Bar", "opening_hours": {"open_now": true}, "photos": [{"height": 750, "html_attributions": ["<a href=\"https://maps.google.com/maps/contrib/110054160605185128439\">A Google User</a>"], "photo_reference": "AUGGfZn71V0mgG3rrtIrW7Vd0l6KywxzeoDdqf1aM1Oim_vg1GNrtQX_axPXiWXZJHn_fJcZPKiey4QQD5D6r_5_k5E7ZmozmvhIQ6sEIRpO-zuNAlq9JMr2sxCnhUpzruzsRMrITkD_0AgjM_TisOPRnRkCTVyHMh-BZMP_DGvb3qiUMrgQ", "width": 1334}], "place_id": "ChIJc1nhaT6JbEcRvkiaf-FYsKQ", "plus_code": {"compound_code": "44X7+WP Bratislava, Slovakia", "global_code": "8FWV44X7+WP"}, "price_level": 2, "rating": 4.7, "reference": "ChIJc1nhaT6JbEcRvkiaf-FYsKQ", "scope": "GOOGLE", "types": ["bar", "point_of_interest", "establishment"], "user_ratings_total": 146, "vicinity": "Radlinsk\u00e9ho 2, Bratislava"}, {"business_status": "OPERATIONAL", "geometry": {"location": {"lat": 48.1443303, "lng": 17.1132059}, "viewport": {"northeast": {"lat": 48.14563922989272, "lng": 17.11458297989272}, "southwest": {"lat": 48.14293957010727, "lng": 17.11188332010728}}}, "icon": "https://maps.gstatic.com/mapfiles/place_api/icons/v1/png_71/bar-71.png", "icon_background_color": "#FF9E67", "icon_mask_base_uri": "https://maps.gstatic.com/mapfiles/place_api/icons/v2/bar_pinlet", "name": "Steinplatz Bar", "opening_hours": {"open_now": true}, "photos": [{"height": 2533, "html_attributions": ["<a href=\"https://maps.google.com/maps/contrib/109185223476011304850\">A Google User</a>"], "photo_reference": "AUGGfZl-kDrbL6ftZUxWh__RDywsDPT5ruJTs_qSKaDQ2dUU5W_9vm7aeWbglLoYEh45LiBlZ_SlivvS_4feQEQ_KiLw20EBgJLCsKQm49QPtDKyP__ApPRhb-o2YqO6VDEoakmCoBwMft5DJVaw-NxagnNr_19dw-noT6g0DfQgH4yVU_Ll", "width": 3648}], "place_id": "ChIJQ8iDlUOJbEcRfOUhMNc9_xM", "plus_code": {"compound_code": "44V7+P7 Bratislava, Slovakia", "global_code": "8FWV44V7+P7"}, "price_level": 2, "rating": 4.4, "reference": "ChIJQ8iDlUOJbEcRfOUhMNc9_xM", "scope": "GOOGLE", "types": ["bar", "restaurant", "point_of_interest", "food", "establishment"], "user_ratings_total": 1077, "vicinity": "Kamenn\u00e9 N\u00e1mestie, Star\u00e9 Mesto"}, {"business_status": "OPERATIONAL", "geometry": {"location": {"lat": 48.1489549, "lng": 17.1106253}, "viewport": {"northeast": {"lat": 48.15028807989273, "lng": 17.11198532989272}, "southwest": {"lat": 48.14758842010728, "lng": 17.10928567010728}}}, "icon": "https://maps.gstatic.com/mapfiles/place_api/icons/v1/png_71/bar-71.png", "icon_background_color": "#FF9E67", "icon_mask_base_uri": "https://maps.gstatic.com/mapfiles/place_api/icons/v2/bar_pinlet", "name": "Me\u0161uge Craft Beer Pub", "opening_hours": {"open_now": true}, "photos": [{"height": 3000, "html_attributions": ["<a href=\"https://maps.google.com/maps/contrib/117971941253379146602\">Paul Allen</a>"], "photo_reference": "AUGGfZkEqm-m0m8PftYC6ibb49i-aGUTWdqlzbAxRiD8KqUhVQ47K6bCpmC6LwZ2HQOJnevrv-qx9GIrrfpRm3ra5KAcAeskLP4swdwoRNXU_Vh0HGB8FK_4_ouzZZcj5TXVs2wSUSnvJvQqFRemMV_lNNrXbPTegPxZmTK-cr60UIaqWWce", "width": 4000}], "place_id": "ChIJVTvo0lqJbEcRAiVll4Y-2QY", "plus_code": {"compound_code": "44X6+H7 Bratislava, Slovakia", "global_code": "8FWV44X6+H7"}, "price_level": 2, "rating": 4.5, "reference": "ChIJVTvo0lqJbEcRAiVll4Y-2QY", "scope": "GOOGLE", "types": ["bar", "restaurant", "point_of_interest", "food", "establishment"], "user_ratings_total": 1077, "vicinity": "Vysok\u00e1 15, Bratislava"}, {"business_status": "OPERATIONAL", "geometry": {"location": {"lat": 48.1473913, "lng": 17.1103568}, "viewport": {"northeast": {"lat": 48.14849817989273, "lng": 17.11200047989272}, "southwest": {"lat": 48.14579852010728, "lng": 17.10930082010728}}}, "icon": "https://maps.gstatic.com/mapfiles/place_api/icons/v1/png_71/bar-71.png", "icon_background_color": "#FF9E67", "icon_mask_base_uri": "https://maps.gstatic.com/mapfiles/place_api/icons/v2/bar_pinlet", "name": "Pilsner Factory", "opening_hours": {"open_now": true}, "photos": [{"height": 3024, "html_attributions": ["<a href=\"https://maps.google.com/maps/contrib/100248754856261357369\">A Google User</a>"], "photo_reference": "AUGGfZkrDZ-R63TSJT7QHD3khIPcRRl2v051iRKvzzMBrzhqBgB2-816NtoVI9zjiyUdb8OgSYuqWrx6_PPi8TUY5XyW9SJJ8uSJiwKNj2TA-bSDinSBTxwRvuPp1e34E_Pq0gdgUfCOXbBRGuKafTNR0-bFKn8x_AI81U3Z09dpspwsZ_h0", "width": 4032}], "place_id": "ChIJM8IPIJSJbEcR-bVKgZwnX6s", "plus_code": {"compound_code": "44W6+X4 Bratislava, Slovakia", "global_code": "8FWV44W6+X4"}, "rating": 4, "reference": "ChIJM8IPIJSJbEcR-bVKgZwnX6s", "scope": "GOOGLE", "types": ["bar", "restaurant", "point_of_interest", "food", "establishment"], "user_ratings_total": 49, "vicinity": "Obchodn\u00e1 32, Bratislava"}, {"business_status": "OPERATIONAL", "geometry": {"location": {"lat": 48.1480586, "lng": 17.1117081}, "viewport": {"northeast": {"lat": 48.14979002989273, "lng": 17.11378135}, "southwest": {"lat": 48.14709037010729, "lng": 17.11094035}}}, "icon": "https://maps.gstatic.com/mapfiles/place_api/icons/v1/png_71/bar-71.png", "icon_background_color": "#FF9E67", "icon_mask_base_uri": "https://maps.gstatic.com/mapfiles/place_api/icons/v2/bar_pinlet", "name": "KGB Pub", "opening_hours": {"open_now": true}, "photos": [{"height": 3024, "html_attributions": ["<a href=\"https://maps.google.com/maps/contrib/105424797216825584013\">Cinzia Pozza</a>"], "photo_reference": "AUGGfZlk4Xj3ATCnWGDW_BT7Kq9QnOpFzGItvq2bTm3NKhF9au0yATjpkhYwL-mc2oJ5SFIgqKE-74Q4te9i6SiQ5E45PRGfdYwpmWnTE32f4gy5LV3Pxr_sLaDFiNS8natbAWLdhauPxKcgJMsgC5uZbtbNwF3XzkJJKTljlqk1PQJQxkT7", "width": 4032}], "place_id": "ChIJpQn73kSJbEcR3yUA9D7nfR4", "plus_code": {"compound_code": "44X6+6M Bratislava, Slovakia", "global_code": "8FWV44X6+6M"}, "price_level": 1, "rating": 4.1, "reference": "ChIJpQn73kSJbEcR3yUA9D7nfR4", "scope": "GOOGLE", "types": ["bar", "restaurant", "point_of_interest", "food", "establishment"], "user_ratings_total": 1719, "vicinity": "Obchodn\u00e1 530/52, Star\u00e9 Mesto"}, {"business_status": "OPERATIONAL", "geometry": {"location": {"lat": 48.1428833, "lng": 17.1104852}, "viewport": {"northeast": {"lat": 48.14419077989272, "lng": 17.11187197989272}, "southwest": {"lat": 48.14149112010728, "lng": 17.10917232010728}}}, "icon": "https://maps.gstatic.com/mapfiles/place_api/icons/v1/png_71/bar-71.png", "icon_background_color": "#FF9E67", "icon_mask_base_uri": "https://maps.gstatic.com/mapfiles/place_api/icons/v2/bar_pinlet", "name": "Beer Palace", "opening_hours": {"open_now": false}, "photos": [{"height": 3024, "html_attributions": ["<a href=\"https://maps.google.com/maps/contrib/113785385176534133047\">Alexander Potapenko</a>"], "photo_reference": "AUGGfZn3rKhS4gj7ZYeAiGqfLoyXxU2I3pWz6PWeVYuNItBlzb9psvcy7-QYeqnso7Sr3B0wGlnuXkOxat79gOyQVXMd9dKMOtZOunmgp30RLdkkWPc5y1Bpc1rybwAI6bYVIo3giqiYr7smgvuxRm5thsPhKI9xNoYsqrmn_nTwSx4MQzDF", "width": 4032}], "place_id": "ChIJrwaQ-EKJbEcRksDQZc4ADJQ", "plus_code": {"compound_code": "44V6+55 Bratislava, Slovakia", "global_code": "8FWV44V6+55"}, "price_level": 2, "rating": 4.1, "reference": "ChIJrwaQ-EKJbEcRksDQZc4ADJQ", "scope": "GOOGLE", "types": ["bar", "restaurant", "point_of_interest", "food", "establishment"], "user_ratings_total": 1423, "vicinity": "Gork\u00e9ho 210, Bratislava"}, {"business_status": "OPERATIONAL", "geometry": {"location": {"lat": 48.1474337, "lng": 17.1085101}, "viewport": {"northeast": {"lat": 48.14878352989273, "lng": 17.10985992989272}, "southwest": {"lat": 48.14608387010728, "lng": 17.10716027010728}}}, "icon": "https://maps.gstatic.com/mapfiles/place_api/icons/v1/png_71/bar-71.png", "icon_background_color": "#FF9E67", "icon_mask_base_uri": "https://maps.gstatic.com/mapfiles/place_api/icons/v2/bar_pinlet", "name": "Plaza Bar", "opening_hours": {"open_now": true}, "photos": [{"height": 3840, "html_attributions": ["<a href=\"https://maps.google.com/maps/contrib/103706322009026757890\">A Google User</a>"], "photo_reference": "AUGGfZn0u38uobctNXsrJG88ER2lZJlTdaY0Pr4VO3t1ilCle2j0viGgiRXjpOzOH_1CMYXY_loWg9yDom6ztl2M2DfbhE8Qy47Iqe7TXqkjTwqqLwRTA73F2hu5hn85EVrqZPTRHQry5A4FVjx2R4JFEBWOpvFV8bWJbxmOHzYNXKHOhS-Z", "width": 5760}], "place_id": "ChIJY7hGULmJbEcR6cA3aGeq8lo", "plus_code": {"compound_code": "44W5+XC Bratislava, Slovakia", "global_code": "8FWV44W5+XC"}, "rating": 3.5, "reference": "ChIJY7hGULmJbEcR6cA3aGeq8lo", "scope": "GOOGLE", "types": ["bar", "restaurant", "point_of_interest", "food", "establishment"], "user_ratings_total": 4, "vicinity": "Podchod Hod\u017eovo n\u00e1mestie 2, Bratislava"}, {"business_status": "OPERATIONAL", "geometry": {"location": {"lat": 48.1537689, "lng": 17.1251059}, "viewport": {"northeast": {"lat": 48.15507972989272, "lng": 17.12648247989272}, "southwest": {"lat": 48.15238007010727, "lng": 17.12378282010727}}}, "icon": "https://maps.gstatic.com/mapfiles/place_api/icons/v1/png_71/bar-71.png", "icon_background_color": "#FF9E67", "icon_mask_base_uri": "https://maps.gstatic.com/mapfiles/place_api/icons/v2/bar_pinlet", "name": "Zora-pub", "opening_hours": {"open_now": false}, "photos": [{"height": 1536, "html_attributions": ["<a href=\"https://maps.google.com/maps/contrib/102907507173946121991\">R\u00f3bert</a>"], "photo_reference": "AUGGfZl_cSz3MH0kdZFsC9qvJOlFpDinYXGGoyycORPdrSAiCDyIRIfJDskNd1_UOiDYE_EVH-b3vMklE1CpJZHjZGnc-TgD9eOAY8nNTFD1o9BNCXmcjB2KEs3MO7BTFDzAmRuBABIaCz8E0b5LFrjdd7eNQYhnL_ZoJ__IZNKFKg1MG-sX", "width": 2048}], "place_id": "ChIJ8ywph0mJbEcReoezrNE2fAQ", "plus_code": {"compound_code": "543G+G2 Bratislava, Slovakia", "global_code": "8FWV543G+G2"}, "price_level": 1, "rating": 4.2, "reference": "ChIJ8ywph0mJbEcReoezrNE2fAQ", "scope": "GOOGLE", "types": ["bar", "restaurant", "point_of_interest", "food", "establishment"], "user_ratings_total": 388, "vicinity": "Z\u00e1hradn\u00edcka 37, Star\u00e9 Mesto"}, {"business_status": "OPERATIONAL", "geometry": {"location": {"lat": 48.1523626, "lng": 17.1170646}, "viewport": {"northeast": {"lat": 48.15370847989272, "lng": 17.11840947989272}, "southwest": {"lat": 48.15100882010728, "lng": 17.11570982010728}}}, "icon": "https://maps.gstatic.com/mapfiles/place_api/icons/v1/png_71/bar-71.png", "icon_background_color": "#FF9E67", "icon_mask_base_uri": "https://maps.gstatic.com/mapfiles/place_api/icons/v2/bar_pinlet", "name": "Urpiner Pub", "opening_hours": {"open_now": false}, "photos": [{"height": 1840, "html_attributions": ["<a href=\"https://maps.google.com/maps/contrib/112966615874498657678\">Rastislav</a>"], "photo_reference": "AUGGfZmFNs6Hn2q9HvYiP2587QXKxaZyFfSm-iF-vDvp6Mm-eeg8594PDDEU0q7ZSHvxy0PuZKJUVm32XepflSZJJjBbPT4-Rqw5dfvRvKZvtmJX1PYT8V7wNPNx9JolGB5U3Vma4rpiojKfVJSUEuvP8wSxSRhYbBlqoYZS2cIOewIWGOiA", "width": 3264}], "place_id": "ChIJAaimA0-JbEcRHjul5nJmLnU", "plus_code": {"compound_code": "5428+WR Bratislava, Slovakia", "global_code": "8FWV5428+WR"}, "price_level": 1, "rating": 4.7, "reference": "ChIJAaimA0-JbEcRHjul5nJmLnU", "scope": "GOOGLE", "types": ["bar", "restaurant", "point_of_interest", "food", "establishment"], "user_ratings_total": 414, "vicinity": "\u0160kolsk\u00e1 12, Star\u00e9 Mesto"}, {"business_status": "OPERATIONAL", "geometry": {"location": {"lat": 48.144567, "lng": 17.0798802}, "viewport": {"northeast": {"lat": 48.14586507989272, "lng": 17.08117517989272}, "southwest": {"lat": 48.14316542010727, "lng": 17.07847552010728}}}, "icon": "https://maps.gstatic.com/mapfiles/place_api/icons/v1/png_71/restaurant-71.png", "icon_background_color": "#FF9E67", "icon_mask_base_uri": "https://maps.gstatic.com/mapfiles/place_api/icons/v2/restaurant_pinlet", "name": "Machn\u00e1\u010d Pub", "opening_hours": {"open_now": true}, "photos": [{"height": 3004, "html_attributions": ["<a href=\"https://maps.google.com/maps/contrib/101978742773749722769\">Tomi T\u00f3th</a>"], "photo_reference": "AUGGfZlnMqp-dDgtP7688VOdzbvHbza4AvqVvyNzt2kYtxw6MAOdc6NgYFmc6L_L3KJrOCugCBbDL9d1QXW8RH7mpLMVmzBcKvkPyq9eSjB1d6hidkZkhEiD1kYFWU8-W-X6SHCvJJoYDeePStz-hQW4hSH8HRLqYnpuIPyG4cXWsMfpVIMR", "width": 5325}], "place_id": "ChIJI51YRN2LbEcRsmToJXahHSM", "plus_code": {"compound_code": "43VH+RX Bratislava, Slovakia", "global_code": "8FWV43VH+RX"}, "price_level": 2, "rating": 4.3, "reference": "ChIJI51YRN2LbEcRsmToJXahHSM", "scope": "GOOGLE", "types": ["restaurant", "point_of_interest", "food", "establishment"], "user_ratings_total": 844, "vicinity": "N\u00e1bre\u017eie arm\u00e1dneho gener\u00e1la Ludv\u00edka Svobodu 42, Star\u00e9 Mesto"}]