[{"business_status": "OPERATIONAL", "geometry": {"location": {"lat": 53.40196760000001, "lng": -2.1756208}, "viewport": {"northeast": {"lat": 53.40330342989272, "lng": -2.174345570107278}, "southwest": {"lat": 53.40060377010728, "lng": -2.177045229892722}}}, "icon": "https://maps.gstatic.com/mapfiles/place_api/icons/v1/png_71/bar-71.png", "icon_background_color": "#FF9E67", "icon_mask_base_uri": "https://maps.gstatic.com/mapfiles/place_api/icons/v2/bar_pinlet", "name": "The Alexandra", "opening_hours": {"open_now": true}, "photos": [{"height": 2976, "html_attributions": ["<a href=\"https://maps.google.com/maps/contrib/113264272603602460545\">Mary Hartley</a>"], "photo_reference": "AUc7tXXCxSymv9N4nWqdptGedcAISq9_wg1Br1Bd2CVYEAI3Oyf9Vsxa7yKQ2cbwGKbyUeuSiPZW8E1homsv_cWYxA-ObF6lEH7L2DnibXw9ByNnGryJ1W0PcsM0EQspiTDQI2fbIRph5nLhPbdDmXCClmNDULLQHqxVwr0qvRiu1BiTgF5p", "width": 3968}], "place_id": "ChIJRa5FKWmze0gRuBK6Igz2LRE", "plus_code": {"compound_code": "CR2F+QQ Stockport, United Kingdom", "global_code": "9C5VCR2F+QQ"}, "price_level": 2, "rating": 4.4, "reference": "ChIJRa5FKWmze0gRuBK6Igz2LRE", "scope": "GOOGLE", "types": ["bar", "point_of_interest", "establishment"], "user_ratings_total": 329, "vicinity": "195 Northgate Rd, Edgeley, Stockport"}, {"business_status": "OPERATIONAL", "geometry": {"location": {"lat": 53.4119792, "lng": -2.1549056}, "viewport": {"northeast": {"lat": 53.41328937989272, "lng": -2.153486470107278}, "southwest": {"lat": 53.41058972010728, "lng": -2.156186129892723}}}, "icon": "https://maps.gstatic.com/mapfiles/place_api/icons/v1/png_71/bar-71.png", "icon_background_color": "#FF9E67", "icon_mask_base_uri": "https://maps.gstatic.com/mapfiles/place_api/icons/v2/bar_pinlet", "name": "The Arden Arms", "opening_hours": {"open_now": true}, "photos": [{"height": 3024, "html_attributions": ["<a href=\"https://maps.google.com/maps/contrib/107073168946530770016\">The Arden Arms</a>"], "photo_reference": "AUc7tXUHoOJ1DDASfn_xsLlZ-wl7B3pwNnYz1Z5UrLqMR4AkU3LNtoI3X921br73dwGpUHLADQGhSlGz5CRuWXW4mqQHzAtzlqw7EpcS6rRvsrxhxAIIFQOI-FL_M2ygJmyMDV4C1ct1rISjdXdnpuUfSit9WgPa9OkakIv6OH2OMWK72qtv", "width": 4032}], "place_id": "ChIJUylJ0n-ze0gRtNc9ACswrmc", "plus_code": {"compound_code": "CR6W+Q2 Stockport, United Kingdom", "global_code": "9C5VCR6W+Q2"}, "price_level": 2, "rating": 4.6, "reference": "ChIJUylJ0n-ze0gRtNc9ACswrmc", "scope": "GOOGLE", "types": ["bar", "restaurant", "food", "point_of_interest", "establishment"], "user_ratings_total": 1264, "vicinity": "23 Millgate, Stockport"}, {"business_status": "OPERATIONAL", "geometry": {"location": {"lat": 53.4027804, "lng": -2.1620737}, "viewport": {"northeast": {"lat": 53.40409957989272, "lng": -2.160842020107277}, "southwest": {"lat": 53.40139992010728, "lng": -2.163541679892722}}}, "icon": "https://maps.gstatic.com/mapfiles/place_api/icons/v1/png_71/bar-71.png", "icon_background_color": "#FF9E67", "icon_mask_base_uri": "https://maps.gstatic.com/mapfiles/place_api/icons/v2/bar_pinlet", "name": "The Armoury, Shaw Heath", "opening_hours": {"open_now": true}, "photos": [{"height": 3072, "html_attributions": ["<a href=\"https://maps.google.com/maps/contrib/114254474238576895699\">Alan Jones</a>"], "photo_reference": "AUc7tXUMbxOwMwQOyZaY4DCu31qUEWyl1cvVS58xqWZ-8hRALWUkCJNeskN9uV4KBAZSBJb_-tuJZ1M8kbBfcCmD4chJwXmr5Vr-0Fk_2eR6trWQ4k1sXIoiVl6r8eRmga0cfbc6Xqx8SRer-eqXdfH7qjrjqYL6XK3t0n79tor4pb-pgvWL", "width": 4080}], "place_id": "ChIJl1FRz2Sze0gR_a6CIVpDGWM", "plus_code": {"compound_code": "CR3Q+45 Stockport, United Kingdom", "global_code": "9C5VCR3Q+45"}, "price_level": 2, "rating": 4.4, "reference": "ChIJl1FRz2Sze0gR_a6CIVpDGWM", "scope": "GOOGLE", "types": ["bar", "restaurant", "food", "point_of_interest", "establishment"], "user_ratings_total": 451, "vicinity": "31 Shaw Heath, Stockport"}, {"business_status": "OPERATIONAL", "geometry": {"location": {"lat": 53.4073362, "lng": -2.1598425}, "viewport": {"northeast": {"lat": 53.40866432989272, "lng": -2.158557520107278}, "southwest": {"lat": 53.40596467010727, "lng": -2.161257179892722}}}, "icon": "https://maps.gstatic.com/mapfiles/place_api/icons/v1/png_71/bar-71.png", "icon_background_color": "#FF9E67", "icon_mask_base_uri": "https://maps.gstatic.com/mapfiles/place_api/icons/v2/bar_pinlet", "name": "The Wellington - Stockport", "opening_hours": {"open_now": true}, "photos": [{"height": 3456, "html_attributions": ["<a href=\"https://maps.google.com/maps/contrib/114892261058801987920\">A Google User</a>"], "photo_reference": "AUc7tXX7tAOLFx9V5S99ItIB7QufuX_hXglA_PtcTVxPu0fHsH5SxUk7Y5P7jAdJ1RZkSfme84Sv_r5oReQkwKQF-H218r5sCqwLtydf4CSMQwy5FbsQzC5CHzpRKVhdiSgTQYGH9vCwR_Dl_WQMCV6gEWn2FzFe3Ktyat9lXW1vTYZYbodS", "width": 5184}], "place_id": "ChIJAc1Icnyze0gR6gI0CNwjnv0", "plus_code": {"compound_code": "CR4R+W3 Stockport, United Kingdom", "global_code": "9C5VCR4R+W3"}, "price_level": 2, "rating": 4.5, "reference": "ChIJAc1Icnyze0gR6gI0CNwjnv0", "scope": "GOOGLE", "types": ["bar", "point_of_interest", "establishment"], "user_ratings_total": 539, "vicinity": "59-61 Wellington Rd S, Stockport"}, {"business_status": "OPERATIONAL", "geometry": {"location": {"lat": 53.4041162, "lng": -2.1376136}, "viewport": {"northeast": {"lat": 53.40548312989272, "lng": -2.136302520107278}, "southwest": {"lat": 53.40278347010727, "lng": -2.139002179892723}}}, "icon": "https://maps.gstatic.com/mapfiles/place_api/icons/v1/png_71/bar-71.png", "icon_background_color": "#FF9E67", "icon_mask_base_uri": "https://maps.gstatic.com/mapfiles/place_api/icons/v2/bar_pinlet", "name": "Gardeners Arms", "opening_hours": {"open_now": true}, "photos": [{"height": 3024, "html_attributions": ["<a href=\"https://maps.google.com/maps/contrib/104274950869608309722\">Gary Edgington</a>"], "photo_reference": "AUc7tXWXSjCDBTnTHFyZHYyR4fA3US09845SoRL6PsYvn1YJxVwhxgujp9yWrGOPxGvvwi5Lv2rgD9xbGoSd9KMfWMihr7Exk87lMUMTVewt3WSSM41Eews2HYHHwSXVqWcEU97CaG4wsfRpPdXYYorDsHahX3v9OIdnBhKueTSS6IMxK9YY", "width": 4032}], "place_id": "ChIJ4c7A1Y-0e0gRpLK4F7H9EqM", "plus_code": {"compound_code": "CV36+JX Stockport, United Kingdom", "global_code": "9C5VCV36+JX"}, "price_level": 1, "rating": 4.3, "reference": "ChIJ4c7A1Y-0e0gRpLK4F7H9EqM", "scope": "GOOGLE", "types": ["bar", "restaurant", "food", "point_of_interest", "establishment"], "user_ratings_total": 250, "vicinity": "Little St, Offerton, Stockport"}, {"business_status": "OPERATIONAL", "geometry": {"location": {"lat": 53.4014786, "lng": -2.1677702}, "viewport": {"northeast": {"lat": 53.40280477989272, "lng": -2.166352520107278}, "southwest": {"lat": 53.40010512010728, "lng": -2.169052179892722}}}, "icon": "https://maps.gstatic.com/mapfiles/place_api/icons/v1/png_71/bar-71.png", "icon_background_color": "#FF9E67", "icon_mask_base_uri": "https://maps.gstatic.com/mapfiles/place_api/icons/v2/bar_pinlet", "name": "The Prince Albert", "opening_hours": {"open_now": true}, "photos": [{"height": 1839, "html_attributions": ["<a href=\"https://maps.google.com/maps/contrib/114958568611504261954\">Martin Lewis</a>"], "photo_reference": "AUc7tXUl2qlQ5kB_mYeFJ9xFqbdj_OwIvCBz__2N9fkdHaboiWrM7Xwoi31yMAu9Kj-t3vJzGEPFU6oTQQVPPqd5Mgx9jFSMnI9NQU-GC1Fy6KlXpp_Q5ByxsBUTp41Xx6vkm7eCG4JBiHiyN38ST_YI60HzEdU5jIERlLYz9gqcK9lJ8HV_", "width": 1800}], "place_id": "ChIJW4k3l2-ze0gRIvmwbtQvK7I", "plus_code": {"compound_code": "CR2J+HV Stockport, United Kingdom", "global_code": "9C5VCR2J+HV"}, "price_level": 1, "rating": 4.3, "reference": "ChIJW4k3l2-ze0gRIvmwbtQvK7I", "scope": "GOOGLE", "types": ["bar", "point_of_interest", "establishment"], "user_ratings_total": 246, "vicinity": "107 Castle St, Edgeley, Stockport"}, {"business_status": "OPERATIONAL", "geometry": {"location": {"lat": 53.3982561, "lng": -2.1527735}, "viewport": {"northeast": {"lat": 53.39964327989272, "lng": -2.151350720107278}, "southwest": {"lat": 53.39694362010728, "lng": -2.154050379892722}}}, "icon": "https://maps.gstatic.com/mapfiles/place_api/icons/v1/png_71/bar-71.png", "icon_background_color": "#FF9E67", "icon_mask_base_uri": "https://maps.gstatic.com/mapfiles/place_api/icons/v2/bar_pinlet", "name": "The Blossoms", "opening_hours": {"open_now": true}, "photos": [{"height": 906, "html_attributions": ["<a href=\"https://maps.google.com/maps/contrib/103639673081845813478\">Glenn Bennett</a>"], "photo_reference": "AUc7tXXyF35e2x-OEwwMsvwtqtFtIqxNi4otLP3KY-fzcBrEZAFuL-g9_FU6ubB6BtYLJGDhgCELMiLvRQXxPay-mP0JfHWK4HNi_agb93v2KnzhHFODlmhGbTTq08IKr54sAGkSkBAOXtlM2c0pLdD8IRZE7AIR9adpaDC7sNzXnssD0Wbd", "width": 1362}], "place_id": "ChIJo_-rAJ60e0gRxyEfjgSTdrM", "plus_code": {"compound_code": "9RXW+8V Stockport, United Kingdom", "global_code": "9C5V9RXW+8V"}, "price_level": 1, "rating": 4.4, "reference": "ChIJo_-rAJ60e0gRxyEfjgSTdrM", "scope": "GOOGLE", "types": ["bar", "point_of_interest", "establishment"], "user_ratings_total": 498, "vicinity": "2 Buxton Rd, Cheshire, Stockport"}, {"business_status": "OPERATIONAL", "geometry": {"location": {"lat": 53.4144071, "lng": -2.1436874}, "viewport": {"northeast": {"lat": 53.41570777989272, "lng": -2.142269070107278}, "southwest": {"lat": 53.41300812010728, "lng": -2.144968729892722}}}, "icon": "https://maps.gstatic.com/mapfiles/place_api/icons/v1/png_71/bar-71.png", "icon_background_color": "#FF9E67", "icon_mask_base_uri": "https://maps.gstatic.com/mapfiles/place_api/icons/v2/bar_pinlet", "name": "The Midway", "opening_hours": {"open_now": true}, "photos": [{"height": 1868, "html_attributions": ["<a href=\"https://maps.google.com/maps/contrib/110932392412637236890\">Neil Sayle</a>"], "photo_reference": "AUc7tXXEgQW_CwPXXxZhj-L6_4stEovOnOZYHg5f9aJuH-JUSAxZIH4Az_Mdzmy1qIopQ-WFNzSRjxg915gvqmESKJqT__0rvF6EevqXdzZmWNytw0guC2-96fYIJF8OW-ATaqBLCU1Q6IHJ7JpLTNBtUpBr5t3P8a8ovt6N4oIrUxKJKh9o", "width": 4000}], "place_id": "ChIJ-3ooj4e0e0gRPEZkeZARxq0", "plus_code": {"compound_code": "CV74+QG Stockport, United Kingdom", "global_code": "9C5VCV74+QG"}, "price_level": 2, "rating": 4.5, "reference": "ChIJ-3ooj4e0e0gRPEZkeZARxq0", "scope": "GOOGLE", "types": ["bar", "point_of_interest", "establishment"], "user_ratings_total": 1813, "vicinity": "263 New Bridge Ln, Stockport"}, {"business_status": "OPERATIONAL", "geometry": {"location": {"lat": 53.4123418, "lng": -2.1671381}, "viewport": {"northeast": {"lat": 53.41368667989272, "lng": -2.165750270107277}, "southwest": {"lat": 53.41098702010728, "lng": -2.168449929892722}}}, "icon": "https://maps.gstatic.com/mapfiles/place_api/icons/v1/png_71/bar-71.png", "icon_background_color": "#FF9E67", "icon_mask_base_uri": "https://maps.gstatic.com/mapfiles/place_api/icons/v2/bar_pinlet", "name": "The Magnet Freehouse", "opening_hours": {"open_now": true}, "photos": [{"height": 3024, "html_attributions": ["<a href=\"https://maps.google.com/maps/contrib/115667899378922008733\">Adrian Lunsong</a>"], "photo_reference": "AUc7tXV5150gsQjMb9ZmGZkV6kbGBtsKoTPhrH5se24liYb-brtQ_fdK3sVNzaBL6R0hv_B2cMONe29MRdCLYtPfhKRTvVfOSWLtikl9BSRTJ8ZES76y9gQkMIfEWOh_N2BxmBsKAndQcqH7l9vWdA92zLMTLeCyHExsJrEb-802WunI2FJW", "width": 4032}], "place_id": "ChIJke-OJXize0gRdm6Mja9blJ8", "plus_code": {"compound_code": "CR6M+X4 Stockport, United Kingdom", "global_code": "9C5VCR6M+X4"}, "price_level": 2, "rating": 4.8, "reference": "ChIJke-OJXize0gRdm6Mja9blJ8", "scope": "GOOGLE", "types": ["bar", "point_of_interest", "establishment"], "user_ratings_total": 1220, "vicinity": "51 Wellington Rd N, Stockport"}, {"business_status": "OPERATIONAL", "geometry": {"location": {"lat": 53.41183969999999, "lng": -2.1572151}, "viewport": {"northeast": {"lat": 53.41316867989272, "lng": -2.155778970107277}, "southwest": {"lat": 53.41046902010728, "lng": -2.158478629892722}}}, "icon": "https://maps.gstatic.com/mapfiles/place_api/icons/v1/png_71/bar-71.png", "icon_background_color": "#FF9E67", "icon_mask_base_uri": "https://maps.gstatic.com/mapfiles/place_api/icons/v2/bar_pinlet", "name": "Bakers Vaults", "opening_hours": {"open_now": true}, "photos": [{"height": 3024, "html_attributions": ["<a href=\"https://maps.google.com/maps/contrib/114263035108292943947\">G Wane</a>"], "photo_reference": "AUc7tXUWbuzNnGAIl3liXpiTFAsgYSXyKyhEyb6EAy1US6OIDmGZHX-33kDDvil_iX7awt984DefQkwuMGXmGtHNkfrbOkkVxSoqahpg-unRCm7A29DuoF1rAD3kYLtjruz1bDX0e_t66igMBl8gh2sBfDqNAnbApI9SD9ZewRKXD-W-sjs", "width": 4032}], "place_id": "ChIJ68TPTH6ze0gRAgdnK6Cv1sA", "plus_code": {"compound_code": "CR6V+P4 Stockport, United Kingdom", "global_code": "9C5VCR6V+P4"}, "price_level": 2, "rating": 4.4, "reference": "ChIJ68TPTH6ze0gRAgdnK6Cv1sA", "scope": "GOOGLE", "types": ["bar", "point_of_interest", "establishment"], "user_ratings_total": 1188, "vicinity": "Market Pl, Stockport"}, {"business_status": "OPERATIONAL", "geometry": {"location": {"lat": 53.41376, "lng": -2.1540076}, "viewport": {"northeast": {"lat": 53.41508377989272, "lng": -2.152642820107277}, "southwest": {"lat": 53.41238412010728, "lng": -2.155342479892722}}}, "icon": "https://maps.gstatic.com/mapfiles/place_api/icons/v1/png_71/bar-71.png", "icon_background_color": "#FF9E67", "icon_mask_base_uri": "https://maps.gstatic.com/mapfiles/place_api/icons/v2/bar_pinlet", "name": "The Queens", "opening_hours": {"open_now": true}, "photos": [{"height": 3840, "html_attributions": ["<a href=\"https://maps.google.com/maps/contrib/116738439251117670894\">The Queens</a>"], "photo_reference": "AUc7tXXzyUKEoXJeAcY7gxYPpGMnO7wg3x72kLyV0Ymj2_nPH_anbTvypCsNcZeorYFbYFXXzh2ws_Lxj1L4zIsUibkV_i2QJkZKy5eokdsUcijSKI1w2oURKdBBOUX35XA18E3GXkXKCPYDqb2_AglOQoQahhzL4kE_bYvoQ5bn6IZ7AjZ3", "width": 5760}], "place_id": "ChIJ-d65HIC0e0gRl2CBJRGHpbU", "plus_code": {"compound_code": "CR7W+G9 Stockport, United Kingdom", "global_code": "9C5VCR7W+G9"}, "rating": 4.4, "reference": "ChIJ-d65HIC0e0gRl2CBJRGHpbU", "scope": "GOOGLE", "types": ["lodging", "bar", "point_of_interest", "establishment"], "user_ratings_total": 197, "vicinity": "11 Great Portwood St, Stockport"}, {"business_status": "OPERATIONAL", "geometry": {"location": {"lat": 53.4119863, "lng": -2.1605606}, "viewport": {"northeast": {"lat": 53.41332622989272, "lng": -2.159179370107278}, "southwest": {"lat": 53.41062657010728, "lng": -2.161879029892723}}}, "icon": "https://maps.gstatic.com/mapfiles/place_api/icons/v1/png_71/bar-71.png", "icon_background_color": "#FF9E67", "icon_mask_base_uri": "https://maps.gstatic.com/mapfiles/place_api/icons/v2/bar_pinlet", "name": "Swan With Two Necks", "opening_hours": {"open_now": true}, "photos": [{"height": 2250, "html_attributions": ["<a href=\"https://maps.google.com/maps/contrib/113432924024199553661\">A Google User</a>"], "photo_reference": "AUc7tXVse96o8gMbC3btWGone5bB3Kf_zQfcFklb8W8YHz4x-9sdy2-m3ibCm6EcLE22y3P6ziazCWHjFWUXE5BzHRSx3M_JybYepvVpuWXlZA9b4oTaqq2pMh5O-TmFfIj4xoOYHrRUvgGLGySRTtRHpSmphXXOTn651K8jyY3JqeZpB61W", "width": 4000}], "place_id": "ChIJ-b0L1Hize0gRiTF3I2x14eg", "plus_code": {"compound_code": "CR6Q+RQ Stockport, United Kingdom", "global_code": "9C5VCR6Q+RQ"}, "price_level": 2, "rating": 4.5, "reference": "ChIJ-b0L1Hize0gRiTF3I2x14eg", "scope": "GOOGLE", "types": ["bar", "restaurant", "food", "point_of_interest", "establishment"], "user_ratings_total": 482, "vicinity": "36 Prince's St, Stockport"}, {"business_status": "OPERATIONAL", "geometry": {"location": {"lat": 53.40752759999999, "lng": -2.1552452}, "viewport": {"northeast": {"lat": 53.40888157989272, "lng": -2.153877270107277}, "southwest": {"lat": 53.40618192010727, "lng": -2.156576929892722}}}, "icon": "https://maps.gstatic.com/mapfiles/place_api/icons/v1/png_71/bar-71.png", "icon_background_color": "#FF9E67", "icon_mask_base_uri": "https://maps.gstatic.com/mapfiles/place_api/icons/v2/bar_pinlet", "name": "Red Bull, Stockport", "opening_hours": {"open_now": true}, "photos": [{"height": 2604, "html_attributions": ["<a href=\"https://maps.google.com/maps/contrib/113432924024199553661\">A Google User</a>"], "photo_reference": "AUc7tXVSb5Z_V2RPYxsLsSq7hv56sHGLc9P0EfRvhi9l8yaByPHX5GTpaysketfg5jkCPAkVdZxsbn6opsPm5Api5ANuUAfD485Rv0LCbYs72YIduaOMLq7DMIw-2gIZ_-asj89pf8Vhe5o6VdvsSuFGd8Ju-xibgZCsWzuPrh-2OFstY1GJ", "width": 4624}], "place_id": "ChIJCX2dlH2ze0gR_Dc2AOALYiY", "plus_code": {"compound_code": "CR5V+2V Stockport, United Kingdom", "global_code": "9C5VCR5V+2V"}, "rating": 4.2, "reference": "ChIJCX2dlH2ze0gR_Dc2AOALYiY", "scope": "GOOGLE", "types": ["lodging", "bar", "restaurant", "food", "point_of_interest", "establishment"], "user_ratings_total": 368, "vicinity": "14 Middle Hillgate, Stockport"}, {"business_status": "OPERATIONAL", "geometry": {"location": {"lat": 53.4236058, "lng": -2.1698027}, "viewport": {"northeast": {"lat": 53.42507967989272, "lng": -2.168303820107278}, "southwest": {"lat": 53.42238002010728, "lng": -2.171003479892722}}}, "icon": "https://maps.gstatic.com/mapfiles/place_api/icons/v1/png_71/bar-71.png", "icon_background_color": "#FF9E67", "icon_mask_base_uri": "https://maps.gstatic.com/mapfiles/place_api/icons/v2/bar_pinlet", "name": "The Hinds Head", "opening_hours": {"open_now": true}, "photos": [{"height": 4032, "html_attributions": ["<a href=\"https://maps.google.com/maps/contrib/109637828078602253211\">Calum Crone</a>"], "photo_reference": "AUc7tXWfkZ7NJxPZIFujO0kqT3qZHniBfmnQQTX1rca4soUpWNziZBM2nB5Bj8jGbrMPz-zm8U1LeTaJPYzCg8e3jMZf2V7lKIUtvYJGfgw7CYxHJecn5BTti6vG1TfMBTs41obL85u_KKHGChzhomHDXBC3HODcFMrtI2Wh4Xm2vkANhWV1", "width": 3024}], "place_id": "ChIJj0Fwv5qze0gR8p6wlD9s0Ow", "plus_code": {"compound_code": "CRFJ+C3 Stockport, United Kingdom", "global_code": "9C5VCRFJ+C3"}, "price_level": 2, "rating": 4.4, "reference": "ChIJj0Fwv5qze0gR8p6wlD9s0Ow", "scope": "GOOGLE", "types": ["bar", "restaurant", "food", "point_of_interest", "establishment"], "user_ratings_total": 1084, "vicinity": "Manchester Rd, Stockport"}, {"business_status": "OPERATIONAL", "geometry": {"location": {"lat": 53.41110219999999, "lng": -2.1558411}, "viewport": {"northeast": {"lat": 53.41253022989272, "lng": -2.154570320107278}, "southwest": {"lat": 53.40983057010727, "lng": -2.157269979892722}}}, "icon": "https://maps.gstatic.com/mapfiles/place_api/icons/v1/png_71/bar-71.png", "icon_background_color": "#FF9E67", "icon_mask_base_uri": "https://maps.gstatic.com/mapfiles/place_api/icons/v2/bar_pinlet", "name": "The Cocked Hat", "opening_hours": {"open_now": true}, "photos": [{"height": 3024, "html_attributions": ["<a href=\"https://maps.google.com/maps/contrib/107299783331523323643\">neando69</a>"], "photo_reference": "AUc7tXXTD1-Okqf-1D0bgGX03AXjmOevqGGsKFuoE9p-BOVm_PFa25vjeCvvi4-HbpItgWNxYoykY-TDkNAy6qOOOhYyVKzHdpg8Cgmn_8OQS7kTg0ElxtsRf4po96NQRIihZpqzUSdN9rM3qNgoIZ0H4qbnR5pcx6V7Oz9x0I2bLx9M7ZKV", "width": 4032}], "place_id": "ChIJS9NYT36ze0gR0OB2HfsmeyU", "plus_code": {"compound_code": "CR6V+CM Stockport, United Kingdom", "global_code": "9C5VCR6V+CM"}, "price_level": 1, "rating": 4.1, "reference": "ChIJS9NYT36ze0gR0OB2HfsmeyU", "scope": "GOOGLE", "types": ["bar", "point_of_interest", "establishment"], "user_ratings_total": 257, "vicinity": "2 Market Pl, Stockport"}, {"business_status": "OPERATIONAL", "geometry": {"location": {"lat": 53.3969403, "lng": -2.1387567}, "viewport": {"northeast": {"lat": 53.39822072989272, "lng": -2.137377620107278}, "southwest": {"lat": 53.39552107010728, "lng": -2.140077279892723}}}, "icon": "https://maps.gstatic.com/mapfiles/place_api/icons/v1/png_71/bar-71.png", "icon_background_color": "#FF9E67", "icon_mask_base_uri": "https://maps.gstatic.com/mapfiles/place_api/icons/v2/bar_pinlet", "name": "Puss In Boots", "opening_hours": {"open_now": true}, "photos": [{"height": 1080, "html_attributions": ["<a href=\"https://maps.google.com/maps/contrib/110034726887702821148\">David Ince</a>"], "photo_reference": "AUc7tXXDVWIenLi_TvXMAZtZKBmaSTXnDqiH8PpgNTK3bKqM05Pjkgup9oGggOADEckWgbOCBpnLTzV19HwwQT2_23LcpJ1lRO1MpOy8N3x1ZN-J59i_MOBD1OK6S9i_hNhXOdatlLKRdrll_YPYx_Cy4Sle0qsc2dtlgZQAf4Jo6RBl6vff", "width": 1920}], "place_id": "ChIJg9qPfJe0e0gRgb3AgKqojKQ", "plus_code": {"compound_code": "9VW6+RF Stockport, United Kingdom", "global_code": "9C5V9VW6+RF"}, "price_level": 2, "rating": 4.5, "reference": "ChIJg9qPfJe0e0gRgb3AgKqojKQ", "scope": "GOOGLE", "types": ["cafe", "bar", "food", "store", "point_of_interest", "establishment"], "user_ratings_total": 2677, "vicinity": "Puss in Boots, 147 Nangreave Rd, Heaviley, Cheshire, Stockport"}, {"business_status": "OPERATIONAL", "geometry": {"location": {"lat": 53.409896, "lng": -2.166517}, "viewport": {"northeast": {"lat": 53.41120082989271, "lng": -2.165173720107278}, "southwest": {"lat": 53.40850117010726, "lng": -2.167873379892722}}}, "icon": "https://maps.gstatic.com/mapfiles/place_api/icons/v1/png_71/bar-71.png", "icon_background_color": "#FF9E67", "icon_mask_base_uri": "https://maps.gstatic.com/mapfiles/place_api/icons/v2/bar_pinlet", "name": "The Crown Inn", "opening_hours": {"open_now": true}, "photos": [{"height": 9000, "html_attributions": ["<a href=\"https://maps.google.com/maps/contrib/114620073527205772727\">Danny Burchett</a>"], "photo_reference": "AUc7tXXwpqZ2j7xXBdzbJNMBzhqg3wNOQ6encMsjGiu4HCTgI0pBYGZ8ZQj1kzAFcT9wZ4HwbY4eR751HFAEqBakA-hzIedpXWEMmkP0SGjObuXmerphRIfNazGceD2vvyeZjwB8ycUSMvxJdwP0uJuO_NcK7ayFg0sZxM89BOmLuCmBQyhP", "width": 12000}], "place_id": "ChIJYTRc5nmze0gRpk-fIFDpP30", "plus_code": {"compound_code": "CR5M+X9 Stockport, United Kingdom", "global_code": "9C5VCR5M+X9"}, "price_level": 1, "rating": 4.2, "reference": "ChIJYTRc5nmze0gRpk-fIFDpP30", "scope": "GOOGLE", "types": ["bar", "point_of_interest", "establishment"], "user_ratings_total": 374, "vicinity": "154 Heaton Ln, Stockport"}, {"business_status": "OPERATIONAL", "geometry": {"location": {"lat": 53.4118742, "lng": -2.1569525}, "viewport": {"northeast": {"lat": 53.41324112989272, "lng": -2.155637820107278}, "southwest": {"lat": 53.41054147010728, "lng": -2.158337479892722}}}, "icon": "https://maps.gstatic.com/mapfiles/place_api/icons/v1/png_71/bar-71.png", "icon_background_color": "#FF9E67", "icon_mask_base_uri": "https://maps.gstatic.com/mapfiles/place_api/icons/v2/bar_pinlet", "name": "The Boars Head", "opening_hours": {"open_now": true}, "photos": [{"height": 3024, "html_attributions": ["<a href=\"https://maps.google.com/maps/contrib/113955296530343290589\">chris hughes</a>"], "photo_reference": "AUc7tXVej4U4RaSphe9kPdulQpCOAJP2_hfR9SmDrdEkY4kGScIZcDm4IYLGwzErKSw292hqUbdR61RSDxUn3RxrIUIm1Hxefyz1tQF8FeG3bWAo44HiNPyxtnHi5nxn38AWj-PdiMWl0lTol4UOstSAPvx-EdLseg5uNtitWlgNeIZ-sxo", "width": 4032}], "place_id": "ChIJm07hr3-ze0gRZ1uKbguJsqA", "plus_code": {"compound_code": "CR6V+Q6 Stockport, United Kingdom", "global_code": "9C5VCR6V+Q6"}, "price_level": 1, "rating": 4.2, "reference": "ChIJm07hr3-ze0gRZ1uKbguJsqA", "scope": "GOOGLE", "types": ["bar", "point_of_interest", "establishment"], "user_ratings_total": 350, "vicinity": "2 Vernon St, Stockport"}, {"business_status": "OPERATIONAL", "geometry": {"location": {"lat": 53.4114391, "lng": -2.1575043}, "viewport": {"northeast": {"lat": 53.41281987989272, "lng": -2.155990820107278}, "southwest": {"lat": 53.41012022010728, "lng": -2.158690479892722}}}, "icon": "https://maps.gstatic.com/mapfiles/place_api/icons/v1/png_71/bar-71.png", "icon_background_color": "#FF9E67", "icon_mask_base_uri": "https://maps.gstatic.com/mapfiles/place_api/icons/v2/bar_pinlet", "name": "Angel Inn", "opening_hours": {"open_now": true}, "photos": [{"height": 3024, "html_attributions": ["<a href=\"https://maps.google.com/maps/contrib/112399681270645901041\">Nick Stewart</a>"], "photo_reference": "AUc7tXWrL2inlWIXJdXNjyso_RKyJ_bWC8DXV8CRHq3Pq6dRyhoai7pGa0nKmhgOpLTL8QNOwS53ncpF2XYljbmKIRO07gqzsXghAAs2A0qcYlGHJmIlb22kBuhuBruo8CDfdX8vxklAi_sNWLRc7_1UZpEVFegUru8d4vBryOZ3S2Ap_AiQ", "width": 4032}], "place_id": "ChIJFRnreLyze0gRwUeIOCPfMCg", "plus_code": {"compound_code": "CR6R+HX Stockport, United Kingdom", "global_code": "9C5VCR6R+HX"}, "price_level": 2, "rating": 4.6, "reference": "ChIJFRnreLyze0gRwUeIOCPfMCg", "scope": "GOOGLE", "types": ["bar", "point_of_interest", "establishment"], "user_ratings_total": 353, "vicinity": "19-20 Market Pl, Stockport"}, {"business_status": "OPERATIONAL", "geometry": {"location": {"lat": 53.4013747, "lng": -2.1693698}, "viewport": {"northeast": {"lat": 53.40269322989273, "lng": -2.168005220107278}, "southwest": {"lat": 53.39999357010728, "lng": -2.170704879892722}}}, "icon": "https://maps.gstatic.com/mapfiles/place_api/icons/v1/png_71/bar-71.png", "icon_background_color": "#FF9E67", "icon_mask_base_uri": "https://maps.gstatic.com/mapfiles/place_api/icons/v2/bar_pinlet", "name": "The Royal Oak", "opening_hours": {"open_now": true}, "photos": [{"height": 2448, "html_attributions": ["<a href=\"https://maps.google.com/maps/contrib/114689558008632092412\">A Google User</a>"], "photo_reference": "AUc7tXWmJkDBUtDreQPeQv_gui_R1OlCr8s7TBn4eOF_Jd0u8_oHygZM9_ir-RZ64DLfZQBWIXZjhV967Zn6sH9BMu6mYvtEtiWYP29UqHq1fNP8zkvbeuHKpDFth9E9gppmfrDznu5UDnpY0EMY2uSiuvOtTJcNh4rLqmVgQVItAdqqkH5L", "width": 3264}], "place_id": "ChIJM7LhJ_Gze0gR8tIyOLcsRZM", "plus_code": {"compound_code": "CR2J+H7 Stockport, United Kingdom", "global_code": "9C5VCR2J+H7"}, "rating": 4.1, "reference": "ChIJM7LhJ_Gze0gR8tIyOLcsRZM", "scope": "GOOGLE", "types": ["bar", "point_of_interest", "establishment"], "user_ratings_total": 237, "vicinity": "124 Castle St, Edgeley, Stockport"}, {"business_status": "OPERATIONAL", "geometry": {"location": {"lat": 53.409951, "lng": -2.1529934}, "viewport": {"northeast": {"lat": 53.41125457989273, "lng": -2.151500670107278}, "southwest": {"lat": 53.40855492010728, "lng": -2.154200329892722}}}, "icon": "https://maps.gstatic.com/mapfiles/place_api/icons/v1/png_71/bar-71.png", "icon_background_color": "#FF9E67", "icon_mask_base_uri": "https://maps.gstatic.com/mapfiles/place_api/icons/v2/bar_pinlet", "name": "Old Rectory", "opening_hours": {"open_now": true}, "photos": [{"height": 3024, "html_attributions": ["<a href=\"https://maps.google.com/maps/contrib/109457499025572045035\">Monalisha Bhattacharjee</a>"], "photo_reference": "AUc7tXXnv9A-gARBjDUfpssmZdvWRxqtin3FSjIYkpH7z8S4GMAsU3Q8gjfz1W82wm7s3KHFtZevSRKH9ncaSJDqfoYfiEGp6kGdQzM0dj8R-H0QX7nbaDnyRv_6EzAehrjyOzK5f4iJiaLwaT4KhmwQoWIkqHS8sggfvtT4WUarSJwNbs_O", "width": 4032}], "place_id": "ChIJT2v434G0e0gRlz06PLWBff4", "plus_code": {"compound_code": "CR5W+XR Stockport, United Kingdom", "global_code": "9C5VCR5W+XR"}, "price_level": 1, "rating": 3.6, "reference": "ChIJT2v434G0e0gRlz06PLWBff4", "scope": "GOOGLE", "types": ["bar", "restaurant", "food", "point_of_interest", "establishment"], "user_ratings_total": 2020, "vicinity": "48 Churchgate, Stockport"}, {"business_status": "OPERATIONAL", "geometry": {"location": {"lat": 53.3951371, "lng": -2.1485946}, "viewport": {"northeast": {"lat": 53.39645002989273, "lng": -2.147324070107278}, "southwest": {"lat": 53.39375037010728, "lng": -2.150023729892722}}}, "icon": "https://maps.gstatic.com/mapfiles/place_api/icons/v1/png_71/bar-71.png", "icon_background_color": "#FF9E67", "icon_mask_base_uri": "https://maps.gstatic.com/mapfiles/place_api/icons/v2/bar_pinlet", "name": "Duke Of York", "opening_hours": {"open_now": true}, "photos": [{"height": 3840, "html_attributions": ["<a href=\"https://maps.google.com/maps/contrib/100890282839474561697\">A Google User</a>"], "photo_reference": "AUc7tXXHOdPqTsChjx_zVNse_nHtQu0yEp_TSy3xqWBetdChboDcVUQuWDmpJ7tGgc_7dxDObQ8k9uxFQinwgYP_Pi7MvNRFcGTxJQPWFPnTa4XT-0PS-k_P-ZFSf959F_ap6vGOCj5AlEIVz-8evc9nEQ8X4B67xW7IaP-IRxDyPFp4i_YB", "width": 5760}], "place_id": "ChIJlRXTG5-0e0gRUgswQWRtWWQ", "plus_code": {"compound_code": "9VW2+3H Stockport, United Kingdom", "global_code": "9C5V9VW2+3H"}, "rating": 4.4, "reference": "ChIJlRXTG5-0e0gRUgswQWRtWWQ", "scope": "GOOGLE", "types": ["lodging", "bar", "restaurant", "food", "point_of_interest", "establishment"], "user_ratings_total": 178, "vicinity": "113 Buxton Rd, Heaviley, Stockport"}, {"business_status": "OPERATIONAL", "geometry": {"location": {"lat": 53.4122892, "lng": -2.1567364}, "viewport": {"northeast": {"lat": 53.41381567989272, "lng": -2.155514820107277}, "southwest": {"lat": 53.41111602010728, "lng": -2.158214479892722}}}, "icon": "https://maps.gstatic.com/mapfiles/place_api/icons/v1/png_71/bar-71.png", "icon_background_color": "#FF9E67", "icon_mask_base_uri": "https://maps.gstatic.com/mapfiles/place_api/icons/v2/bar_pinlet", "name": "Blackbird Brewhouse & Kitchen - pub & restaurant", "opening_hours": {"open_now": true}, "photos": [{"height": 4032, "html_attributions": ["<a href=\"https://maps.google.com/maps/contrib/113061000581674453313\">Adam Massey</a>"], "photo_reference": "AUc7tXXv5MxQ1a2KpZPIGXum9MqCVXTboUp7EwF943M47xmy5KrYUba9IWirGQQR92Yr1QqjH4XDP3-2WOeaiWebjJfxPYlhSx2UccWB1JChkv1473kqK6y18is9s3RApIbqCJ9r84tc03Nu1h3AAL2NAsi0_alIsea4-GBeytejXuxfX7yy", "width": 3024}], "place_id": "ChIJk1c9iSCze0gRhDh2_49JTe0", "plus_code": {"compound_code": "CR6V+W8 Stockport, United Kingdom", "global_code": "9C5VCR6V+W8"}, "rating": 4.8, "reference": "ChIJk1c9iSCze0gRhDh2_49JTe0", "scope": "GOOGLE", "types": ["bar", "restaurant", "food", "point_of_interest", "establishment"], "user_ratings_total": 124, "vicinity": "8 Vernon St, Stockport"}, {"business_status": "OPERATIONAL", "geometry": {"location": {"lat": 53.4121385, "lng": -2.1567732}, "viewport": {"northeast": {"lat": 53.41352502989272, "lng": -2.155481070107277}, "southwest": {"lat": 53.41082537010727, "lng": -2.158180729892722}}}, "icon": "https://maps.gstatic.com/mapfiles/place_api/icons/v1/png_71/bar-71.png", "icon_background_color": "#FF9E67", "icon_mask_base_uri": "https://maps.gstatic.com/mapfiles/place_api/icons/v2/bar_pinlet", "name": "The Banshee", "opening_hours": {"open_now": true}, "photos": [{"height": 4032, "html_attributions": ["<a href=\"https://maps.google.com/maps/contrib/106816806294009233484\">106816806294009233484</a>"], "photo_reference": "AUc7tXVKhfqghWlwyft4QsXyjOCCVr9aFPyN0aNdB4ycPWfZcFsq0_Mccn5o3iBvcyfDGgVCxmmOuDjnnZ7nsusot-y_5TBP4eAo5bQR0oHapXPzxbM74IOPPqoIQX6dTORTmy38-0iWvPVLJvR5eo2VjUSZmDLrhBj_goLbIm4btT-HDIXd", "width": 2268}], "place_id": "ChIJw7rkLvyze0gRx4bUSxF6mWE", "plus_code": {"compound_code": "CR6V+V7 Stockport, United Kingdom", "global_code": "9C5VCR6V+V7"}, "rating": 4.5, "reference": "ChIJw7rkLvyze0gRx4bUSxF6mWE", "scope": "GOOGLE", "types": ["bar", "restaurant", "food", "point_of_interest", "establishment"], "user_ratings_total": 24, "vicinity": "6 Vernon St, Stockport"}, {"business_status": "OPERATIONAL", "geometry": {"location": {"lat": 53.4149663, "lng": -2.1767879}, "viewport": {"northeast": {"lat": 53.41633557989272, "lng": -2.175484170107277}, "southwest": {"lat": 53.41363592010728, "lng": -2.178183829892722}}}, "icon": "https://maps.gstatic.com/mapfiles/place_api/icons/v1/png_71/bar-71.png", "icon_background_color": "#FF9E67", "icon_mask_base_uri": "https://maps.gstatic.com/mapfiles/place_api/icons/v2/bar_pinlet", "name": "The Nursery Inn", "opening_hours": {"open_now": true}, "photos": [{"height": 2760, "html_attributions": ["<a href=\"https://maps.google.com/maps/contrib/111639165920232764022\">The Nursery Inn</a>"], "photo_reference": "AUc7tXVhEeQEp6q0vGFvowTmsGK36BBRoqxT88TNU5gzzRZ3uQYcj-oyFrXL1UTJXrH5jbBK0nDlziGdUdiWro8ERZ3wt48fJeOPJ8KMOV4eDiWAeXzhjYoeKBRM5SSUJLwYmmjRFpdQle3YEjKTb9LU2q67byhql9SUVP9r14SAza7S4J59", "width": 3972}], "place_id": "ChIJ41cgMZ6ze0gRG8mRY1ipgao", "plus_code": {"compound_code": "CR7F+X7 Stockport, United Kingdom", "global_code": "9C5VCR7F+X7"}, "price_level": 2, "rating": 4.3, "reference": "ChIJ41cgMZ6ze0gRG8mRY1ipgao", "scope": "GOOGLE", "types": ["bar", "restaurant", "food", "point_of_interest", "establishment"], "user_ratings_total": 400, "vicinity": "258 Green Ln, Stockport"}, {"business_status": "OPERATIONAL", "geometry": {"location": {"lat": 53.40220610000001, "lng": -2.1654332}, "viewport": {"northeast": {"lat": 53.40351917989272, "lng": -2.164084520107278}, "southwest": {"lat": 53.40081952010728, "lng": -2.166784179892722}}}, "icon": "https://maps.gstatic.com/mapfiles/place_api/icons/v1/png_71/bar-71.png", "icon_background_color": "#FF9E67", "icon_mask_base_uri": "https://maps.gstatic.com/mapfiles/place_api/icons/v2/bar_pinlet", "name": "The Pineapple", "opening_hours": {"open_now": true}, "photos": [{"height": 1513, "html_attributions": ["<a href=\"https://maps.google.com/maps/contrib/114958568611504261954\">Martin Lewis</a>"], "photo_reference": "AUc7tXU1z5dJMKb0jDoSPixqrKAk_PTBV5pAGT7yRhxTwO6NpwVlmY44cudCSyHXOgo0vwDqWcsNclTeb3sUyXw62Gt8PrKMjngMkIbDIPlU85mhG1Xizr52lL6aaPHSaix1uGyanR9uQw3h7mpFHeOLmviCucnwI6THTUeYKh-u3g3HI472", "width": 1513}], "place_id": "ChIJ4VzGQGWze0gRug8WGDzrwx0", "plus_code": {"compound_code": "CR2M+VR Stockport, United Kingdom", "global_code": "9C5VCR2M+VR"}, "price_level": 1, "rating": 3.4, "reference": "ChIJ4VzGQGWze0gRug8WGDzrwx0", "scope": "GOOGLE", "types": ["bar", "restaurant", "food", "point_of_interest", "establishment"], "user_ratings_total": 58, "vicinity": "50 Castle St, Edgeley, Stockport"}, {"business_status": "OPERATIONAL", "geometry": {"location": {"lat": 53.4105334, "lng": -2.1578228}, "viewport": {"northeast": {"lat": 53.41184262989272, "lng": -2.156396370107277}, "southwest": {"lat": 53.40914297010728, "lng": -2.159096029892722}}}, "icon": "https://maps.gstatic.com/mapfiles/place_api/icons/v1/png_71/bar-71.png", "icon_background_color": "#FF9E67", "icon_mask_base_uri": "https://maps.gstatic.com/mapfiles/place_api/icons/v2/bar_pinlet", "name": "Enigma", "opening_hours": {"open_now": true}, "photos": [{"height": 3000, "html_attributions": ["<a href=\"https://maps.google.com/maps/contrib/112787124172436122936\">Thomas Booker</a>"], "photo_reference": "AUc7tXUiBlwug27jCWt3pUZpDNOknGbXvCfCiZq051vMM8rwKyr1-wGcur3vFE6zVzO43BkFK248bRmqfnyrnyrm5o2GbiiQBFY3t9SI7ttPtdnsDIPURrtwQd5fTmoMmXF-HHXHCabug1273TdrI3p-JyF5qw08Ze-z943VigspvfFNmejy", "width": 4000}], "place_id": "ChIJtU5Mzkeze0gR9DAfRWcd_lk", "plus_code": {"compound_code": "CR6R+6V Stockport, United Kingdom", "global_code": "9C5VCR6R+6V"}, "rating": 4.7, "reference": "ChIJtU5Mzkeze0gR9DAfRWcd_lk", "scope": "GOOGLE", "types": ["bar", "meal_takeaway", "meal_delivery", "liquor_store", "restaurant", "food", "point_of_interest", "store", "establishment"], "user_ratings_total": 96, "vicinity": "8 St Petersgate, Stockport"}, {"business_status": "OPERATIONAL", "geometry": {"location": {"lat": 53.41031839999999, "lng": -2.1576378}, "viewport": {"northeast": {"lat": 53.41168442989272, "lng": -2.156312220107278}, "southwest": {"lat": 53.40898477010728, "lng": -2.159011879892722}}}, "icon": "https://maps.gstatic.com/mapfiles/place_api/icons/v1/png_71/bar-71.png", "icon_background_color": "#FF9E67", "icon_mask_base_uri": "https://maps.gstatic.com/mapfiles/place_api/icons/v2/bar_pinlet", "name": "The Calverts Court - JD Wetherspoon", "opening_hours": {"open_now": true}, "photos": [{"height": 3840, "html_attributions": ["<a href=\"https://maps.google.com/maps/contrib/118417611387546965646\">Rupert Martin</a>"], "photo_reference": "AUc7tXV1Ng2yde2abTP46OcU5zzhmv0as8NxFs2MQHAzeT6uDsiCommRgBdF8LEw86M82XSQM2Qrt5ZK8HqhAU5Sfe8nwJaRO2BgFyTTXzUF2kyYUvq1pOXXoUno8JymQde_lw6zZd0tnCvOBzpxA_ya9RQr-Ky5vLX9jUt0mCWSXNg3cHXy", "width": 5120}], "place_id": "ChIJ5QOZjn6ze0gRjmS6Aa_MZlI", "plus_code": {"compound_code": "CR6R+4X Stockport, United Kingdom", "global_code": "9C5VCR6R+4X"}, "price_level": 1, "rating": 3.8, "reference": "ChIJ5QOZjn6ze0gRjmS6Aa_MZlI", "scope": "GOOGLE", "types": ["bar", "restaurant", "food", "point_of_interest", "establishment"], "user_ratings_total": 2387, "vicinity": "13 St Petersgate, Stockport"}, {"business_status": "OPERATIONAL", "geometry": {"location": {"lat": 53.4095333, "lng": -2.1645487}, "viewport": {"northeast": {"lat": 53.41086842989272, "lng": -2.163311370107277}, "southwest": {"lat": 53.40816877010727, "lng": -2.166011029892722}}}, "icon": "https://maps.gstatic.com/mapfiles/place_api/icons/v1/png_71/bar-71.png", "icon_background_color": "#FF9E67", "icon_mask_base_uri": "https://maps.gstatic.com/mapfiles/place_api/icons/v2/bar_pinlet", "name": "The Runaway Brewery", "opening_hours": {"open_now": true}, "photos": [{"height": 607, "html_attributions": ["<a href=\"https://maps.google.com/maps/contrib/107390799358119370699\">The Runaway Brewery</a>"], "photo_reference": "AUc7tXUOoS5F5Yh-UTPfXiSw13yyPYRCpPor2Vwy8VKFup_hevP3fiuIFLvjyZXJ9nnXOFF3sOpx5zrMNlltXwVd18JdOufouZf9hgsXMRjvHUkzhN2HaDfTr4wZPJG_EsdDoeqK7-1EnZLnEENCsNuxiqRfhhHNHDP2cziVKGctyUHBYgBx", "width": 1080}], "place_id": "ChIJh9nImbexe0gRC4jGv5U11TE", "plus_code": {"compound_code": "CR5P+R5 Stockport, United Kingdom", "global_code": "9C5VCR5P+R5"}, "price_level": 2, "rating": 4.7, "reference": "ChIJh9nImbexe0gRC4jGv5U11TE", "scope": "GOOGLE", "types": ["liquor_store", "bar", "restaurant", "food", "point_of_interest", "store", "establishment"], "user_ratings_total": 249, "vicinity": "9 -11 Astley St, Stockport"}, {"business_status": "OPERATIONAL", "geometry": {"location": {"lat": 53.409825, "lng": -2.1583652}, "viewport": {"northeast": {"lat": 53.41117227989272, "lng": -2.157088770107277}, "southwest": {"lat": 53.40847262010728, "lng": -2.159788429892722}}}, "icon": "https://maps.gstatic.com/mapfiles/place_api/icons/v1/png_71/bar-71.png", "icon_background_color": "#FF9E67", "icon_mask_base_uri": "https://maps.gstatic.com/mapfiles/place_api/icons/v2/bar_pinlet", "name": "Se7en bar&grill", "opening_hours": {"open_now": true}, "photos": [{"height": 3024, "html_attributions": ["<a href=\"https://maps.google.com/maps/contrib/106545746825681423578\">A Google User</a>"], "photo_reference": "AUc7tXU0zLaral9x5GPD4YGnxPwQ0UAZPAehuhzh3sIBOgnQdEroh2zKKpdJdqjCYrmXD3RVXt6MUtFFfiSNqNKg063gkCZ_HqgOq7jrYTERjgFakU__BrzPcpBzvjJkJ6kuCY2MXIKW6LrkMg4-tw0w5AvVb3PqdfEQU4ugUgS9EbW7NV5X", "width": 4032}], "place_id": "ChIJSxhXeGOze0gRPEippGbpOYw", "plus_code": {"compound_code": "CR5R+WM Stockport, United Kingdom", "global_code": "9C5VCR5R+WM"}, "rating": 4.3, "reference": "ChIJSxhXeGOze0gRPEippGbpOYw", "scope": "GOOGLE", "types": ["bar", "restaurant", "food", "point_of_interest", "establishment"], "user_ratings_total": 261, "vicinity": "25 St Petersgate, Stockport"}, {"business_status": "OPERATIONAL", "geometry": {"location": {"lat": 53.4111111, "lng": -2.1586111}, "viewport": {"northeast": {"lat": 53.41243147989272, "lng": -2.157220670107278}, "southwest": {"lat": 53.40973182010728, "lng": -2.159920329892723}}}, "icon": "https://maps.gstatic.com/mapfiles/place_api/icons/v1/png_71/restaurant-71.png", "icon_background_color": "#FF9E67", "icon_mask_base_uri": "https://maps.gstatic.com/mapfiles/place_api/icons/v2/restaurant_pinlet", "name": "Huffys", "opening_hours": {"open_now": true}, "photos": [{"height": 3265, "html_attributions": ["<a href=\"https://maps.google.com/maps/contrib/117503276673775088194\">Roger Byatt</a>"], "photo_reference": "AUc7tXXVhB3i8L2F6fkDf8YIdB4XG7MbQctEWAA6yFXqtud9stBFr5SYLdgBI4QLkUbYUj_iyGWrzEYm9e6Yfn3gHa2NvU1zMvxXWT56QIYKuY-CwC7McAtdibjhxOQgFUhL51AhNb9kx1bQ1buLiWw-ZgKU4QDXvgzXqGqObKei7F_Ho8ic", "width": 4898}], "place_id": "ChIJ5VIU5n6ze0gRKNajw6lxyok", "plus_code": {"compound_code": "CR6R+CH Stockport, United Kingdom", "global_code": "9C5VCR6R+CH"}, "price_level": 2, "rating": 4.4, "reference": "ChIJ5VIU5n6ze0gRKNajw6lxyok", "scope": "GOOGLE", "types": ["restaurant", "cafe", "bar", "food", "point_of_interest", "establishment"], "user_ratings_total": 179, "vicinity": "32 Great Underbank, Stockport"}, {"business_status": "OPERATIONAL", "geometry": {"location": {"lat": 53.4250766, "lng": -2.1761356}, "viewport": {"northeast": {"lat": 53.42641862989272, "lng": -2.174781320107277}, "southwest": {"lat": 53.42371897010728, "lng": -2.177480979892722}}}, "icon": "https://maps.gstatic.com/mapfiles/place_api/icons/v1/png_71/lodging-71.png", "icon_background_color": "#909CE1", "icon_mask_base_uri": "https://maps.gstatic.com/mapfiles/place_api/icons/v2/hotel_pinlet", "name": "Innkeeper's Collection Heaton Chapel", "opening_hours": {"open_now": true}, "photos": [{"height": 1960, "html_attributions": ["<a href=\"https://maps.google.com/maps/contrib/108714873954222899814\">andy thrower</a>"], "photo_reference": "AUc7tXWC1fywVBKvTMFOvGNrx51kRdisX8TFuN1JVYpZSJhLoOJq8ZbFc_R4Yy-z-mFVxNlWdSEWVO468PKMWb849yxIjz6PKnFfE1QTxb6yNfNmAuPG5Cprx04ReNVDeuk_tFVhNwooBQyeF90SzzzRHjzuTGow9XGr6f03xlxDCNe31W5Q", "width": 4032}], "place_id": "ChIJi_oEXJeze0gRfPCsiFLHfPc", "plus_code": {"compound_code": "CRGF+2G Stockport, United Kingdom", "global_code": "9C5VCRGF+2G"}, "rating": 4.2, "reference": "ChIJi_oEXJeze0gRfPCsiFLHfPc", "scope": "GOOGLE", "types": ["lodging", "bar", "restaurant", "food", "point_of_interest", "establishment"], "user_ratings_total": 334, "vicinity": "Miller & Carter, 272 Wellington Rd N, Heaton Chapel, Stockport"}]