[{"business_status": "OPERATIONAL", "geometry": {"location": {"lat": 51.2177647, "lng": 4.4184744}, "viewport": {"northeast": {"lat": 51.21898362989273, "lng": 4.419750279892721}, "southwest": {"lat": 51.21628397010728, "lng": 4.417050620107277}}}, "icon": "https://maps.gstatic.com/mapfiles/place_api/icons/v1/png_71/bar-71.png", "icon_background_color": "#FF9E67", "icon_mask_base_uri": "https://maps.gstatic.com/mapfiles/place_api/icons/v2/bar_pinlet", "name": "Kelly's Irish Pub", "opening_hours": {"open_now": true}, "photos": [{"height": 3456, "html_attributions": ["<a href=\"https://maps.google.com/maps/contrib/115174963590700182600\">Kelly&#39;s Irish Pub</a>"], "photo_reference": "AUGGfZk3xrdYy65Dr0JLxAq5UO2oudB55tnozvR5kLSlTH5LOY_D4tXBrMFQsC-WKBTBzPn7FpFJD2CCK_RMIwaRJwlafGnjgWWxk5KWkZdIdCVRM68rUJ2bE1XsCGpd3FgxKHMJQNv6lGafkEkbphIjzLu2HHjcOFrGmpE45d5M5VilKq8B", "width": 5184}], "place_id": "ChIJq21VkwH3w0cRbY10oaEABco", "plus_code": {"compound_code": "6C99+49 Antwerp, Belgium", "global_code": "9F366C99+49"}, "price_level": 2, "rating": 4.1, "reference": "ChIJq21VkwH3w0cRbY10oaEABco", "scope": "GOOGLE", "types": ["bar", "restaurant", "point_of_interest", "food", "establishment"], "user_ratings_total": 2690, "vicinity": "De Keyserlei 27, Antwerpen"}, {"business_status": "OPERATIONAL", "geometry": {"location": {"lat": 51.2211507, "lng": 4.4030486}, "viewport": {"northeast": {"lat": 51.22248282989273, "lng": 4.404161429892721}, "southwest": {"lat": 51.21978317010728, "lng": 4.401461770107277}}}, "icon": "https://maps.gstatic.com/mapfiles/place_api/icons/v1/png_71/bar-71.png", "icon_background_color": "#FF9E67", "icon_mask_base_uri": "https://maps.gstatic.com/mapfiles/place_api/icons/v2/bar_pinlet", "name": "The Northerner", "opening_hours": {"open_now": true}, "photos": [{"height": 1022, "html_attributions": ["<a href=\"https://maps.google.com/maps/contrib/113247933107011047692\">A Google User</a>"], "photo_reference": "AUGGfZnlYIsd6M04ZpBUMlB6u413kTeGSxeZ2GmGY2XlU4jrrCzly4-rNcY5J48reMBeoHCUMBJLV600mOfmeMFVJ8RkS3wSv214nQsb-4zp4gnNdkQcli0QvNr19Avvw75IRcvCNUw5YFwpLHbQzb08T1N_eiTBy7yPuLpbRdE7xgZXIfHj", "width": 1533}], "place_id": "ChIJOaYBYrv3w0cRhTmWiPt0wTw", "plus_code": {"compound_code": "6CC3+F6 Antwerp, Belgium", "global_code": "9F366CC3+F6"}, "price_level": 2, "rating": 4.7, "reference": "ChIJOaYBYrv3w0cRhTmWiPt0wTw", "scope": "GOOGLE", "types": ["bar", "restaurant", "point_of_interest", "food", "establishment"], "user_ratings_total": 397, "vicinity": "Wijngaardstraat 7, Antwerpen"}, {"business_status": "OPERATIONAL", "geometry": {"location": {"lat": 51.2211363, "lng": 4.4003632}, "viewport": {"northeast": {"lat": 51.22238327989272, "lng": 4.401154329892721}, "southwest": {"lat": 51.21968362010728, "lng": 4.398454670107277}}}, "icon": "https://maps.gstatic.com/mapfiles/place_api/icons/v1/png_71/bar-71.png", "icon_background_color": "#FF9E67", "icon_mask_base_uri": "https://maps.gstatic.com/mapfiles/place_api/icons/v2/bar_pinlet", "name": "The Irish Times Pub", "opening_hours": {"open_now": true}, "photos": [{"height": 3428, "html_attributions": ["<a href=\"https://maps.google.com/maps/contrib/103120494979732345033\">David Kens</a>"], "photo_reference": "AUGGfZl45u1JAonx_fB2vWio0ELwOYung5n74I8A3cZtE5No0asjo-khnd1VBvkMrMu8v1HiOyd8_OtBqK-5CgEMNqy46iYfNRRllRLm0fnmFqdcUQW5e3OdMneAibgZMaj-_phI-iCltGzNlJiNiXmr3Kh07TdGqNG_Mzl8ahy9ksLyE8Yo", "width": 5135}], "place_id": "ChIJjWbuSvb2w0cROLBet5SwEZI", "plus_code": {"compound_code": "6CC2+F4 Antwerp, Belgium", "global_code": "9F366CC2+F4"}, "price_level": 2, "rating": 4.2, "reference": "ChIJjWbuSvb2w0cROLBet5SwEZI", "scope": "GOOGLE", "types": ["bar", "restaurant", "point_of_interest", "food", "establishment"], "user_ratings_total": 1230, "vicinity": "Grote Markt 38, Antwerpen"}, {"business_status": "OPERATIONAL", "geometry": {"location": {"lat": 51.2164923, "lng": 4.3990531}, "viewport": {"northeast": {"lat": 51.21781752989272, "lng": 4.400543279892721}, "southwest": {"lat": 51.21511787010728, "lng": 4.397843620107277}}}, "icon": "https://maps.gstatic.com/mapfiles/place_api/icons/v1/png_71/bar-71.png", "icon_background_color": "#FF9E67", "icon_mask_base_uri": "https://maps.gstatic.com/mapfiles/place_api/icons/v2/bar_pinlet", "name": "An Sibhin", "opening_hours": {"open_now": true}, "photos": [{"height": 3024, "html_attributions": ["<a href=\"https://maps.google.com/maps/contrib/116245193015930029264\">Peter Boegler</a>"], "photo_reference": "AUGGfZntRWyaVPTsqUCf6W7G2S1NgYRCfyEph3LrWdFxg7x8IDpLG86_uJfqsO8QqwQeBm5joRlvPk2MEJl93X9RIR6_rYMi2VBOEFhrIoOK4g_qyN4yfBPHa16SB17S42DzznyPLIr73-xTCyAHNejOWWtqSiWz0zmuy0xGYvO9EJB9W0U", "width": 4032}], "place_id": "ChIJN9KCOPH2w0cRenQbgiCvFWE", "plus_code": {"compound_code": "698X+HJ Antwerp, Belgium", "global_code": "9F36698X+HJ"}, "price_level": 2, "rating": 4.3, "reference": "ChIJN9KCOPH2w0cRenQbgiCvFWE", "scope": "GOOGLE", "types": ["bar", "restaurant", "point_of_interest", "food", "establishment"], "user_ratings_total": 759, "vicinity": "Nationalestraat 44, Antwerpen"}, {"business_status": "OPERATIONAL", "geometry": {"location": {"lat": 51.2204712, "lng": 4.3967988}, "viewport": {"northeast": {"lat": 51.22183757989271, "lng": 4.398086729892722}, "southwest": {"lat": 51.21913792010727, "lng": 4.395387070107279}}}, "icon": "https://maps.gstatic.com/mapfiles/place_api/icons/v1/png_71/bar-71.png", "icon_background_color": "#FF9E67", "icon_mask_base_uri": "https://maps.gstatic.com/mapfiles/place_api/icons/v2/bar_pinlet", "name": "Ernst Pub", "opening_hours": {"open_now": true}, "photos": [{"height": 9000, "html_attributions": ["<a href=\"https://maps.google.com/maps/contrib/111040771862242154578\">S Hauwden</a>"], "photo_reference": "AUGGfZk_-r3vTfBJ3I-Z0ybYem_3Y_CejfGfVjnqyIRMThf-EX5MCcp0bpTXbcrvywhbwrkCfq9JTE6ByUu4il1rmCa7qV1W4_ve63HxmUdJM5zq0jCj8yZYlZc_rCEehL7SLhLFYryB5gBlt0mEYycSXf4XWdug5xj-TVx83gSPiq5NuERX", "width": 12000}], "place_id": "ChIJt0JmNkH3w0cR4cmqGjuXg3c", "plus_code": {"compound_code": "69CW+5P Antwerp, Belgium", "global_code": "9F3669CW+5P"}, "price_level": 2, "rating": 4.7, "reference": "ChIJt0JmNkH3w0cR4cmqGjuXg3c", "scope": "GOOGLE", "types": ["bar", "restaurant", "point_of_interest", "food", "establishment"], "user_ratings_total": 317, "vicinity": "Ernest Van Dijckkaai 18, Antwerpen"}, {"business_status": "OPERATIONAL", "geometry": {"location": {"lat": 51.2224416, "lng": 4.4084894}, "viewport": {"northeast": {"lat": 51.22379312989272, "lng": 4.409832029892722}, "southwest": {"lat": 51.22109347010728, "lng": 4.407132370107278}}}, "icon": "https://maps.gstatic.com/mapfiles/place_api/icons/v1/png_71/bar-71.png", "icon_background_color": "#FF9E67", "icon_mask_base_uri": "https://maps.gstatic.com/mapfiles/place_api/icons/v2/bar_pinlet", "name": "Papa Jos'", "opening_hours": {"open_now": true}, "photos": [{"height": 2992, "html_attributions": ["<a href=\"https://maps.google.com/maps/contrib/111728166932618304648\">Jorien Versteeg</a>"], "photo_reference": "AUGGfZlMHtlv62FbfI5MiiSVU9iLvgS2caaa8Rma5TE1el2kNyAWjNgKNgb406OHtSglrASSfqv3hk4__G-SUGxeKcD75BdnemfFCg0boE_xSqCosBPG2Cr4VvtiQTIiQ7DEjDr93da9RLRu967OumPOnvXIm1Vqms3hzHE8Uoxa1piJ-XY0", "width": 4000}], "place_id": "ChIJr7_lKFb2w0cRuDVbXd5-7nA", "plus_code": {"compound_code": "6CC5+XC Antwerp, Belgium", "global_code": "9F366CC5+XC"}, "price_level": 1, "rating": 4.5, "reference": "ChIJr7_lKFb2w0cRuDVbXd5-7nA", "scope": "GOOGLE", "types": ["cafe", "bar", "restaurant", "point_of_interest", "food", "establishment"], "user_ratings_total": 551, "vicinity": "Blindestraat 39, Antwerpen"}, {"business_status": "OPERATIONAL", "geometry": {"location": {"lat": 51.2177747, "lng": 4.418389599999999}, "viewport": {"northeast": {"lat": 51.21899187989273, "lng": 4.419687129892721}, "southwest": {"lat": 51.21629222010728, "lng": 4.416987470107277}}}, "icon": "https://maps.gstatic.com/mapfiles/place_api/icons/v1/png_71/restaurant-71.png", "icon_background_color": "#FF9E67", "icon_mask_base_uri": "https://maps.gstatic.com/mapfiles/place_api/icons/v2/restaurant_pinlet", "name": "Beer Central Antwerp", "opening_hours": {"open_now": true}, "photos": [{"height": 3456, "html_attributions": ["<a href=\"https://maps.google.com/maps/contrib/101540818820399236692\">Emily Smith</a>"], "photo_reference": "AUGGfZkZ5QB1LTdEBNRVg_tn_etUIUt9Edyl9lVHpsI41VZJxm876AiQsvuKWOtTzzsLGEIRFFNZsJZyOlLetwgBJW0fOL9X8VEkg6eBUzzZzx9lNtYFf2_rOfKpwE8jCn_TGSn4TVpcsOzOXFiQWGqt48f4B14lgyyprAHOkqCSp8egwGgD", "width": 5184}], "place_id": "ChIJMX9g6wH3w0cRPfy2Umn_83o", "plus_code": {"compound_code": "6C99+49 Antwerp, Belgium", "global_code": "9F366C99+49"}, "price_level": 2, "rating": 4.2, "reference": "ChIJMX9g6wH3w0cRPfy2Umn_83o", "scope": "GOOGLE", "types": ["restaurant", "liquor_store", "bar", "store", "point_of_interest", "food", "establishment"], "user_ratings_total": 5687, "vicinity": "De Keyserlei 25, Antwerpen"}, {"business_status": "OPERATIONAL", "geometry": {"location": {"lat": 51.2183896, "lng": 4.400223}, "viewport": {"northeast": {"lat": 51.21973777989272, "lng": 4.401597629892722}, "southwest": {"lat": 51.21703812010728, "lng": 4.398897970107278}}}, "icon": "https://maps.gstatic.com/mapfiles/place_api/icons/v1/png_71/bar-71.png", "icon_background_color": "#FF9E67", "icon_mask_base_uri": "https://maps.gstatic.com/mapfiles/place_api/icons/v2/bar_pinlet", "name": "Billie's", "opening_hours": {"open_now": true}, "photos": [{"height": 3072, "html_attributions": ["<a href=\"https://maps.google.com/maps/contrib/115203017085988008326\">John Hughes</a>"], "photo_reference": "AUGGfZlO_wo6fYPiYSsmO4y2qcBpP5KuMkEusuaYv_DgSwFzPjeshIkBH4tbPuzP8TruN90Bt3RMtOrRebdtHvak9Q71b3Au8DSt4OdzmcPJLu5ZQTBOdrVl-AOxp_pa_sxdfUltprdfdbJH0tmsQJ8lcVqmIkxU8XjMJdqbWEGdz5r07R-X", "width": 4080}], "place_id": "ChIJU261vEL2w0cRyTYmfPO58eM", "plus_code": {"compound_code": "6C92+93 Antwerp, Belgium", "global_code": "9F366C92+93"}, "price_level": 2, "rating": 4.7, "reference": "ChIJU261vEL2w0cRyTYmfPO58eM", "scope": "GOOGLE", "types": ["bar", "restaurant", "point_of_interest", "food", "establishment"], "user_ratings_total": 1572, "vicinity": "Kammenstraat 12, Antwerpen"}, {"business_status": "OPERATIONAL", "geometry": {"location": {"lat": 51.21280549999999, "lng": 4.4069714}, "viewport": {"northeast": {"lat": 51.21421207989272, "lng": 4.408306629892722}, "southwest": {"lat": 51.21151242010728, "lng": 4.405606970107278}}}, "icon": "https://maps.gstatic.com/mapfiles/place_api/icons/v1/png_71/bar-71.png", "icon_background_color": "#FF9E67", "icon_mask_base_uri": "https://maps.gstatic.com/mapfiles/place_api/icons/v2/bar_pinlet", "name": "Sint jorishof - Antwerpen", "opening_hours": {"open_now": false}, "photos": [{"height": 2736, "html_attributions": ["<a href=\"https://maps.google.com/maps/contrib/108513253588901210674\">Ellen Polderman</a>"], "photo_reference": "AUGGfZlzazDpEjl5X3-3Irln7ob2XOG0dyGAyjemTG3sqe3SN4oTFIfwyjj1REUmEyFPt1HGZfz83o0Ldwpqvr9uTMg8M_SF8wKZ3hxGW0B-JVI6lsOhKxSP4gn6NQLbL70L_1CVyY0ohGekmjc7jar1HdckhkDAH95FYQWEUyQSMB4cpWfM", "width": 3648}], "place_id": "ChIJh7zMJPv2w0cRKEON9c2t4to", "plus_code": {"compound_code": "6C74+4Q Antwerp, Belgium", "global_code": "9F366C74+4Q"}, "price_level": 2, "rating": 4.3, "reference": "ChIJh7zMJPv2w0cRKEON9c2t4to", "scope": "GOOGLE", "types": ["bar", "restaurant", "point_of_interest", "food", "establishment"], "user_ratings_total": 72, "vicinity": "Sint Jorishof, Leopoldplaats 4, Antwerpen"}, {"business_status": "OPERATIONAL", "geometry": {"location": {"lat": 51.21943719999999, "lng": 4.4009915}, "viewport": {"northeast": {"lat": 51.22062637989272, "lng": 4.402141279892722}, "southwest": {"lat": 51.21792672010728, "lng": 4.399441620107278}}}, "icon": "https://maps.gstatic.com/mapfiles/place_api/icons/v1/png_71/restaurant-71.png", "icon_background_color": "#FF9E67", "icon_mask_base_uri": "https://maps.gstatic.com/mapfiles/place_api/icons/v2/restaurant_pinlet", "name": "Brasserie HOBS", "opening_hours": {"open_now": false}, "photos": [{"height": 2610, "html_attributions": ["<a href=\"https://maps.google.com/maps/contrib/115570577808122013342\">JP Gilles</a>"], "photo_reference": "AUGGfZk1FJxPg4p9BhiGNuWM23KDJG2IVxxDobxJo6lLflWPOlch7trua5dvspN4ub5q2-ki4b6zAItLlTzSWdPjX_vndvAv234DIu6RVFMQ7ldgrMkr8_SzbNuDM-Jq2tvrzwdyRmGKr6VGppCXLAUJS_2M16bUBDC9CNmtOi5_rnEukndu", "width": 4640}], "place_id": "ChIJ5TG8Avf2w0cRlLP42rsQgpM", "plus_code": {"compound_code": "6C92+Q9 Antwerp, Belgium", "global_code": "9F366C92+Q9"}, "price_level": 2, "rating": 3.6, "reference": "ChIJ5TG8Avf2w0cRlLP42rsQgpM", "scope": "GOOGLE", "types": ["bar", "restaurant", "point_of_interest", "food", "establishment"], "user_ratings_total": 1080, "vicinity": "Groenplaats 9, Antwerpen"}, {"business_status": "OPERATIONAL", "geometry": {"location": {"lat": 51.2192986, "lng": 4.402203000000001}, "viewport": {"northeast": {"lat": 51.22078947989272, "lng": 4.403757429892722}, "southwest": {"lat": 51.21808982010727, "lng": 4.401057770107278}}}, "icon": "https://maps.gstatic.com/mapfiles/place_api/icons/v1/png_71/restaurant-71.png", "icon_background_color": "#FF9E67", "icon_mask_base_uri": "https://maps.gstatic.com/mapfiles/place_api/icons/v2/restaurant_pinlet", "name": "Blend 32 Kitchen & Bar", "opening_hours": {"open_now": false}, "photos": [{"height": 2160, "html_attributions": ["<a href=\"https://maps.google.com/maps/contrib/112479034037610042738\">\u694a\u68ee\u6d1b</a>"], "photo_reference": "AUGGfZnX-WCTOvB8UPsxX3oeFO9zsFgrdY8m9e1-t-addEqVShj6CSruQvY8wKtnNOMK5CDd2ccxENjP0fgQEoOqiQyDT0hbKZkZ44KGByOQHpgCQnO823K76fl4cTIXaNKbB7KPoqTNWlYeq76nJUHDJdn828I1roVrgN1CG7oa9iERUtIr", "width": 2880}], "place_id": "ChIJmxjOrZj3w0cRAgJaGWSWqn4", "plus_code": {"compound_code": "6C92+PV Antwerp, Belgium", "global_code": "9F366C92+PV"}, "rating": 3.9, "reference": "ChIJmxjOrZj3w0cRAgJaGWSWqn4", "scope": "GOOGLE", "types": ["bar", "restaurant", "point_of_interest", "food", "establishment"], "user_ratings_total": 179, "vicinity": "Groenplaats 32, Antwerpen"}, {"business_status": "OPERATIONAL", "geometry": {"location": {"lat": 51.22727, "lng": 4.4174066}, "viewport": {"northeast": {"lat": 51.22857852989272, "lng": 4.418795829892721}, "southwest": {"lat": 51.22587887010727, "lng": 4.416096170107277}}}, "icon": "https://maps.gstatic.com/mapfiles/place_api/icons/v1/png_71/bar-71.png", "icon_background_color": "#FF9E67", "icon_mask_base_uri": "https://maps.gstatic.com/mapfiles/place_api/icons/v2/bar_pinlet", "name": "Cafe Zina", "opening_hours": {"open_now": true}, "photos": [{"height": 4624, "html_attributions": ["<a href=\"https://maps.google.com/maps/contrib/117284476075362813611\">A Google User</a>"], "photo_reference": "AUGGfZnKMNNGzs25rC0Ojz_4WYYpOCGB5bIv7111veMAms1oWkXaAym6FMppbkgHOxPNm3JnolJSA0_OWQMQibs2dQTvV5tKCnCbk8iq4dBDCWra-tBSetKdUqePbQATrEboKGyd73rgyBO-YY3F3n1RWkAdvD5cg4kHr7Nmq2aF_SBEvP1E", "width": 2084}], "place_id": "ChIJw15oj2T3w0cR93kzS2eVhBs", "plus_code": {"compound_code": "6CG8+WX Antwerp, Belgium", "global_code": "9F366CG8+WX"}, "rating": 4.7, "reference": "ChIJw15oj2T3w0cR93kzS2eVhBs", "scope": "GOOGLE", "types": ["bar", "restaurant", "point_of_interest", "food", "establishment"], "user_ratings_total": 9, "vicinity": "Cassiersstraat 41, Antwerpen"}, {"business_status": "OPERATIONAL", "geometry": {"location": {"lat": 51.2216865, "lng": 4.4201833}, "viewport": {"northeast": {"lat": 51.22300482989272, "lng": 4.421584929892721}, "southwest": {"lat": 51.22030517010727, "lng": 4.418885270107277}}}, "icon": "https://maps.gstatic.com/mapfiles/place_api/icons/v1/png_71/bar-71.png", "icon_background_color": "#FF9E67", "icon_mask_base_uri": "https://maps.gstatic.com/mapfiles/place_api/icons/v2/bar_pinlet", "name": "Caf\u00e9 Kiebooms", "opening_hours": {"open_now": true}, "photos": [{"height": 3024, "html_attributions": ["<a href=\"https://maps.google.com/maps/contrib/107730950963262486085\">Chantal De Moor</a>"], "photo_reference": "AUGGfZnHJ2c6pYp53TlmNLTZJfy6jcYsE4DakZTwMfZtHRjkXEb_MkEHXogtKZ94mae5ZN6gwADMTMHHR_6zRVLC1IWBldwSYNRGc2T9DBmNl3Q11J7uqEEeXTvQkvXmDlNujCYa5-Vy9nF-dkqR33NjVHgL-O4D_lHh_ZbRj7q2gL59VQFU", "width": 4032}], "place_id": "ChIJjYqOf6r3w0cRr76JrKA-QIE", "plus_code": {"compound_code": "6CCC+M3 Antwerp, Belgium", "global_code": "9F366CCC+M3"}, "price_level": 2, "rating": 4.4, "reference": "ChIJjYqOf6r3w0cRr76JrKA-QIE", "scope": "GOOGLE", "types": ["bar", "restaurant", "point_of_interest", "food", "establishment"], "user_ratings_total": 292, "vicinity": "De Coninckplein 18, Antwerpen"}, {"business_status": "OPERATIONAL", "geometry": {"location": {"lat": 51.2209947, "lng": 4.397359199999999}, "viewport": {"northeast": {"lat": 51.22247517989273, "lng": 4.398664029892722}, "southwest": {"lat": 51.21977552010728, "lng": 4.395964370107278}}}, "icon": "https://maps.gstatic.com/mapfiles/place_api/icons/v1/png_71/bar-71.png", "icon_background_color": "#FF9E67", "icon_mask_base_uri": "https://maps.gstatic.com/mapfiles/place_api/icons/v2/bar_pinlet", "name": "Caf\u00e9 Pardaf - craft beer & traditionals", "opening_hours": {"open_now": false}, "photos": [{"height": 2048, "html_attributions": ["<a href=\"https://maps.google.com/maps/contrib/115209845825281338287\">Caf\u00e9 Pardaf</a>"], "photo_reference": "AUGGfZlN-cR-IeW1ByvE9rXBPd9LpHMo0XSiXhWbBrFsCYGVeOdIy5PZHGg6JwVbgQUKQzAzPgMuJwZ_J2-Lkd9UTdxy4tTc9O_z-T925BSnfhXSX3Uhvn8yEWV5FnSHlSvJYbR7fRwWJGlSvR5WRxJPag6JaeW5RIwq7eZXGr8kRvEI5N0", "width": 1639}], "place_id": "ChIJmcZrw_X2w0cRk9p36c5z1EA", "plus_code": {"compound_code": "69CW+9W Antwerp, Belgium", "global_code": "9F3669CW+9W"}, "price_level": 2, "rating": 4.4, "reference": "ChIJmcZrw_X2w0cRk9p36c5z1EA", "scope": "GOOGLE", "types": ["bar", "restaurant", "point_of_interest", "food", "establishment"], "user_ratings_total": 515, "vicinity": "Suikerrui 2, Antwerpen"}, {"business_status": "OPERATIONAL", "geometry": {"location": {"lat": 51.217686, "lng": 4.4186226}, "viewport": {"northeast": {"lat": 51.21892797989273, "lng": 4.419929929892722}, "southwest": {"lat": 51.21622832010728, "lng": 4.417230270107278}}}, "icon": "https://maps.gstatic.com/mapfiles/place_api/icons/v1/png_71/restaurant-71.png", "icon_background_color": "#FF9E67", "icon_mask_base_uri": "https://maps.gstatic.com/mapfiles/place_api/icons/v2/restaurant_pinlet", "name": "The Duke of Antwerp", "opening_hours": {"open_now": false}, "photos": [{"height": 2268, "html_attributions": ["<a href=\"https://maps.google.com/maps/contrib/110835835155478793938\">Michel Chen</a>"], "photo_reference": "AUGGfZl0-WCN0Vz0wvLur8-xut5MjBLb5XdtyxmJyXHrT9pJOci0xHMZlrPnYhtBtipU9udzDqpGflJdy_GvODKesLQLR3I-ODleOfNheUwOCWh3Qh9Ktgg2Ro6xSOsGko3ZEoDl91-bhq_P9RGlPHxO-oW37pd0K7z5V_v4nZDAJXaPydt1", "width": 4032}], "place_id": "ChIJLWE-lAH3w0cRKrpxWuoO_hI", "plus_code": {"compound_code": "6C99+3C Antwerp, Belgium", "global_code": "9F366C99+3C"}, "price_level": 2, "rating": 4, "reference": "ChIJLWE-lAH3w0cRKrpxWuoO_hI", "scope": "GOOGLE", "types": ["restaurant", "cafe", "bar", "store", "point_of_interest", "food", "establishment"], "user_ratings_total": 1712, "vicinity": "De Keyserlei 29, Antwerpen"}, {"business_status": "OPERATIONAL", "geometry": {"location": {"lat": 51.2203648, "lng": 4.3998176}, "viewport": {"northeast": {"lat": 51.22168107989272, "lng": 4.401110129892722}, "southwest": {"lat": 51.21898142010727, "lng": 4.398410470107279}}}, "icon": "https://maps.gstatic.com/mapfiles/place_api/icons/v1/png_71/restaurant-71.png", "icon_background_color": "#FF9E67", "icon_mask_base_uri": "https://maps.gstatic.com/mapfiles/place_api/icons/v2/restaurant_pinlet", "name": "D\u2019Oude Stad", "opening_hours": {"open_now": true}, "photos": [{"height": 1530, "html_attributions": ["<a href=\"https://maps.google.com/maps/contrib/117358147151354199278\">Michael Stahl</a>"], "photo_reference": "AUGGfZkT2H7Ny-w0g46Ky5muJd2BE0o2GmE9NxNrd8jMFR6_fbqj8cDl_nhz8rOFlxhYAN4Hp40jgau1gF88mfRWh3GZWAvuX5QSpMzeoKeEHCZ1FvkqsbAhKfrlPPc8zp7WPTaRNSbFRcQkF-ndXFYlLxKj9LEf16KGSRi7ZiU-iq1K1Yr5", "width": 886}], "place_id": "ChIJW0vGXfb2w0cR9o9D6WvG9Ko", "plus_code": {"compound_code": "69CX+4W Antwerp, Belgium", "global_code": "9F3669CX+4W"}, "price_level": 1, "rating": 4, "reference": "ChIJW0vGXfb2w0cR9o9D6WvG9Ko", "scope": "GOOGLE", "types": ["restaurant", "point_of_interest", "food", "establishment"], "user_ratings_total": 108, "vicinity": "Oude Koornmarkt 13, Antwerpen"}, {"business_status": "OPERATIONAL", "geometry": {"location": {"lat": 51.2017578, "lng": 4.4337962}, "viewport": {"northeast": {"lat": 51.20312152989272, "lng": 4.435246729892722}, "southwest": {"lat": 51.20042187010728, "lng": 4.432547070107278}}}, "icon": "https://maps.gstatic.com/mapfiles/place_api/icons/v1/png_71/restaurant-71.png", "icon_background_color": "#FF9E67", "icon_mask_base_uri": "https://maps.gstatic.com/mapfiles/place_api/icons/v2/restaurant_pinlet", "name": "Bar Epoq", "opening_hours": {"open_now": false}, "photos": [{"height": 2976, "html_attributions": ["<a href=\"https://maps.google.com/maps/contrib/117126004084840927349\">Patrick De Vleeschauwer</a>"], "photo_reference": "AUGGfZl7Nxo41wb3ANjt7RLBl2cuyv5jjHzeyLthqFrYFA8ocFv5C4p6-1CrmpyykPOZCe2Ybqq7nHKOduPiYIZ_bTwIeAvbW6tbpb0FfHg-EVE24bYiPX1gEisOXnRmdLo8mNT02qVvWXog2999Aj5IXFhJrJu4zndpaM7yuowWI9ZAkQql", "width": 3968}], "place_id": "ChIJD1NNQ5P3w0cRJse2T0SgEu4", "plus_code": {"compound_code": "6C2M+PG Antwerp, Belgium", "global_code": "9F366C2M+PG"}, "price_level": 2, "rating": 4.5, "reference": "ChIJD1NNQ5P3w0cRJse2T0SgEu4", "scope": "GOOGLE", "types": ["bar", "restaurant", "point_of_interest", "food", "establishment"], "user_ratings_total": 152, "vicinity": "Cogels-Osylei 88, Antwerpen"}, {"business_status": "CLOSED_TEMPORARILY", "geometry": {"location": {"lat": 51.2208461, "lng": 4.4028215}, "viewport": {"northeast": {"lat": 51.22213592989272, "lng": 4.404210979892722}, "southwest": {"lat": 51.21943627010728, "lng": 4.401511320107278}}}, "icon": "https://maps.gstatic.com/mapfiles/place_api/icons/v1/png_71/bar-71.png", "icon_background_color": "#FF9E67", "icon_mask_base_uri": "https://maps.gstatic.com/mapfiles/place_api/icons/v2/bar_pinlet", "name": "Molly's Irish Bar", "permanently_closed": true, "photos": [{"height": 1152, "html_attributions": ["<a href=\"https://maps.google.com/maps/contrib/105773696794972934833\">Audrey Molewska</a>"], "photo_reference": "AUGGfZntYV4uI1p9qgbyriv5fMO4l5G_mLrK0Qlgxvdth-rvqTzOZOoS--3E5dtQLtSKjlNz2tVfWnw7biGSulwrNDxhPzaSUB1fuE3fAMZFN7d2VDJ66EtO18Z6qCIM2jYnN-ZtwgDC6g5Sst-9fgVHZi7xLKfHiNq8okIYpUP9aej21trZ", "width": 2048}], "place_id": "ChIJbaw0lPf2w0cRw2xXJrWD2OU", "plus_code": {"compound_code": "6CC3+86 Antwerp, Belgium", "global_code": "9F366CC3+86"}, "price_level": 1, "rating": 4.5, "reference": "ChIJbaw0lPf2w0cRw2xXJrWD2OU", "scope": "GOOGLE", "types": ["cafe", "bar", "restaurant", "point_of_interest", "food", "establishment"], "user_ratings_total": 338, "vicinity": "Jezu\u00efetenrui 4, Antwerpen"}, {"business_status": "OPERATIONAL", "geometry": {"location": {"lat": 51.2334419, "lng": 4.4096774}, "viewport": {"northeast": {"lat": 51.23475232989272, "lng": 4.410777429892722}, "southwest": {"lat": 51.23205267010728, "lng": 4.408077770107278}}}, "icon": "https://maps.gstatic.com/mapfiles/place_api/icons/v1/png_71/restaurant-71.png", "icon_background_color": "#FF9E67", "icon_mask_base_uri": "https://maps.gstatic.com/mapfiles/place_api/icons/v2/restaurant_pinlet", "name": "La Pipe d'Anvers", "opening_hours": {"open_now": false}, "photos": [{"height": 719, "html_attributions": ["<a href=\"https://maps.google.com/maps/contrib/110844335333704537571\">A Google User</a>"], "photo_reference": "AUGGfZnUOlb9ezsciZHGoh2sfWUiEElyH0B34M26YU5Ho5uKnOPdt-375CAErMstLmxZm2lnRSyVggzomws5vnL00LXwishMnVgqBfYaQnXEXGQKFiSaNesYUkuxQpqByBFpFZrzvmhqOutDZDDVx22IMba-8GX72i5gwz-Vpcp94tJm_mfi", "width": 1080}], "place_id": "ChIJt5BvzU_2w0cROF9jbR93CyY", "plus_code": {"compound_code": "6CM5+9V Antwerp, Belgium", "global_code": "9F366CM5+9V"}, "price_level": 2, "rating": 4.2, "reference": "ChIJt5BvzU_2w0cROF9jbR93CyY", "scope": "GOOGLE", "types": ["restaurant", "cafe", "bar", "point_of_interest", "food", "establishment"], "user_ratings_total": 659, "vicinity": "Cadixstraat 3, Antwerpen"}, {"business_status": "OPERATIONAL", "geometry": {"location": {"lat": 51.2212034, "lng": 4.422581699999999}, "viewport": {"northeast": {"lat": 51.22263122989272, "lng": 4.423924779892722}, "southwest": {"lat": 51.21993157010728, "lng": 4.421225120107279}}}, "icon": "https://maps.gstatic.com/mapfiles/place_api/icons/v1/png_71/restaurant-71.png", "icon_background_color": "#FF9E67", "icon_mask_base_uri": "https://maps.gstatic.com/mapfiles/place_api/icons/v2/restaurant_pinlet", "name": "Taste of Africa Restaurant", "opening_hours": {"open_now": true}, "photos": [{"height": 1080, "html_attributions": ["<a href=\"https://maps.google.com/maps/contrib/104858245905903269558\">A Google User</a>"], "photo_reference": "AUGGfZl9i0iAE8F_ZIZoewX0_ydRopUuqXTEWrzX1b7usoU7zhbfBTA8STv6ySaH_BdAVyCMufqn-5s7WGfPovKV-gGvwAaQAXGHwOcRYO8GSIrB3r-VK4CfBwtzYLG63xb6lCN5_zPyG3kgVyXL-oVsuBhElHEmIHLCrUMq8_TXBvjTinJS", "width": 1919}], "place_id": "ChIJG9XHpQD3w0cRNtbyYhxr7pY", "plus_code": {"compound_code": "6CCF+G2 Antwerp, Belgium", "global_code": "9F366CCF+G2"}, "rating": 4.1, "reference": "ChIJG9XHpQD3w0cRNtbyYhxr7pY", "scope": "GOOGLE", "types": ["restaurant", "point_of_interest", "food", "establishment"], "user_ratings_total": 175, "vicinity": "Lange Beeldekensstraat 26, Antwerpen"}]