[{"business_status": "OPERATIONAL", "geometry": {"location": {"lat": 57.69904999999999, "lng": 11.949732}, "viewport": {"northeast": {"lat": 57.70035697989272, "lng": 11.95092977989272}, "southwest": {"lat": 57.69765732010728, "lng": 11.94823012010728}}}, "icon": "https://maps.gstatic.com/mapfiles/place_api/icons/v1/png_71/restaurant-71.png", "icon_background_color": "#FF9E67", "icon_mask_base_uri": "https://maps.gstatic.com/mapfiles/place_api/icons/v2/restaurant_pinlet", "name": "Le Pub", "opening_hours": {"open_now": true}, "photos": [{"height": 1001, "html_attributions": ["<a href=\"https://maps.google.com/maps/contrib/102388818228095692496\">Le Pub</a>"], "photo_reference": "AUGGfZmtQHc1wnm2oLU49ehNSsVLGcoKca4DisqfHPtjC0x80oMhQtmoz1sSY8XMbxvLuGXNb6AHQBkF4OFD5i6AYn3HnVGAwNACJe-0QZj5CEhZnfQIwK6Pgvbk9eOlsiFPLpWTrdNtSkuIe8YV9jUH-Lrj93UEqyf4nZwsGHqvSSp-bvXG", "width": 1500}], "place_id": "ChIJj0lLh0HzT0YRQVLrsKxbYpc", "plus_code": {"compound_code": "MWXX+JV Gothenburg, Sweden", "global_code": "9F9HMWXX+JV"}, "price_level": 2, "rating": 4, "reference": "ChIJj0lLh0HzT0YRQVLrsKxbYpc", "scope": "GOOGLE", "types": ["restaurant", "bar", "point_of_interest", "food", "establishment"], "user_ratings_total": 1008, "vicinity": "Nordhemsgatan 22-24, G\u00f6teborg"}, {"business_status": "OPERATIONAL", "geometry": {"location": {"lat": 57.6994963, "lng": 11.9510367}, "viewport": {"northeast": {"lat": 57.70080382989273, "lng": 11.95232652989272}, "southwest": {"lat": 57.69810417010728, "lng": 11.94962687010728}}}, "icon": "https://maps.gstatic.com/mapfiles/place_api/icons/v1/png_71/bar-71.png", "icon_background_color": "#FF9E67", "icon_mask_base_uri": "https://maps.gstatic.com/mapfiles/place_api/icons/v2/bar_pinlet", "name": "Down under bar", "opening_hours": {"open_now": true}, "photos": [{"height": 1200, "html_attributions": ["<a href=\"https://maps.google.com/maps/contrib/102286728972500803314\">Down under bar</a>"], "photo_reference": "AUGGfZmWGQinWMAznHl6GaEj2c8QMMfqca8sQTCuhFCgz7Zsild3FnpKnVVnir4qTpJzsBs_HdmROwVvT1SS3cGfuE3M76hlLno6uNo5liPzsR4q8nCBc6FSc3mndzcRkC8WlwlTkyK7I4kSdv6oaZ3FX_1qvf4VUUAWdYbJl_pZK29oF4Ou", "width": 1800}], "place_id": "ChIJux5VIkLzT0YRZnoFSO4LTeY", "plus_code": {"compound_code": "MXX2+QC Gothenburg, Sweden", "global_code": "9F9HMXX2+QC"}, "price_level": 2, "rating": 4.2, "reference": "ChIJux5VIkLzT0YRZnoFSO4LTeY", "scope": "GOOGLE", "types": ["bar", "restaurant", "point_of_interest", "food", "establishment"], "user_ratings_total": 430, "vicinity": "Andra L\u00e5nggatan 5, G\u00f6teborg"}, {"business_status": "OPERATIONAL", "geometry": {"location": {"lat": 57.7049469, "lng": 11.9694214}, "viewport": {"northeast": {"lat": 57.70627437989273, "lng": 11.97061117989272}, "southwest": {"lat": 57.70357472010728, "lng": 11.96791152010728}}}, "icon": "https://maps.gstatic.com/mapfiles/place_api/icons/v1/png_71/bar-71.png", "icon_background_color": "#FF9E67", "icon_mask_base_uri": "https://maps.gstatic.com/mapfiles/place_api/icons/v2/bar_pinlet", "name": "Irish Embassy Pub grill Downtown", "opening_hours": {"open_now": true}, "photos": [{"height": 3096, "html_attributions": ["<a href=\"https://maps.google.com/maps/contrib/104757875169842729494\">Stephen Flynn</a>"], "photo_reference": "AUGGfZmOsYxKs3mTvVLC9w_ljLOUvHI1DgyohEgiJOhpszzciwvvePdn7zOdymyp0tLRAzxYY7jvYV6_j1KO2O2XvCM9VME5RfXzh4Rs_pCUUeClDJqtOEL6IMhkJR00fNWf8_6HA8vXpcX-vT9Nj460rVxAjx18Mo27O_-yNBggk6nstjPG", "width": 5504}], "place_id": "ChIJF_hUr2XzT0YRbVF4Q2hUpag", "plus_code": {"compound_code": "PX39+XQ Gothenburg, Sweden", "global_code": "9F9HPX39+XQ"}, "price_level": 2, "rating": 3.8, "reference": "ChIJF_hUr2XzT0YRbVF4Q2hUpag", "scope": "GOOGLE", "types": ["bar", "restaurant", "point_of_interest", "food", "establishment"], "user_ratings_total": 4090, "vicinity": "\u00d6stra Hamngatan 50B, G\u00f6teborg"}, {"business_status": "OPERATIONAL", "geometry": {"location": {"lat": 57.6987007, "lng": 11.9654274}, "viewport": {"northeast": {"lat": 57.70003377989272, "lng": 11.96667652989272}, "southwest": {"lat": 57.69733412010728, "lng": 11.96397687010728}}}, "icon": "https://maps.gstatic.com/mapfiles/place_api/icons/v1/png_71/bar-71.png", "icon_background_color": "#FF9E67", "icon_mask_base_uri": "https://maps.gstatic.com/mapfiles/place_api/icons/v2/bar_pinlet", "name": "Cheers Pub", "opening_hours": {"open_now": true}, "photos": [{"height": 3024, "html_attributions": ["<a href=\"https://maps.google.com/maps/contrib/106683412123857495257\">A Google User</a>"], "photo_reference": "AUGGfZlyUQPGBuVqyW_nkrN039pNnATqbkxNOE1SIRZeErTprn8j4LpOnK0_X6OxTTjCPlL4xmmsqnO9xZry3L06XNuwcpRJVlJY3eXimcYJkAODjvblQX1-qwGqa_EDbbVtliVaXh-6NXOlgJQrtXmg2I5645JncA-OVX0Sjh1_ogNdA-dq", "width": 4032}], "place_id": "ChIJzQwakm7zT0YRY5Kxq_sPouM", "plus_code": {"compound_code": "MXX8+F5 Gothenburg, Sweden", "global_code": "9F9HMXX8+F5"}, "price_level": 2, "rating": 4, "reference": "ChIJzQwakm7zT0YRY5Kxq_sPouM", "scope": "GOOGLE", "types": ["bar", "restaurant", "point_of_interest", "food", "establishment"], "user_ratings_total": 508, "vicinity": "Viktoriagatan 10, G\u00f6teborg"}, {"business_status": "OPERATIONAL", "geometry": {"location": {"lat": 57.7008951, "lng": 11.9737644}, "viewport": {"northeast": {"lat": 57.70229027989272, "lng": 11.97520977989272}, "southwest": {"lat": 57.69959062010728, "lng": 11.97251012010728}}}, "icon": "https://maps.gstatic.com/mapfiles/place_api/icons/v1/png_71/bar-71.png", "icon_background_color": "#FF9E67", "icon_mask_base_uri": "https://maps.gstatic.com/mapfiles/place_api/icons/v2/bar_pinlet", "name": "John Scott's Avenyn", "opening_hours": {"open_now": true}, "photos": [{"height": 667, "html_attributions": ["<a href=\"https://maps.google.com/maps/contrib/104613455765747221751\">John Scott\u00b4s Pub Avenyn</a>"], "photo_reference": "AUGGfZmQ5Y-SGvLiv1lQKGMA71YPK-ghpTvfsg0p2yXEegEJYaIIjA4hkWA9WsqPV00R4VfbIxp7Sft6-y1m3HTSP9svYgLeMj1Mflnr7z7RZBemdBiR6OnjIiQxwmwaKOpbYQAurdbO4CnMzWG7Yglvu6wo9tGO3gwfgu_pwfaVI6Q56RvA", "width": 1000}], "place_id": "ChIJ193SPXDzT0YRY5v7RW0EexM", "plus_code": {"compound_code": "PX2F+9G Gothenburg, Sweden", "global_code": "9F9HPX2F+9G"}, "price_level": 2, "rating": 3.8, "reference": "ChIJ193SPXDzT0YRY5v7RW0EexM", "scope": "GOOGLE", "types": ["bar", "restaurant", "point_of_interest", "food", "establishment"], "user_ratings_total": 2387, "vicinity": "Kungsportsavenyen 15, G\u00f6teborg"}, {"business_status": "OPERATIONAL", "geometry": {"location": {"lat": 57.7077718, "lng": 11.9618602}, "viewport": {"northeast": {"lat": 57.70912277989272, "lng": 11.96325697989272}, "southwest": {"lat": 57.70642312010727, "lng": 11.96055732010728}}}, "icon": "https://maps.gstatic.com/mapfiles/place_api/icons/v1/png_71/bar-71.png", "icon_background_color": "#FF9E67", "icon_mask_base_uri": "https://maps.gstatic.com/mapfiles/place_api/icons/v2/bar_pinlet", "name": "\u00d6lrepubliken", "opening_hours": {"open_now": true}, "photos": [{"height": 6944, "html_attributions": ["<a href=\"https://maps.google.com/maps/contrib/108568522765874653261\">harri manni</a>"], "photo_reference": "AUGGfZltd206winlnSrahgvh-yOxItUyTC1cmw2OcZGtS6NgE0gw0G5aZVpkeTqDhJGmYPRyGkWQ0EFVpK0FdquhbJfAbskDMRFw5R8ZuLxKeA7OcW6DdbHRuJNr4a21ZLNPi51vGQwqwWDCarMpoeq4BSUJ0k4oE3j678Fxv7KzoO769ZEc", "width": 9248}], "place_id": "ChIJVcwjwWbzT0YRWJpQKY2Rf3A", "plus_code": {"compound_code": "PX56+4P Gothenburg, Sweden", "global_code": "9F9HPX56+4P"}, "price_level": 2, "rating": 4.4, "reference": "ChIJVcwjwWbzT0YRWJpQKY2Rf3A", "scope": "GOOGLE", "types": ["bar", "restaurant", "point_of_interest", "food", "establishment"], "user_ratings_total": 2891, "vicinity": "Kronhusgatan 2B, G\u00f6teborg"}, {"business_status": "OPERATIONAL", "geometry": {"location": {"lat": 57.6985555, "lng": 11.9781617}, "viewport": {"northeast": {"lat": 57.69985107989272, "lng": 11.97948402989272}, "southwest": {"lat": 57.69715142010728, "lng": 11.97678437010728}}}, "icon": "https://maps.gstatic.com/mapfiles/place_api/icons/v1/png_71/bar-71.png", "icon_background_color": "#FF9E67", "icon_mask_base_uri": "https://maps.gstatic.com/mapfiles/place_api/icons/v2/bar_pinlet", "name": "The Bishops Arms - Park Avenue Gbg", "opening_hours": {"open_now": true}, "photos": [{"height": 3072, "html_attributions": ["<a href=\"https://maps.google.com/maps/contrib/114428487406603965575\">A Google User</a>"], "photo_reference": "AUGGfZkiINahb3NqOJSXgUkrbmDnA5s1pnOcntWqA7SRjYRFpuOGPQMcMpxkq9VWfuFZpUFAa_G-nfLGS8fMv55WkBbP2fWLodxRUV3qt9UfjAYL-ry-BtFfwsP-EEo-jWwHZFTKcN5kW8w0nENBtqlJ2kXu5CpUfEoGu4jtW9GGtULAVK3D", "width": 4096}], "place_id": "ChIJp8LBO3HzT0YRZ5aOoAbdars", "plus_code": {"compound_code": "MXXH+C6 Gothenburg, Sweden", "global_code": "9F9HMXXH+C6"}, "price_level": 2, "rating": 4.2, "reference": "ChIJp8LBO3HzT0YRZ5aOoAbdars", "scope": "GOOGLE", "types": ["bar", "restaurant", "point_of_interest", "food", "establishment"], "user_ratings_total": 945, "vicinity": "Kungsportsavenyen 36, G\u00f6teborg"}, {"business_status": "OPERATIONAL", "geometry": {"location": {"lat": 57.69957830000001, "lng": 11.9520083}, "viewport": {"northeast": {"lat": 57.70103697989273, "lng": 11.95337457989272}, "southwest": {"lat": 57.69833732010729, "lng": 11.95067492010728}}}, "icon": "https://maps.gstatic.com/mapfiles/place_api/icons/v1/png_71/bar-71.png", "icon_background_color": "#FF9E67", "icon_mask_base_uri": "https://maps.gstatic.com/mapfiles/place_api/icons/v2/bar_pinlet", "name": "Jerntorgets Brygghus", "opening_hours": {"open_now": true}, "photos": [{"height": 3024, "html_attributions": ["<a href=\"https://maps.google.com/maps/contrib/108416387293718127032\">Magnus Illermark</a>"], "photo_reference": "AUGGfZkWJSJXy1kcNYEFmCJ0EKIAd24ZJDS_t7Ie27Qo70vHDxMWMy7MabFUzIopf7otW_dUur0jyuHQrbf7ZxPeYtaZyDZDtNx4VniFBTgW9xsfweC2btUV89iFtRJ2b3Wy8TlvU2qbUGZX7NouUyLaPVjrM9rYH_T12kGX4Jr3FpQ90KDB", "width": 4032}], "place_id": "ChIJrXc0FkLzT0YRvBgSp0XXE7Q", "plus_code": {"compound_code": "MXX2+RR Gothenburg, Sweden", "global_code": "9F9HMXX2+RR"}, "price_level": 2, "rating": 3.7, "reference": "ChIJrXc0FkLzT0YRvBgSp0XXE7Q", "scope": "GOOGLE", "types": ["bar", "restaurant", "point_of_interest", "food", "establishment"], "user_ratings_total": 2345, "vicinity": "J\u00e4rntorget 4, G\u00f6teborg"}, {"business_status": "OPERATIONAL", "geometry": {"location": {"lat": 57.6986824, "lng": 11.9508701}, "viewport": {"northeast": {"lat": 57.70005107989272, "lng": 11.95227087989272}, "southwest": {"lat": 57.69735142010727, "lng": 11.94957122010728}}}, "icon": "https://maps.gstatic.com/mapfiles/place_api/icons/v1/png_71/bar-71.png", "icon_background_color": "#FF9E67", "icon_mask_base_uri": "https://maps.gstatic.com/mapfiles/place_api/icons/v2/bar_pinlet", "name": "Brewers Beer Bar", "opening_hours": {"open_now": true}, "photos": [{"height": 4512, "html_attributions": ["<a href=\"https://maps.google.com/maps/contrib/110731475827020479526\">Hongjiang julia</a>"], "photo_reference": "AUGGfZnz3_qSVjp812N1XOf-9te4cEo4EsnI4_On_IAtWE52k5Rr_SDNxfwP9Ye4ekvGUssc37ZYAe2SIpCU1pxjlB4t3axrafx9Qn63ScRCUjn_tCdfx-KSPDwdEYxNpOLIJjK9l111tYESO9ReqPrIx5W3J3C942C1d9cTctbcVcnmVlA_", "width": 6016}], "place_id": "ChIJFVpqi0HzT0YRnPm738h3v6k", "plus_code": {"compound_code": "MXX2+F8 Gothenburg, Sweden", "global_code": "9F9HMXX2+F8"}, "price_level": 2, "rating": 4.3, "reference": "ChIJFVpqi0HzT0YRnPm738h3v6k", "scope": "GOOGLE", "types": ["bar", "restaurant", "point_of_interest", "food", "establishment"], "user_ratings_total": 1514, "vicinity": "Tredje L\u00e5nggatan 8, G\u00f6teborg"}, {"business_status": "OPERATIONAL", "geometry": {"location": {"lat": 57.6996102, "lng": 11.9535924}, "viewport": {"northeast": {"lat": 57.70091072989272, "lng": 11.95492122989272}, "southwest": {"lat": 57.69821107010727, "lng": 11.95222157010728}}}, "icon": "https://maps.gstatic.com/mapfiles/place_api/icons/v1/png_71/bar-71.png", "icon_background_color": "#FF9E67", "icon_mask_base_uri": "https://maps.gstatic.com/mapfiles/place_api/icons/v2/bar_pinlet", "name": "Irish Embassy pub J\u00e4rntorget", "opening_hours": {"open_now": true}, "photos": [{"height": 3456, "html_attributions": ["<a href=\"https://maps.google.com/maps/contrib/105767169069703225376\">Madeline Nasseri</a>"], "photo_reference": "AUGGfZnAFY2gqRCo1_Gx_9hvAjNjq8EQpW8B-D02umQpqIDPNykMuQH2mfKgV5kWqP5AJk_iEo8y-TiI8wTpa0kSIY2OJEwMV4HKVqoIP3k-3MZ1coZL-h94pqvsNkHNnWRd-QVislDiqW_y3NgwPiIQANm-b-ZaY2mFXClf4htuaMJ4BXMU", "width": 5184}], "place_id": "ChIJxZDBCULzT0YRh-TWp6M5kBo", "plus_code": {"compound_code": "MXX3+RC Gothenburg, Sweden", "global_code": "9F9HMXX3+RC"}, "price_level": 2, "rating": 3.6, "reference": "ChIJxZDBCULzT0YRh-TWp6M5kBo", "scope": "GOOGLE", "types": ["bar", "restaurant", "point_of_interest", "food", "establishment"], "user_ratings_total": 1160, "vicinity": "J\u00e4rntorget 7, G\u00f6teborg"}, {"business_status": "OPERATIONAL", "geometry": {"location": {"lat": 57.6985693, "lng": 11.9436193}, "viewport": {"northeast": {"lat": 57.69997292989272, "lng": 11.94494472989272}, "southwest": {"lat": 57.69727327010727, "lng": 11.94224507010728}}}, "icon": "https://maps.gstatic.com/mapfiles/place_api/icons/v1/png_71/bar-71.png", "icon_background_color": "#FF9E67", "icon_mask_base_uri": "https://maps.gstatic.com/mapfiles/place_api/icons/v2/bar_pinlet", "name": "Hops", "opening_hours": {"open_now": true}, "photos": [{"height": 500, "html_attributions": ["<a href=\"https://maps.google.com/maps/contrib/114835415277707144313\">Hops food &amp; brews</a>"], "photo_reference": "AUGGfZliIFpMvopbD3ILUZXmykGVZi9Jp576jBYPk-WICCNM-qOTGDitIFGwG_6K9Rcsoa3UyVKkk3R-trOhTeBc-1ZQTN9WtB6x_MiDYCIhqr9g1e3h2OobZdP5AnwaTIOkMbE-IfKRqqTOXug4lzZiMNo9Fc6dK2wWCgPzVRsb70mKF3KM", "width": 750}], "place_id": "ChIJv67WuUbzT0YRyz-sJH66wds", "plus_code": {"compound_code": "MWXV+CC Gothenburg, Sweden", "global_code": "9F9HMWXV+CC"}, "price_level": 2, "rating": 4, "reference": "ChIJv67WuUbzT0YRyz-sJH66wds", "scope": "GOOGLE", "types": ["bar", "restaurant", "point_of_interest", "food", "establishment"], "user_ratings_total": 1250, "vicinity": "Masthuggstorget 3, G\u00f6teborg"}, {"business_status": "OPERATIONAL", "geometry": {"location": {"lat": 57.6984017, "lng": 11.9503978}, "viewport": {"northeast": {"lat": 57.69972327989272, "lng": 11.95138192989272}, "southwest": {"lat": 57.69702362010727, "lng": 11.94868227010728}}}, "icon": "https://maps.gstatic.com/mapfiles/place_api/icons/v1/png_71/restaurant-71.png", "icon_background_color": "#FF9E67", "icon_mask_base_uri": "https://maps.gstatic.com/mapfiles/place_api/icons/v2/restaurant_pinlet", "name": "Contrast Public House", "opening_hours": {"open_now": true}, "photos": [{"height": 4032, "html_attributions": ["<a href=\"https://maps.google.com/maps/contrib/112346231786221941214\">Aleksandra Puco\u0142owska</a>"], "photo_reference": "AUGGfZn2EuXt_ukPRwek-iHXLlHSeG3mPJWX0XKUg1pA3_snfcPxBxEjmIsCyu3iOO8rwOIAzpLb84vhdkUxGrIjkoiRAhTKfguQWWto8IaAP61r75ohRCV3jBcOcg4XeAulyrGAWgE7BSePNsO70nAvaw01N3YvnnMNxPbSg_qigDP4wm3D", "width": 3024}], "place_id": "ChIJZViZIEPzT0YRQDQB6TLMCiw", "plus_code": {"compound_code": "MXX2+95 Gothenburg, Sweden", "global_code": "9F9HMXX2+95"}, "price_level": 2, "rating": 4.1, "reference": "ChIJZViZIEPzT0YRQDQB6TLMCiw", "scope": "GOOGLE", "types": ["restaurant", "bar", "point_of_interest", "food", "establishment"], "user_ratings_total": 526, "vicinity": "Tredje L\u00e5nggatan 16, G\u00f6teborg"}, {"business_status": "OPERATIONAL", "geometry": {"location": {"lat": 57.7122441, "lng": 11.9917503}, "viewport": {"northeast": {"lat": 57.71355272989272, "lng": 11.99305197989272}, "southwest": {"lat": 57.71085307010728, "lng": 11.99035232010728}}}, "icon": "https://maps.gstatic.com/mapfiles/place_api/icons/v1/png_71/bar-71.png", "icon_background_color": "#FF9E67", "icon_mask_base_uri": "https://maps.gstatic.com/mapfiles/place_api/icons/v2/bar_pinlet", "name": "Restaurang Olivedal", "opening_hours": {"open_now": true}, "photos": [{"height": 3000, "html_attributions": ["<a href=\"https://maps.google.com/maps/contrib/100198366835893682170\">solidof</a>"], "photo_reference": "AUGGfZl5v-66a4J9bNvK27A-gxJ3ePmAZtSWqNL27E-lw5GZK8jmxl8pP1KzQ78WRx7_L7b0WEJhWCZsllDksX4rRFUYafILRX-X8b82au5EWsQ9xj-acAkIpxW5KLlpIIR2WO45zoMsVnJ3GcxubDJ_wCgt9SLVIgRTe5w_FS6E3G_B4bUB", "width": 4000}], "place_id": "ChIJoeGDHtLzT0YR83avQAgYluc", "plus_code": {"compound_code": "PX6R+VM Gothenburg, Sweden", "global_code": "9F9HPX6R+VM"}, "price_level": 2, "rating": 4.2, "reference": "ChIJoeGDHtLzT0YR83avQAgYluc", "scope": "GOOGLE", "types": ["bar", "restaurant", "point_of_interest", "food", "establishment"], "user_ratings_total": 338, "vicinity": "Ran\u00e4ngsgatan 8, G\u00f6teborg"}, {"business_status": "OPERATIONAL", "geometry": {"location": {"lat": 57.70505780000001, "lng": 11.9629564}, "viewport": {"northeast": {"lat": 57.70642047989271, "lng": 11.96439702989272}, "southwest": {"lat": 57.70372082010727, "lng": 11.96169737010728}}}, "icon": "https://maps.gstatic.com/mapfiles/place_api/icons/v1/png_71/bar-71.png", "icon_background_color": "#FF9E67", "icon_mask_base_uri": "https://maps.gstatic.com/mapfiles/place_api/icons/v2/bar_pinlet", "name": "The Bishops Arms - Plaza Gbg", "opening_hours": {"open_now": false}, "photos": [{"height": 3120, "html_attributions": ["<a href=\"https://maps.google.com/maps/contrib/108561789044334661456\">K K</a>"], "photo_reference": "AUGGfZkWpZgD46wut7ZzkVlaKEAGknOxzXOywli4QyEZm8iVT2cqNJxQ4786nfi1P9_IEaVJCl3ZQv0gGzTPc1DrTJTNOFV2gJ4va2Z1hlQSknENb2yE96iph2TVMUGIGTvtpR1X8eT-v9apqU-0JhmjL-zMKSJmqmgX-szI8RPEER3_fy4n", "width": 4160}], "place_id": "ChIJq68jQGbzT0YRXN0qWDMuRwg", "plus_code": {"compound_code": "PX47+25 Gothenburg, Sweden", "global_code": "9F9HPX47+25"}, "price_level": 2, "rating": 4.1, "reference": "ChIJq68jQGbzT0YRXN0qWDMuRwg", "scope": "GOOGLE", "types": ["bar", "restaurant", "point_of_interest", "food", "establishment"], "user_ratings_total": 1025, "vicinity": "V\u00e4stra Hamngatan 3, G\u00f6teborg"}, {"business_status": "OPERATIONAL", "geometry": {"location": {"lat": 57.6993238, "lng": 11.9494198}, "viewport": {"northeast": {"lat": 57.70066067989271, "lng": 11.95072607989272}, "southwest": {"lat": 57.69796102010726, "lng": 11.94802642010728}}}, "icon": "https://maps.gstatic.com/mapfiles/place_api/icons/v1/png_71/bar-71.png", "icon_background_color": "#FF9E67", "icon_mask_base_uri": "https://maps.gstatic.com/mapfiles/place_api/icons/v2/bar_pinlet", "name": "\u00d6lstugan Tullen Andra L\u00e5ng", "opening_hours": {"open_now": true}, "photos": [{"height": 3024, "html_attributions": ["<a href=\"https://maps.google.com/maps/contrib/108081715414778401608\">A Google User</a>"], "photo_reference": "AUGGfZk_KjXT6CRKvqM0DKzqNVvAJlMNKaw0wkvLuZGm3S5FnP-WIvTnqrSeYhOkSmYNWmV9_YbsR3tIRR2dVy7h0zVUPvNYIupErZ-_7ZDyU7guFsKO2YbpY-cKVupkjJj_qHm7t8BBIe87r3eVm0mrE9P2XEq0OyHDVu7qsasenp0LfWnB", "width": 4032}], "place_id": "ChIJddw3KkLzT0YRNf6Y8oVY0Ww", "plus_code": {"compound_code": "MWXX+PQ Gothenburg, Sweden", "global_code": "9F9HMWXX+PQ"}, "price_level": 2, "rating": 4.1, "reference": "ChIJddw3KkLzT0YRNf6Y8oVY0Ww", "scope": "GOOGLE", "types": ["bar", "restaurant", "point_of_interest", "food", "establishment"], "user_ratings_total": 1047, "vicinity": "Andra L\u00e5nggatan 13, G\u00f6teborg"}, {"business_status": "OPERATIONAL", "geometry": {"location": {"lat": 57.69885709999999, "lng": 11.9447383}, "viewport": {"northeast": {"lat": 57.70018932989272, "lng": 11.94609282989272}, "southwest": {"lat": 57.69748967010728, "lng": 11.94339317010728}}}, "icon": "https://maps.gstatic.com/mapfiles/place_api/icons/v1/png_71/bar-71.png", "icon_background_color": "#FF9E67", "icon_mask_base_uri": "https://maps.gstatic.com/mapfiles/place_api/icons/v2/bar_pinlet", "name": "The Abyss", "opening_hours": {"open_now": true}, "photos": [{"height": 3024, "html_attributions": ["<a href=\"https://maps.google.com/maps/contrib/109794477892699803989\">Daniel Werner</a>"], "photo_reference": "AUGGfZkZCSUAIm2PULuC1RsFqzgGdLurQFDXJOLJ0OD6w0vTLVjFsX3sZEcHuw7lZEBxvNPscudlXevnqdXCoJuTYuQWopgbWpkkNwv1T8D78oX1hyaLXl3V-XPpUyCwLYsEyd_vKCnpmc9xnCa4LCVrzeZ3x-gNRjfQYJiHIs33We3GwBf8", "width": 4032}], "place_id": "ChIJ56t_TUHzT0YRh9D0Qkrb-80", "plus_code": {"compound_code": "MWXV+HV Gothenburg, Sweden", "global_code": "9F9HMWXV+HV"}, "price_level": 1, "rating": 4.5, "reference": "ChIJ56t_TUHzT0YRh9D0Qkrb-80", "scope": "GOOGLE", "types": ["bar", "restaurant", "point_of_interest", "food", "establishment"], "user_ratings_total": 698, "vicinity": "Andra L\u00e5nggatan 35, G\u00f6teborg"}, {"business_status": "OPERATIONAL", "geometry": {"location": {"lat": 57.7000824, "lng": 11.9764464}, "viewport": {"northeast": {"lat": 57.70139662989272, "lng": 11.97780112989272}, "southwest": {"lat": 57.69869697010728, "lng": 11.97510147010728}}}, "icon": "https://maps.gstatic.com/mapfiles/place_api/icons/v1/png_71/bar-71.png", "icon_background_color": "#FF9E67", "icon_mask_base_uri": "https://maps.gstatic.com/mapfiles/place_api/icons/v2/bar_pinlet", "name": "Rockbaren", "opening_hours": {"open_now": true}, "photos": [{"height": 1066, "html_attributions": ["<a href=\"https://maps.google.com/maps/contrib/112050153669518618364\">A Google User</a>"], "photo_reference": "AUGGfZmFztjLSR8bOlZDTHfC04k62XW6sBNevUAlpbPArRJ0o5g7v2dbiTdCYLCa05AB2QbQiYflcvfEAulLBA39F_D7XML4ufR9NZd0iQmbH1BC3fecFKz6tTZKgnKiHK1qLBZqqYKADb5jwmIiDbxhQYCsAizb_G1AsUfBZQp7-878VxDK", "width": 1600}], "place_id": "ChIJ1aqv93DzT0YRIUQka1hUYS8", "plus_code": {"compound_code": "PX2G+2H Gothenburg, Sweden", "global_code": "9F9HPX2G+2H"}, "price_level": 1, "rating": 4, "reference": "ChIJ1aqv93DzT0YRIUQka1hUYS8", "scope": "GOOGLE", "types": ["night_club", "bar", "restaurant", "point_of_interest", "food", "establishment"], "user_ratings_total": 1405, "vicinity": "Kristinelundsgatan 14, G\u00f6teborg"}, {"business_status": "OPERATIONAL", "geometry": {"location": {"lat": 57.7038384, "lng": 11.9677798}, "viewport": {"northeast": {"lat": 57.70516587989272, "lng": 11.96909352989272}, "southwest": {"lat": 57.70246622010728, "lng": 11.96639387010728}}}, "icon": "https://maps.gstatic.com/mapfiles/place_api/icons/v1/png_71/bar-71.png", "icon_background_color": "#FF9E67", "icon_mask_base_uri": "https://maps.gstatic.com/mapfiles/place_api/icons/v2/bar_pinlet", "name": "\u00d6lhallen 7:an", "opening_hours": {"open_now": true}, "photos": [{"height": 1993, "html_attributions": ["<a href=\"https://maps.google.com/maps/contrib/109189813103321809969\">SenselessSupport</a>"], "photo_reference": "AUGGfZnVU8wCo5id8FrhaLrRBVllAEgOwjRDWHgrvV9eksObqERTH2UC55zOIPUTc8D-yujPCdW-g-JwJH85QoWPVmbHAK-H2S-JqqCGD-k7ccDdH4pT57C8i5UFS_Ldj6lSALR9oI3ez7Ssmx0jslfYR8X1FzDfQ8tk5LHR8477UhzFLgM1", "width": 3000}], "place_id": "ChIJJ1IjkGXzT0YRsg1gF-SKTYI", "plus_code": {"compound_code": "PX39+G4 Gothenburg, Sweden", "global_code": "9F9HPX39+G4"}, "price_level": 2, "rating": 4.5, "reference": "ChIJJ1IjkGXzT0YRsg1gF-SKTYI", "scope": "GOOGLE", "types": ["bar", "restaurant", "point_of_interest", "food", "establishment"], "user_ratings_total": 972, "vicinity": "Kungstorget 7, G\u00f6teborg"}, {"business_status": "OPERATIONAL", "geometry": {"location": {"lat": 57.69947879999999, "lng": 11.9528829}, "viewport": {"northeast": {"lat": 57.70071222989272, "lng": 11.95447102989272}, "southwest": {"lat": 57.69801257010727, "lng": 11.95177137010728}}}, "icon": "https://maps.gstatic.com/mapfiles/place_api/icons/v1/png_71/bar-71.png", "icon_background_color": "#FF9E67", "icon_mask_base_uri": "https://maps.gstatic.com/mapfiles/place_api/icons/v2/bar_pinlet", "name": "The Bishops Arms", "opening_hours": {"open_now": false}, "photos": [{"height": 3024, "html_attributions": ["<a href=\"https://maps.google.com/maps/contrib/109256300146479086562\">Ofir Michaeli</a>"], "photo_reference": "AUGGfZnSVkY7DZpZAkOILSvDgeTCo-3IlHES7M2U_-rmsIvLHThl1xCWQUAgNeIuQp8NJ-7HLVgGU6Gh7TRiOhrg7k93EotasZoau0xxH6qq2-0dUKqTSSS3hEYOMM0gXccHLlKpvriiZFDaugmvURadebZDhhw6S00NnsI5s7MvhWc-yq4R", "width": 4032}], "place_id": "ChIJTxErBkLzT0YRaBjgXzO9-UQ", "plus_code": {"compound_code": "MXX3+Q5 Gothenburg, Sweden", "global_code": "9F9HMXX3+Q5"}, "price_level": 2, "rating": 3.9, "reference": "ChIJTxErBkLzT0YRaBjgXzO9-UQ", "scope": "GOOGLE", "types": ["bar", "restaurant", "point_of_interest", "food", "establishment"], "user_ratings_total": 1275, "vicinity": "J\u00e4rntorget 6, G\u00f6teborg"}, {"business_status": "OPERATIONAL", "geometry": {"location": {"lat": 57.7047074, "lng": 11.961721}, "viewport": {"northeast": {"lat": 57.70607132989272, "lng": 11.96315077989272}, "southwest": {"lat": 57.70337167010728, "lng": 11.96045112010728}}}, "icon": "https://maps.gstatic.com/mapfiles/place_api/icons/v1/png_71/bar-71.png", "icon_background_color": "#FF9E67", "icon_mask_base_uri": "https://maps.gstatic.com/mapfiles/place_api/icons/v2/bar_pinlet", "name": "Brewers Beer Bar Magasinsgatan.", "opening_hours": {"open_now": true}, "photos": [{"height": 3024, "html_attributions": ["<a href=\"https://maps.google.com/maps/contrib/101498187039018067575\">A Google User</a>"], "photo_reference": "AUGGfZnT_nN9OtfV_J5Qch2dknoauQbfDUWNhAPQ0LM-ljdA96rtMtTH8WGqDqEnRe6QVhI6fb7tlONWg4dssFNvaKjGrmBu4T0GRqam9xVO9nw-M8urmEHiG3nupOg0TwIR_HT560CRouKtON9xEy_DBJ2TPQfokifqG9lZStkOwgiSUT0e", "width": 4032}], "place_id": "ChIJnQMaOmbzT0YRGt8KLXAcplg", "plus_code": {"compound_code": "PX36+VM Gothenburg, Sweden", "global_code": "9F9HPX36+VM"}, "price_level": 2, "rating": 4.3, "reference": "ChIJnQMaOmbzT0YRGt8KLXAcplg", "scope": "GOOGLE", "types": ["bar", "restaurant", "point_of_interest", "food", "establishment"], "user_ratings_total": 1146, "vicinity": "Magasinsgatan 3, G\u00f6teborg"}]