[{"business_status": "OPERATIONAL", "geometry": {"location": {"lat": 51.50538299999999, "lng": 7.452755299999999}, "viewport": {"northeast": {"lat": 51.50679927989272, "lng": 7.454089679892722}, "southwest": {"lat": 51.50409962010727, "lng": 7.451390020107278}}}, "icon": "https://maps.gstatic.com/mapfiles/place_api/icons/v1/png_71/bar-71.png", "icon_background_color": "#FF9E67", "icon_mask_base_uri": "https://maps.gstatic.com/mapfiles/place_api/icons/v2/bar_pinlet", "name": "Miner\u2018s Irish Pub", "opening_hours": {"open_now": true}, "photos": [{"height": 3974, "html_attributions": ["<a href=\"https://maps.google.com/maps/contrib/111820559309378795961\">A Google User</a>"], "photo_reference": "AUGGfZkUb_SxERNT2LlnzktK0Lv7G4LKZlz0kEjdq4td2wz3EBA2YQZbhpYqoHR4jU4hW9IyJkNZXvzS93P3z-bL8FCjNJthJ4ieq9zVW69_8tjO6K7sx07qM6l53xcM9BwsRGiwXhYxb0YB6SXi4AqQEZXzJqL99ZM7ugviOQsuaHrt4lhn", "width": 5961}], "place_id": "ChIJQw5yDmUZuUcRiIeMJ4hxDgU", "plus_code": {"compound_code": "GF43+54 Dortmund, Germany", "global_code": "9F39GF43+54"}, "rating": 4.6, "reference": "ChIJQw5yDmUZuUcRiIeMJ4hxDgU", "scope": "GOOGLE", "types": ["bar", "restaurant", "food", "point_of_interest", "establishment"], "user_ratings_total": 198, "vicinity": "Neuer Graben 74, Dortmund"}, {"business_status": "OPERATIONAL", "geometry": {"location": {"lat": 51.5118441, "lng": 7.4656537}, "viewport": {"northeast": {"lat": 51.51315277989271, "lng": 7.467066629892723}, "southwest": {"lat": 51.51045312010727, "lng": 7.464366970107279}}}, "icon": "https://maps.gstatic.com/mapfiles/place_api/icons/v1/png_71/bar-71.png", "icon_background_color": "#FF9E67", "icon_mask_base_uri": "https://maps.gstatic.com/mapfiles/place_api/icons/v2/bar_pinlet", "name": "Ratssch\u00e4nke", "opening_hours": {"open_now": true}, "photos": [{"height": 2592, "html_attributions": ["<a href=\"https://maps.google.com/maps/contrib/109545901548225032841\">Ratssch\u00e4nke</a>"], "photo_reference": "AUGGfZlUJL72k-_axOnBic5rqeCqtBH0J9XVAid_kTlxTe-LDAJ3BGdxX_ox5irRE-kF_-UtdM9JWhfgXTI7ai-qqe9ZtI9MicceEGvsZ9UeQQYi4N5BWc3F109w9CBdblSA4_wTzk4s3UZK0LPAwzJIg5qTpkT4dZhP-4zdyUg7qBWlUmyv", "width": 3872}], "place_id": "ChIJN9ujLeAZuUcRg1LBhOvX_Vk", "plus_code": {"compound_code": "GF68+P7 Dortmund, Germany", "global_code": "9F39GF68+P7"}, "price_level": 2, "rating": 4.6, "reference": "ChIJN9ujLeAZuUcRg1LBhOvX_Vk", "scope": "GOOGLE", "types": ["bar", "restaurant", "food", "point_of_interest", "establishment"], "user_ratings_total": 449, "vicinity": "Prinzenstra\u00dfe 7, Dortmund"}, {"business_status": "OPERATIONAL", "geometry": {"location": {"lat": 51.5133355, "lng": 7.4523084}, "viewport": {"northeast": {"lat": 51.51472007989273, "lng": 7.453637329892723}, "southwest": {"lat": 51.51202042010728, "lng": 7.450937670107279}}}, "icon": "https://maps.gstatic.com/mapfiles/place_api/icons/v1/png_71/bar-71.png", "icon_background_color": "#FF9E67", "icon_mask_base_uri": "https://maps.gstatic.com/mapfiles/place_api/icons/v2/bar_pinlet", "name": "Kraftstoff - Dortmund", "opening_hours": {"open_now": true}, "photos": [{"height": 3024, "html_attributions": ["<a href=\"https://maps.google.com/maps/contrib/113965503292816324015\">Oliver R</a>"], "photo_reference": "AUGGfZnu49B2YsaZ4BK7wgabTEjtKLM_Da3TEhsanZymgXmhOBJ72xDqiTnXqxohK8Fqw4SnFhZjpW4k9DgxjIka3cq_emoL4QFhdGR3uM2qsGc4WbZvXVnMfiyQ4anUhKBHUMJKCp1vDEhmmtuQz5OLXFIuli5A10mrF5wAn2_IqAU5yCem", "width": 4032}], "place_id": "ChIJZ7B4hegZuUcRQj1cWgrUwqM", "plus_code": {"compound_code": "GF72+8W Dortmund, Germany", "global_code": "9F39GF72+8W"}, "price_level": 2, "rating": 4.3, "reference": "ChIJZ7B4hegZuUcRQj1cWgrUwqM", "scope": "GOOGLE", "types": ["bar", "restaurant", "food", "point_of_interest", "establishment"], "user_ratings_total": 785, "vicinity": "Augustastra\u00dfe 2-4, Dortmund"}, {"business_status": "OPERATIONAL", "geometry": {"location": {"lat": 51.5214278, "lng": 7.4483631}, "viewport": {"northeast": {"lat": 51.52271867989272, "lng": 7.44973092989272}, "southwest": {"lat": 51.52001902010728, "lng": 7.447031270107276}}}, "icon": "https://maps.gstatic.com/mapfiles/place_api/icons/v1/png_71/bar-71.png", "icon_background_color": "#FF9E67", "icon_mask_base_uri": "https://maps.gstatic.com/mapfiles/place_api/icons/v2/bar_pinlet", "name": "Subrosa - Dortmund", "opening_hours": {"open_now": true}, "photos": [{"height": 3480, "html_attributions": ["<a href=\"https://maps.google.com/maps/contrib/103005634951559342018\">A Google User</a>"], "photo_reference": "AUGGfZnwPNlih3OIs4Pi02p8bAHE6EfiVOx0oMteWsIa6pe_yLQcbEQuSkO4PT7GztkrbiFAyJMhOObWF10ciGIc-0j-ZsItUXyPm2nK9coTCIr0GA42fRP4Q4j3F2q-oBTF3y_4agxZfk1-lkepIKhytKxkxulr3UmEqPMAByyUN13IMHaQ", "width": 4640}], "place_id": "ChIJyfO1A_IZuUcRzKZ5JeWIAAc", "plus_code": {"compound_code": "GCCX+H8 Dortmund, Germany", "global_code": "9F39GCCX+H8"}, "price_level": 2, "rating": 4.6, "reference": "ChIJyfO1A_IZuUcRzKZ5JeWIAAc", "scope": "GOOGLE", "types": ["bar", "restaurant", "food", "point_of_interest", "establishment"], "user_ratings_total": 503, "vicinity": "Gneisenaustra\u00dfe 56, Dortmund"}, {"business_status": "OPERATIONAL", "geometry": {"location": {"lat": 51.5139731, "lng": 7.467199799999999}, "viewport": {"northeast": {"lat": 51.51532292989272, "lng": 7.46854962989272}, "southwest": {"lat": 51.51262327010728, "lng": 7.465849970107276}}}, "icon": "https://maps.gstatic.com/mapfiles/place_api/icons/v1/png_71/bar-71.png", "icon_background_color": "#FF9E67", "icon_mask_base_uri": "https://maps.gstatic.com/mapfiles/place_api/icons/v2/bar_pinlet", "name": "G\u00e4nse Markt - Dortmund", "opening_hours": {"open_now": true}, "photos": [{"height": 3000, "html_attributions": ["<a href=\"https://maps.google.com/maps/contrib/115230326848843178397\">pawelkuczynski</a>"], "photo_reference": "AUGGfZnUTx1AdLLXa1aOKKP9IEkXMuRfPuX2nNFsZmljSAbZBK92ZxMzGZg1IOcT0JjFPvz8LEUQKKIospCo51PTIxpti57iNz79_nS7u9XFEz5p2KZcuf7N8K62M-G0rO141Xmv5MoCj_2ZtGIKdKwpdkn2WZrQWwXuyiI9wtNbMeYvw6O3", "width": 4000}], "place_id": "ChIJAe_xV18XuUcRmnPmTE6lXhg", "plus_code": {"compound_code": "GF78+HV Dortmund, Germany", "global_code": "9F39GF78+HV"}, "price_level": 1, "rating": 4.5, "reference": "ChIJAe_xV18XuUcRmnPmTE6lXhg", "scope": "GOOGLE", "types": ["bar", "restaurant", "food", "point_of_interest", "establishment"], "user_ratings_total": 884, "vicinity": "Schuhhof 8, Dortmund"}, {"business_status": "OPERATIONAL", "geometry": {"location": {"lat": 51.5110549, "lng": 7.46741}, "viewport": {"northeast": {"lat": 51.51246952989273, "lng": 7.469189479892722}, "southwest": {"lat": 51.50976987010728, "lng": 7.466489820107278}}}, "icon": "https://maps.gstatic.com/mapfiles/place_api/icons/v1/png_71/bar-71.png", "icon_background_color": "#FF9E67", "icon_mask_base_uri": "https://maps.gstatic.com/mapfiles/place_api/icons/v2/bar_pinlet", "name": "KLUBHAUS Dortmund", "opening_hours": {"open_now": true}, "photos": [{"height": 1104, "html_attributions": ["<a href=\"https://maps.google.com/maps/contrib/111936147363008773729\">A Google User</a>"], "photo_reference": "AUGGfZk8khQxJIPm0X7-9OH0GNNKmyw6TmLZtF4tuKxbRtDZ8L08HxwrsFcVL-5PDYvcOTCptc9bgWBUgvl6ku92ao5LC76y7VTF48D8_Yn62MNDjHJjwUakbugK2Z0C5N9Eqbo1blotc5kDFa7aT8PdIoe-a5wvO1-c_Xy9epGgtXoFNqLy", "width": 1656}], "place_id": "ChIJceKDoV8XuUcR_--3nrzubXc", "plus_code": {"compound_code": "GF68+CX Dortmund, Germany", "global_code": "9F39GF68+CX"}, "price_level": 2, "rating": 4.4, "reference": "ChIJceKDoV8XuUcR_--3nrzubXc", "scope": "GOOGLE", "types": ["bar", "restaurant", "food", "point_of_interest", "establishment"], "user_ratings_total": 1284, "vicinity": "Kleppingstra\u00dfe 37, Dortmund"}, {"business_status": "OPERATIONAL", "geometry": {"location": {"lat": 51.51289329999999, "lng": 7.4684813}, "viewport": {"northeast": {"lat": 51.51400452989272, "lng": 7.469686729892721}, "southwest": {"lat": 51.51130487010728, "lng": 7.466987070107277}}}, "icon": "https://maps.gstatic.com/mapfiles/place_api/icons/v1/png_71/restaurant-71.png", "icon_background_color": "#FF9E67", "icon_mask_base_uri": "https://maps.gstatic.com/mapfiles/place_api/icons/v2/restaurant_pinlet", "name": "SAUSALITOS", "opening_hours": {"open_now": true}, "photos": [{"height": 3024, "html_attributions": ["<a href=\"https://maps.google.com/maps/contrib/118171354200917247846\">A Google User</a>"], "photo_reference": "AUGGfZnSqJ3pl4TSc8aS-_RACnMGv-htbmREMHUHIOuHTiJSGZ8QCIYcr1fiWgoxGXCbv3oeyOHwMDLGs4oyXip-gmh2ubmUnEYKyN831RMzbjO9nkH4_bPeq4fgSjlWDDdgA5IfrrmrSbF9mxjYHZop9huncroazMOOx_vs9OukYzIUI86w", "width": 4032}], "place_id": "ChIJH-X4FF8XuUcRt4XRDM0UCIs", "plus_code": {"compound_code": "GF79+59 Dortmund, Germany", "global_code": "9F39GF79+59"}, "price_level": 2, "rating": 4, "reference": "ChIJH-X4FF8XuUcRt4XRDM0UCIs", "scope": "GOOGLE", "types": ["restaurant", "bar", "food", "point_of_interest", "establishment"], "user_ratings_total": 2200, "vicinity": "Kleppingstra\u00dfe 20, Dortmund"}, {"business_status": "OPERATIONAL", "geometry": {"location": {"lat": 51.5230869, "lng": 7.4526188}, "viewport": {"northeast": {"lat": 51.52444487989272, "lng": 7.454077229892722}, "southwest": {"lat": 51.52174522010728, "lng": 7.451377570107279}}}, "icon": "https://maps.gstatic.com/mapfiles/place_api/icons/v1/png_71/bar-71.png", "icon_background_color": "#FF9E67", "icon_mask_base_uri": "https://maps.gstatic.com/mapfiles/place_api/icons/v2/bar_pinlet", "name": "Caf\u00e9 Wikinger - Dortmund", "opening_hours": {"open_now": true}, "photos": [{"height": 960, "html_attributions": ["<a href=\"https://maps.google.com/maps/contrib/112112187819337780047\">Szymon Zawi\u015blak</a>"], "photo_reference": "AUGGfZkECk94Jl62SGGyHlCPvYzXncU8O9f5ZC9lBxG4lQqlomdA-BuiTDFdAajC3Ndt21TB6AxR0i-IxnLtGBHqoso6lq3iipgJ_9MJkl6X6WpRGFhx7RhSRSySoyWL-SzfTt0qlUihW4qkV7gNWqNWP83Ke6qAtFbmm1_baxbYoOQXR6A5", "width": 959}], "place_id": "ChIJj5F5U_AZuUcRX6emwykQqic", "plus_code": {"compound_code": "GFF3+62 Dortmund, Germany", "global_code": "9F39GFF3+62"}, "rating": 4.5, "reference": "ChIJj5F5U_AZuUcRX6emwykQqic", "scope": "GOOGLE", "types": ["bar", "liquor_store", "cafe", "restaurant", "food", "point_of_interest", "store", "establishment"], "user_ratings_total": 138, "vicinity": "Sch\u00fctzenstra\u00dfe 70, Dortmund"}, {"business_status": "OPERATIONAL", "geometry": {"location": {"lat": 51.5108581, "lng": 7.4746596}, "viewport": {"northeast": {"lat": 51.51217802989273, "lng": 7.475954829892722}, "southwest": {"lat": 51.50947837010729, "lng": 7.473255170107278}}}, "icon": "https://maps.gstatic.com/mapfiles/place_api/icons/v1/png_71/bar-71.png", "icon_background_color": "#FF9E67", "icon_mask_base_uri": "https://maps.gstatic.com/mapfiles/place_api/icons/v2/bar_pinlet", "name": "Perpendikel - Dortmund", "opening_hours": {"open_now": false}, "photos": [{"height": 582, "html_attributions": ["<a href=\"https://maps.google.com/maps/contrib/112708796756000081737\">Michael Mei\u00dfner</a>"], "photo_reference": "AUGGfZmaC4JqJpVY7fzXWwkvfxUXEGj7wh4VkkVp5PTljrEIBVuUYw2sLVakF62kR5PHxMLrUr7kgJvYYO0eBrsORxKpdu-B8p9CSoWvApKQs9gE9pNgE2EoPbNJCvda1SKOPm9nfw7-mE7HbZwVbn14x-qANZbz35kECVVu3SVm4wQEQwxh", "width": 1080}], "place_id": "ChIJF05yFKYXuUcRNyUSBOrqILE", "plus_code": {"compound_code": "GF6F+8V Dortmund, Germany", "global_code": "9F39GF6F+8V"}, "price_level": 2, "rating": 4.5, "reference": "ChIJF05yFKYXuUcRNyUSBOrqILE", "scope": "GOOGLE", "types": ["bar", "restaurant", "food", "point_of_interest", "establishment"], "user_ratings_total": 61, "vicinity": "Heiliger Weg 48, Dortmund"}, {"business_status": "OPERATIONAL", "geometry": {"location": {"lat": 51.5024291, "lng": 7.460028299999999}, "viewport": {"northeast": {"lat": 51.50385192989273, "lng": 7.46136287989272}, "southwest": {"lat": 51.50115227010728, "lng": 7.458663220107276}}}, "icon": "https://maps.gstatic.com/mapfiles/place_api/icons/v1/png_71/bar-71.png", "icon_background_color": "#FF9E67", "icon_mask_base_uri": "https://maps.gstatic.com/mapfiles/place_api/icons/v2/bar_pinlet", "name": "Briefk\u00e4stchen - Dortmund", "opening_hours": {"open_now": true}, "photos": [{"height": 4000, "html_attributions": ["<a href=\"https://maps.google.com/maps/contrib/109539695018912111633\">A Google User</a>"], "photo_reference": "AUGGfZli0gVEEE_J62EmC1yjm0sPx3G6yFN5-c9Sfj0UaEYLUt0XFYfM86KjCAiVKtjXrjfdd8pb5nVDeSOzfyrolDQiHuXS1NGojE4Yyf3-LY5jJzUVFMbSLsjdWFmum-bwDfAOvyyHLdGsbzwlntjdM_jo2r2M4VVRTYNPemyDPLPUsatn", "width": 1848}], "place_id": "ChIJpc6wHNkZuUcRYWH3XDMYxuw", "plus_code": {"compound_code": "GF26+X2 Dortmund, Germany", "global_code": "9F39GF26+X2"}, "price_level": 1, "rating": 4.7, "reference": "ChIJpc6wHNkZuUcRYWH3XDMYxuw", "scope": "GOOGLE", "types": ["bar", "cafe", "restaurant", "food", "point_of_interest", "establishment"], "user_ratings_total": 293, "vicinity": "Landgrafenstra\u00dfe 166, Dortmund"}, {"business_status": "OPERATIONAL", "geometry": {"location": {"lat": 51.5052505, "lng": 7.459331400000001}, "viewport": {"northeast": {"lat": 51.50663442989273, "lng": 7.460669179892722}, "southwest": {"lat": 51.50393477010729, "lng": 7.457969520107278}}}, "icon": "https://maps.gstatic.com/mapfiles/place_api/icons/v1/png_71/restaurant-71.png", "icon_background_color": "#FF9E67", "icon_mask_base_uri": "https://maps.gstatic.com/mapfiles/place_api/icons/v2/restaurant_pinlet", "name": "Luups Dortmund", "opening_hours": {"open_now": true}, "photos": [{"height": 3036, "html_attributions": ["<a href=\"https://maps.google.com/maps/contrib/100940532814812732245\">Marcus Roeske</a>"], "photo_reference": "AUGGfZkP-ItMngzVDt0-PzX071tObFzvpWUjNH9BQaYjjD-wi20FwTUGLlIe6ip0rb6mppKHkx8xOIjQB6Rf9F9m-rzKVDbCqX97BSi28BGSBaQhtIkHZMVS1ERWOPQ3B0SZR0HFX-cI7S2iuDilC7K2Y_u6zFUTGJdhm5uRxxGRLql3ob7U", "width": 4048}], "place_id": "ChIJe2hEuN4ZuUcRCe0CL_6hB0E", "plus_code": {"compound_code": "GF45+3P Dortmund, Germany", "global_code": "9F39GF45+3P"}, "price_level": 2, "rating": 4.4, "reference": "ChIJe2hEuN4ZuUcRCe0CL_6hB0E", "scope": "GOOGLE", "types": ["restaurant", "bar", "cafe", "food", "point_of_interest", "store", "establishment"], "user_ratings_total": 497, "vicinity": "Neuer Graben 2, Dortmund"}, {"business_status": "OPERATIONAL", "geometry": {"location": {"lat": 51.5059511, "lng": 7.471297099999999}, "viewport": {"northeast": {"lat": 51.50728472989272, "lng": 7.472504929892721}, "southwest": {"lat": 51.50458507010728, "lng": 7.469805270107277}}}, "icon": "https://maps.gstatic.com/mapfiles/place_api/icons/v1/png_71/bar-71.png", "icon_background_color": "#FF9E67", "icon_mask_base_uri": "https://maps.gstatic.com/mapfiles/place_api/icons/v2/bar_pinlet", "name": "Zum Z\u00f6llner - Dortmund", "opening_hours": {"open_now": true}, "photos": [{"height": 2268, "html_attributions": ["<a href=\"https://maps.google.com/maps/contrib/104416807852583506449\">Adrian Une</a>"], "photo_reference": "AUGGfZlLHPEjE6xErXF71csJEpKip93JWGRqLTSVi1wsATVQe9FZVjjF55H9LQGX-uHS40xgFaIWg8OgNbHgFP3sVHGU9flbZJQwaPpWWdBCbvTu3kesZA3F6xMZhV5Rx1SkKiCbl5DCCvtQ8CtjYlYFZ-8ylXjuzxrTgdhn2tw4cIfUDSEk", "width": 4032}], "place_id": "ChIJ-0GKLGEXuUcRoN1C7eHkdfA", "plus_code": {"compound_code": "GF4C+9G Dortmund, Germany", "global_code": "9F39GF4C+9G"}, "rating": 4.5, "reference": "ChIJ-0GKLGEXuUcRoN1C7eHkdfA", "scope": "GOOGLE", "types": ["bar", "restaurant", "food", "point_of_interest", "establishment"], "user_ratings_total": 141, "vicinity": "Hainallee 2, Dortmund"}, {"business_status": "OPERATIONAL", "geometry": {"location": {"lat": 51.51310549999999, "lng": 7.455677100000001}, "viewport": {"northeast": {"lat": 51.51446107989273, "lng": 7.456920479892721}, "southwest": {"lat": 51.51176142010728, "lng": 7.454220820107277}}}, "icon": "https://maps.gstatic.com/mapfiles/place_api/icons/v1/png_71/bar-71.png", "icon_background_color": "#FF9E67", "icon_mask_base_uri": "https://maps.gstatic.com/mapfiles/place_api/icons/v2/bar_pinlet", "name": "Bergman beer pub", "opening_hours": {"open_now": false}, "photos": [{"height": 4032, "html_attributions": ["<a href=\"https://maps.google.com/maps/contrib/107392540350474311581\">Chenxiao Hu Wu</a>"], "photo_reference": "AUGGfZn2vw8x6lzTJPk7u4OBRZPSaonEVIpZY6Sd1XMc-7shyWu0J0l1o9Iu5-sl-kIXl5ImHVrImd7oeGaVQHuhuURpJJy-qolWzLBt0iNG8Fdef9XaAUi1WTQpsDvXz5CkbEk_uVab2aBp75jX6Y90GWBVPHr4PE0caP0ves9XFiGtxjXb", "width": 3024}], "place_id": "ChIJr9gpTuYZuUcRmwLLjPc6JCI", "plus_code": {"compound_code": "GF74+67 Dortmund, Germany", "global_code": "9F39GF74+67"}, "price_level": 1, "rating": 4.7, "reference": "ChIJr9gpTuYZuUcRmwLLjPc6JCI", "scope": "GOOGLE", "types": ["bar", "restaurant", "food", "point_of_interest", "establishment"], "user_ratings_total": 1632, "vicinity": "Hoher Wall 36, Dortmund"}, {"business_status": "OPERATIONAL", "geometry": {"location": {"lat": 51.505533, "lng": 7.454631999999999}, "viewport": {"northeast": {"lat": 51.50694762989272, "lng": 7.455961929892721}, "southwest": {"lat": 51.50424797010728, "lng": 7.453262270107277}}}, "icon": "https://maps.gstatic.com/mapfiles/place_api/icons/v1/png_71/bar-71.png", "icon_background_color": "#FF9E67", "icon_mask_base_uri": "https://maps.gstatic.com/mapfiles/place_api/icons/v2/bar_pinlet", "name": "El Mundo", "opening_hours": {"open_now": true}, "photos": [{"height": 3024, "html_attributions": ["<a href=\"https://maps.google.com/maps/contrib/111749577507652264834\">B. Darius B.</a>"], "photo_reference": "AUGGfZlOlBFnyyZLQRmEufPOHjvT7hRvjJ3ot_6gNeDaoJdd_sVVS1E_nzLyD32HB3FPoqMfphUKLjXVovzCdOlg7f091zUVUIZZAYEjlkOzHsxNCB10v985ml1mcSQGUhdn9YHd5SfC5iLN-9ELGeWymOytpa30_t3rACiaLLOkTzumezWy", "width": 4032}], "place_id": "ChIJd5sbY9wZuUcRTyvokQIMH1U", "plus_code": {"compound_code": "GF43+6V Dortmund, Germany", "global_code": "9F39GF43+6V"}, "price_level": 2, "rating": 4.4, "reference": "ChIJd5sbY9wZuUcRTyvokQIMH1U", "scope": "GOOGLE", "types": ["bar", "cafe", "restaurant", "food", "point_of_interest", "store", "establishment"], "user_ratings_total": 258, "vicinity": "Neuer Graben 48, Dortmund"}, {"business_status": "OPERATIONAL", "geometry": {"location": {"lat": 51.5147536, "lng": 7.4690429}, "viewport": {"northeast": {"lat": 51.51634967989273, "lng": 7.470125679892721}, "southwest": {"lat": 51.51365002010728, "lng": 7.467426020107277}}}, "icon": "https://maps.gstatic.com/mapfiles/place_api/icons/v1/png_71/restaurant-71.png", "icon_background_color": "#FF9E67", "icon_mask_base_uri": "https://maps.gstatic.com/mapfiles/place_api/icons/v2/restaurant_pinlet", "name": "ALEX Dortmund", "opening_hours": {"open_now": true}, "photos": [{"height": 1080, "html_attributions": ["<a href=\"https://maps.google.com/maps/contrib/108988444417665887600\">I. Hellmann</a>"], "photo_reference": "AUGGfZmRAfwvplnR68Wpzabp5PJOkyVlVKT955i4DjGjhBPAPsILww5AavVL8w_LG3es1rJaHMhfIR-fgIw1YFmgztoAZwtWRzB4mxQWFg_PPCJqF-sMVGcpM1XFFbNWk50LGa_PFYpjfKgRkhjz9ju2DxTluo-VUyTjBxj0k6CJAALb8iqm", "width": 1920}], "place_id": "ChIJawBGz1gXuUcRT4s4lW1iZ_Y", "plus_code": {"compound_code": "GF79+WJ Dortmund, Germany", "global_code": "9F39GF79+WJ"}, "price_level": 2, "rating": 4.2, "reference": "ChIJawBGz1gXuUcRT4s4lW1iZ_Y", "scope": "GOOGLE", "types": ["restaurant", "bakery", "bar", "cafe", "food", "point_of_interest", "store", "establishment"], "user_ratings_total": 6509, "vicinity": "Ostenhellweg 18-21, Dortmund"}, {"business_status": "OPERATIONAL", "geometry": {"location": {"lat": 51.4939079, "lng": 7.453231399999999}, "viewport": {"northeast": {"lat": 51.49540742989272, "lng": 7.454547829892723}, "southwest": {"lat": 51.49270777010728, "lng": 7.451848170107279}}}, "icon": "https://maps.gstatic.com/mapfiles/place_api/icons/v1/png_71/bar-71.png", "icon_background_color": "#FF9E67", "icon_mask_base_uri": "https://maps.gstatic.com/mapfiles/place_api/icons/v2/bar_pinlet", "name": "Strobels Dortmund", "opening_hours": {"open_now": false}, "photos": [{"height": 3472, "html_attributions": ["<a href=\"https://maps.google.com/maps/contrib/107201652034949619358\">Michael Werminghaus</a>"], "photo_reference": "AUGGfZnTcNCBhkUXxbvgGRPuo_CUQRiKzKVCB4Ygnd5sN6TVuP5SkgG6Furjo_Yle6WmmYCcoNFUre2qWZvZrvkuhB0LVMPhAfgOPCyxXtiByrqU5VIMgQYzdi5YpOyMgrmCCepGFT6qxIeF-FHXnTjeJ71iaA17nM25kDaiW1mvNog0X8vl", "width": 4640}], "place_id": "ChIJ20k6c3Q0cEERrEr65VZ7VCs", "plus_code": {"compound_code": "FFV3+H7 Dortmund, Germany", "global_code": "9F39FFV3+H7"}, "price_level": 2, "rating": 4.4, "reference": "ChIJ20k6c3Q0cEERrEr65VZ7VCs", "scope": "GOOGLE", "types": ["bar", "restaurant", "food", "point_of_interest", "establishment"], "user_ratings_total": 2389, "vicinity": "Strobelallee 50, Dortmund"}, {"business_status": "OPERATIONAL", "geometry": {"location": {"lat": 51.51353270000001, "lng": 7.466559699999999}, "viewport": {"northeast": {"lat": 51.51483807989273, "lng": 7.468019729892723}, "southwest": {"lat": 51.51213842010728, "lng": 7.465320070107279}}}, "icon": "https://maps.gstatic.com/mapfiles/place_api/icons/v1/png_71/restaurant-71.png", "icon_background_color": "#FF9E67", "icon_mask_base_uri": "https://maps.gstatic.com/mapfiles/place_api/icons/v2/restaurant_pinlet", "name": "Wenkers am Markt", "opening_hours": {"open_now": true}, "photos": [{"height": 3000, "html_attributions": ["<a href=\"https://maps.google.com/maps/contrib/108271112200021600887\">P\u00e9ter Gausz</a>"], "photo_reference": "AUGGfZnZ7z657F3jThRrqK5w5Zm6m242p5YXZnzLr8d80HUlIDZNzohB7b-r2inG9t-63KpLNslF4GKIc1ov6U-YYuO2xx0DleVmoCnn0yjGtr1k49GATfQTarbtFiPkireMqbxtSIqtUpos8DbTNGjl_haRS8wROwdz-eFo-isq86HUraRX", "width": 4000}], "place_id": "ChIJs0-L4eEZuUcRghg4yLOCFiA", "plus_code": {"compound_code": "GF78+CJ Dortmund, Germany", "global_code": "9F39GF78+CJ"}, "price_level": 2, "rating": 4.4, "reference": "ChIJs0-L4eEZuUcRghg4yLOCFiA", "scope": "GOOGLE", "types": ["restaurant", "bar", "food", "point_of_interest", "establishment"], "user_ratings_total": 2461, "vicinity": "Betenstra\u00dfe 1, Dortmund"}, {"business_status": "OPERATIONAL", "geometry": {"location": {"lat": 51.5170945, "lng": 7.4650657}, "viewport": {"northeast": {"lat": 51.51876032989272, "lng": 7.46627507989272}, "southwest": {"lat": 51.51606067010727, "lng": 7.463575420107277}}}, "icon": "https://maps.gstatic.com/mapfiles/place_api/icons/v1/png_71/restaurant-71.png", "icon_background_color": "#FF9E67", "icon_mask_base_uri": "https://maps.gstatic.com/mapfiles/place_api/icons/v2/restaurant_pinlet", "name": "Kaya Grill", "opening_hours": {"open_now": true}, "photos": [{"height": 900, "html_attributions": ["<a href=\"https://maps.google.com/maps/contrib/113354803912279618146\">A Google User</a>"], "photo_reference": "AUGGfZk3soGkC7nRzns4WvrbAL_3C-cUQtRYgcHFPJdH0WtwkEyn9Bz4dO_3mpAPLn6ByTTmaDkFsCnjPX2MG_c68RH9Waq9OgacBUJCb88MS4KR_Qd4yGlZy5tVTFhcRstfNt2C9RSm9eua-oh9YjxQXfWjHvE-I5dNc61nLTo5TLZl8eYS", "width": 1600}], "place_id": "ChIJjYS7V-IZuUcRSyb1JBRM378", "plus_code": {"compound_code": "GF88+R2 Dortmund, Germany", "global_code": "9F39GF88+R2"}, "price_level": 1, "rating": 4.2, "reference": "ChIJjYS7V-IZuUcRSyb1JBRM378", "scope": "GOOGLE", "types": ["restaurant", "food", "point_of_interest", "establishment"], "user_ratings_total": 133, "vicinity": "Br\u00fcckstra\u00dfe 60, Dortmund"}, {"business_status": "OPERATIONAL", "geometry": {"location": {"lat": 51.5200858, "lng": 7.453028799999999}, "viewport": {"northeast": {"lat": 51.52143452989272, "lng": 7.454547179892723}, "southwest": {"lat": 51.51873487010727, "lng": 7.451847520107279}}}, "icon": "https://maps.gstatic.com/mapfiles/place_api/icons/v1/png_71/restaurant-71.png", "icon_background_color": "#FF9E67", "icon_mask_base_uri": "https://maps.gstatic.com/mapfiles/place_api/icons/v2/restaurant_pinlet", "name": "Bardak", "opening_hours": {"open_now": true}, "photos": [{"height": 3024, "html_attributions": ["<a href=\"https://maps.google.com/maps/contrib/109072563695843764283\">Sergio Danieli</a>"], "photo_reference": "AUGGfZlyNC2DjIIQPTe5UQWv0bfWaJXFN_rMcmflppdB-IRjMnCZTSbrFdJOC2SsXwxBKHTzNUdGhiuUFMlXy3npQ2xtIWWByJ7OA7ISDLhmGFCYc_Z0CtJSFNwpnQc8MkQ7qgraukGtqorlOCNbTXshOE20hxq1-aL_7mmo199WBH_es30e", "width": 4032}], "place_id": "ChIJYXBD3e8ZuUcRSq_IXGYw5vw", "plus_code": {"compound_code": "GFC3+26 Dortmund, Germany", "global_code": "9F39GFC3+26"}, "price_level": 2, "rating": 4.3, "reference": "ChIJYXBD3e8ZuUcRSq_IXGYw5vw", "scope": "GOOGLE", "types": ["restaurant", "food", "point_of_interest", "establishment"], "user_ratings_total": 573, "vicinity": "Sch\u00fctzenstra\u00dfe 22, Dortmund"}, {"business_status": "OPERATIONAL", "geometry": {"location": {"lat": 51.4941468, "lng": 7.469038899999999}, "viewport": {"northeast": {"lat": 51.49545017989273, "lng": 7.470431479892721}, "southwest": {"lat": 51.49275052010729, "lng": 7.467731820107277}}}, "icon": "https://maps.gstatic.com/mapfiles/place_api/icons/v1/png_71/restaurant-71.png", "icon_background_color": "#FF9E67", "icon_mask_base_uri": "https://maps.gstatic.com/mapfiles/place_api/icons/v2/restaurant_pinlet", "name": "Ginger", "opening_hours": {"open_now": false}, "photos": [{"height": 3000, "html_attributions": ["<a href=\"https://maps.google.com/maps/contrib/100306011646822594311\">Lisa Dreier</a>"], "photo_reference": "AUGGfZlYCrbaNNZ0_RNZygVZOGLp0mA8fgL5HPa8WuTYdvn8UJ_Eo6ob49hD1BHybBmWn_b45xe7_Dc07vJj4A_gpxBxJaxWu_Ny9Y5EHXQuuTWqwMS6u74Y7qAfHwy2wsNPPVLQ7XeC9J0I5OQtNqF80QdEMsH2Ixi0khFtZGBLKdqyxFk", "width": 4000}], "place_id": "ChIJJ3944HAXuUcRS9nfSnvh2t0", "plus_code": {"compound_code": "FFV9+MJ Dortmund, Germany", "global_code": "9F39FFV9+MJ"}, "rating": 3.1, "reference": "ChIJJ3944HAXuUcRS9nfSnvh2t0", "scope": "GOOGLE", "types": ["restaurant", "bar", "food", "point_of_interest", "establishment"], "user_ratings_total": 15, "vicinity": "An d. Buschm\u00fchle 1, Dortmund"}]