[{"business_status": "OPERATIONAL", "geometry": {"location": {"lat": 51.2704777, "lng": 0.5252095}, "viewport": {"northeast": {"lat": 51.27180692989272, "lng": 0.5265195798927221}, "southwest": {"lat": 51.26910727010728, "lng": 0.5238199201072777}}}, "icon": "https://maps.gstatic.com/mapfiles/place_api/icons/v1/png_71/bar-71.png", "icon_background_color": "#FF9E67", "icon_mask_base_uri": "https://maps.gstatic.com/mapfiles/place_api/icons/v2/bar_pinlet", "name": "Ye Olde Thirsty Pig", "opening_hours": {"open_now": true}, "photos": [{"height": 1536, "html_attributions": ["<a href=\"https://maps.google.com/maps/contrib/104256446361657531302\">A Google User</a>"], "photo_reference": "AUc7tXW1j_bMuhTq4q-VjX87AoAaoAEoEhFaAGOSTKWec6wdI7q7e-Wzs7THhOxfks-87uWuyRCNhOVmCiqqy8O4HRjsLlSxnLggOe07v1RGz6srqDWppKmqE6WjyOzOhri8X1DYbe87NPUCsiekJl_cXD63zcDOsDMIKfja9oA26FD-LUYb", "width": 2048}], "place_id": "ChIJR5d9mi8y30cRFuCuOFxa3qQ", "plus_code": {"compound_code": "7GCG+53 Maidstone, United Kingdom", "global_code": "9F327GCG+53"}, "price_level": 2, "rating": 4.6, "reference": "ChIJR5d9mi8y30cRFuCuOFxa3qQ", "scope": "GOOGLE", "types": ["bar", "point_of_interest", "establishment"], "user_ratings_total": 485, "vicinity": "4A Knightrider St, Maidstone"}, {"business_status": "OPERATIONAL", "geometry": {"location": {"lat": 51.2749818, "lng": 0.5217672}, "viewport": {"northeast": {"lat": 51.27629642989272, "lng": 0.5232662298927223}, "southwest": {"lat": 51.27359677010728, "lng": 0.5205665701072779}}}, "icon": "https://maps.gstatic.com/mapfiles/place_api/icons/v1/png_71/bar-71.png", "icon_background_color": "#FF9E67", "icon_mask_base_uri": "https://maps.gstatic.com/mapfiles/place_api/icons/v2/bar_pinlet", "name": "Druids Arms", "opening_hours": {"open_now": true}, "photos": [{"height": 2448, "html_attributions": ["<a href=\"https://maps.google.com/maps/contrib/108799232238745210508\">Max Daley</a>"], "photo_reference": "AUc7tXWUCsKshEI_6eBdoAODgYtcdvCj9RUINI4pZR4-5Z91lDhwn1a-_VaTqtgB5WmhNe80SPDZYojgR7HcS8936VZ6i_pusKblC-4e8QIs82KfGa4woAOLo4KYbYqVeuw7asafR8MCcPYMz0gduiMeVv9T-ZVaMTufLfLSd773hoOe4Fgf", "width": 3264}], "place_id": "ChIJ8V1inzEy30cRSgMvAFETfsM", "plus_code": {"compound_code": "7GFC+XP Maidstone, United Kingdom", "global_code": "9F327GFC+XP"}, "price_level": 2, "rating": 4.3, "reference": "ChIJ8V1inzEy30cRSgMvAFETfsM", "scope": "GOOGLE", "types": ["bar", "restaurant", "food", "point_of_interest", "establishment"], "user_ratings_total": 669, "vicinity": "24 Earl St, Maidstone"}, {"business_status": "OPERATIONAL", "geometry": {"location": {"lat": 51.2748944, "lng": 0.5215013}, "viewport": {"northeast": {"lat": 51.27622002989272, "lng": 0.5228555798927221}, "southwest": {"lat": 51.27352037010727, "lng": 0.5201559201072776}}}, "icon": "https://maps.gstatic.com/mapfiles/place_api/icons/v1/png_71/bar-71.png", "icon_background_color": "#FF9E67", "icon_mask_base_uri": "https://maps.gstatic.com/mapfiles/place_api/icons/v2/bar_pinlet", "name": "Market House", "opening_hours": {"open_now": true}, "photos": [{"height": 1333, "html_attributions": ["<a href=\"https://maps.google.com/maps/contrib/114421349102973333556\">A Google User</a>"], "photo_reference": "AUc7tXXL_-2H0FzbwRKOOe7BNI5cIMopzo8-ey2Ckr752fneodsrS53ao7FbVmKssv83D8zgGm2m1t4L11WBsh1dxEOGtZNf_93xTs6dfxLZeA8Z9Ay67PYCv2uuMhSwzh3A1V7F-LmBZrDxnYfenXGFV-VfcqhXpobq2bPt7cOb1lK5ulLU", "width": 2000}], "place_id": "ChIJ-VavnjEy30cRH8DmcXkw1x8", "plus_code": {"compound_code": "7GFC+XH Maidstone, United Kingdom", "global_code": "9F327GFC+XH"}, "price_level": 2, "rating": 4.4, "reference": "ChIJ-VavnjEy30cRH8DmcXkw1x8", "scope": "GOOGLE", "types": ["bar", "restaurant", "food", "point_of_interest", "establishment"], "user_ratings_total": 801, "vicinity": "30 Earl St, Maidstone"}, {"business_status": "OPERATIONAL", "geometry": {"location": {"lat": 51.2730942, "lng": 0.5187668}, "viewport": {"northeast": {"lat": 51.27444872989273, "lng": 0.5200501798927222}, "southwest": {"lat": 51.27174907010728, "lng": 0.5173505201072778}}}, "icon": "https://maps.gstatic.com/mapfiles/place_api/icons/v1/png_71/bar-71.png", "icon_background_color": "#FF9E67", "icon_mask_base_uri": "https://maps.gstatic.com/mapfiles/place_api/icons/v2/bar_pinlet", "name": "Drakes", "opening_hours": {"open_now": true}, "photos": [{"height": 3024, "html_attributions": ["<a href=\"https://maps.google.com/maps/contrib/111219358780597585419\">A Google User</a>"], "photo_reference": "AUc7tXViR1BL1VBSmTVEGTQzVSqwjDwoZTFwsAVa3HMQdLMDIeZukNI6sinNmwbJmullerIl48NUzMNj-bghcCovBgL7sbGUIDwlFIHuvysYsPJd4RcDxxQ0K46zwzYdOC1XgTJuyUJNMINXouE143OxEO4eN9yrYbKRGtjyrfztnembRwsi", "width": 4032}], "place_id": "ChIJO-imOzIy30cR4387JITKsUE", "plus_code": {"compound_code": "7GF9+6G Maidstone, United Kingdom", "global_code": "9F327GF9+6G"}, "price_level": 2, "rating": 4.4, "reference": "ChIJO-imOzIy30cR4387JITKsUE", "scope": "GOOGLE", "types": ["bar", "park", "restaurant", "food", "point_of_interest", "establishment"], "user_ratings_total": 588, "vicinity": "9 Fairmeadow, Maidstone"}, {"business_status": "OPERATIONAL", "geometry": {"location": {"lat": 51.2732772, "lng": 0.5227105}, "viewport": {"northeast": {"lat": 51.27479417989272, "lng": 0.5238989798927223}, "southwest": {"lat": 51.27209452010727, "lng": 0.5211993201072779}}}, "icon": "https://maps.gstatic.com/mapfiles/place_api/icons/v1/png_71/bar-71.png", "icon_background_color": "#FF9E67", "icon_mask_base_uri": "https://maps.gstatic.com/mapfiles/place_api/icons/v2/bar_pinlet", "name": "The Brenchley", "opening_hours": {"open_now": true}, "photos": [{"height": 2268, "html_attributions": ["<a href=\"https://maps.google.com/maps/contrib/102438689527992580984\">The Brenchley</a>"], "photo_reference": "AUc7tXWF2IaAtXpy43HLQfXQOR1d342rsUFxl1EEg88MqRR50pOqUmzhal5TBy7vRWeJKU-rJrqIJeTNEZBvcZkYG540m2R6SSeRvQhoX5us2fHEKbqTaGRmFWhncJhf0hlDWULQO1hBgspyRItrn_QjUq64rEBcjq_i2NR4OMWI1qLFFBFY", "width": 4032}], "place_id": "ChIJvYVqyTEy30cRyfiYx0vgWkg", "plus_code": {"compound_code": "7GFF+83 Maidstone, United Kingdom", "global_code": "9F327GFF+83"}, "price_level": 1, "rating": 4.1, "reference": "ChIJvYVqyTEy30cRyfiYx0vgWkg", "scope": "GOOGLE", "types": ["bar", "restaurant", "food", "point_of_interest", "establishment"], "user_ratings_total": 1870, "vicinity": "91 High St, Maidstone"}, {"business_status": "OPERATIONAL", "geometry": {"location": {"lat": 51.2759735, "lng": 0.523784}, "viewport": {"northeast": {"lat": 51.27729037989272, "lng": 0.5251387298927223}, "southwest": {"lat": 51.27459072010728, "lng": 0.5224390701072777}}}, "icon": "https://maps.gstatic.com/mapfiles/place_api/icons/v1/png_71/bar-71.png", "icon_background_color": "#FF9E67", "icon_mask_base_uri": "https://maps.gstatic.com/mapfiles/place_api/icons/v2/bar_pinlet", "name": "Duke Of Marlborough", "opening_hours": {"open_now": true}, "photos": [{"height": 1836, "html_attributions": ["<a href=\"https://maps.google.com/maps/contrib/100171514346665495840\">A Google User</a>"], "photo_reference": "AUc7tXXnm6lY2Kq2hxfgf82Vga6eVJSKqf4NE-JX5avwtc2-miBtCSUaaXnp0AtYNxVWG9Y3dTLByBTUuec2J8X6pq0urk7n4TByEYsCXeKUc8QehWO4QsNkQQpISVtd0iKsETh4DTQ1KIbhOL0ZA71tvoQpcnc1UZLSa4E5_sUbMl46h8co", "width": 3264}], "place_id": "ChIJcZJa5DAy30cRs_3LweGs190", "plus_code": {"compound_code": "7GGF+9G Maidstone, United Kingdom", "global_code": "9F327GGF+9G"}, "price_level": 2, "rating": 4.5, "reference": "ChIJcZJa5DAy30cRs_3LweGs190", "scope": "GOOGLE", "types": ["bar", "point_of_interest", "establishment"], "user_ratings_total": 235, "vicinity": "Duke of Marlborough, 27 Union St, Maidstone"}, {"business_status": "OPERATIONAL", "geometry": {"location": {"lat": 51.2771464, "lng": 0.5257071}, "viewport": {"northeast": {"lat": 51.27853027989271, "lng": 0.5270674798927222}, "southwest": {"lat": 51.27583062010727, "lng": 0.5243678201072777}}}, "icon": "https://maps.gstatic.com/mapfiles/place_api/icons/v1/png_71/bar-71.png", "icon_background_color": "#FF9E67", "icon_mask_base_uri": "https://maps.gstatic.com/mapfiles/place_api/icons/v2/bar_pinlet", "name": "The Eagle Pub Maidstone", "opening_hours": {"open_now": true}, "photos": [{"height": 2407, "html_attributions": ["<a href=\"https://maps.google.com/maps/contrib/101827673959230276618\">B\u00e9la Sz\u0151ke</a>"], "photo_reference": "AUc7tXWimP46ofnNXfCuS7gXsZZa-yDjqivBFrdP0_H_Xc7BKThewkAjRZ7uecDiNEWx5RMw-gq7nXyYVowCLU1ZMBQQbGXIHGUlt6jygSRXTrMADl45DiRiNM5_g0EsTg320o_qUG4DskFHBEr_vu_6RXZ3JOmBMNnT1DjIMIGPsqTDc79A", "width": 3210}], "place_id": "ChIJPeWkrzAy30cR_MIsZoIULPA", "plus_code": {"compound_code": "7GGG+V7 Maidstone, United Kingdom", "global_code": "9F327GGG+V7"}, "price_level": 1, "rating": 4.5, "reference": "ChIJPeWkrzAy30cR_MIsZoIULPA", "scope": "GOOGLE", "types": ["bar", "point_of_interest", "establishment"], "user_ratings_total": 97, "vicinity": "56 Brewer St, Maidstone"}, {"business_status": "OPERATIONAL", "geometry": {"location": {"lat": 51.27545869999999, "lng": 0.5305002}, "viewport": {"northeast": {"lat": 51.27680327989272, "lng": 0.5319376298927223}, "southwest": {"lat": 51.27410362010728, "lng": 0.5292379701072778}}}, "icon": "https://maps.gstatic.com/mapfiles/place_api/icons/v1/png_71/bar-71.png", "icon_background_color": "#FF9E67", "icon_mask_base_uri": "https://maps.gstatic.com/mapfiles/place_api/icons/v2/bar_pinlet", "name": "Coach House Maidstone", "opening_hours": {"open_now": true}, "photos": [{"height": 3024, "html_attributions": ["<a href=\"https://maps.google.com/maps/contrib/108962725833781702458\">A Google User</a>"], "photo_reference": "AUc7tXWK2mGeTAxmqDQurADNNkvOc_DoNylK1ofk-Jbc3E7KxbysWOMOjmj5VqHcHUXXa2x2aByYKFs-RU4XH1x6zt_xF7aZGNlrHYdrB3jysHwu8huWvpGS8i4FIq-8ZjAb3zD5F0takKZoJfMJJFNlUWGzIQPCFY51AqSG5nQX_LLKj7UM", "width": 4032}], "place_id": "ChIJD9L0oTsy30cRJuJ--Rrh8zc", "plus_code": {"compound_code": "7GGJ+55 Maidstone, United Kingdom", "global_code": "9F327GGJ+55"}, "price_level": 2, "rating": 4.6, "reference": "ChIJD9L0oTsy30cRJuJ--Rrh8zc", "scope": "GOOGLE", "types": ["bar", "point_of_interest", "establishment"], "user_ratings_total": 118, "vicinity": "11 Queen Anne Rd, Maidstone"}, {"business_status": "OPERATIONAL", "geometry": {"location": {"lat": 51.268545, "lng": 0.5092059999999999}, "viewport": {"northeast": {"lat": 51.26993312989272, "lng": 0.5105967298927222}, "southwest": {"lat": 51.26723347010728, "lng": 0.5078970701072777}}}, "icon": "https://maps.gstatic.com/mapfiles/place_api/icons/v1/png_71/bar-71.png", "icon_background_color": "#FF9E67", "icon_mask_base_uri": "https://maps.gstatic.com/mapfiles/place_api/icons/v2/bar_pinlet", "name": "The First & Last", "opening_hours": {"open_now": true}, "photos": [{"height": 3024, "html_attributions": ["<a href=\"https://maps.google.com/maps/contrib/104825823516207738093\">David White</a>"], "photo_reference": "AUc7tXX10fUYUS-8yiWmgM-5MacnjnVhk6iiv7UC6lR8YSuTcj_nTIFLbnFlBwCTDR00IiXnGeR6fj1WFTsRgwdbkt5gqRxk7TWXrEKpm18WT6H-I66MUBeJuoo0DDptUGYlvF04_VrPg4xTP_GN5X8_1oOUtAtas4Uof7trsAkEoZZGMAqo", "width": 4032}], "place_id": "ChIJ5_cZ6NMz30cRrUp-J2FCqK0", "plus_code": {"compound_code": "7G95+CM Maidstone, United Kingdom", "global_code": "9F327G95+CM"}, "price_level": 2, "rating": 4.6, "reference": "ChIJ5_cZ6NMz30cRrUp-J2FCqK0", "scope": "GOOGLE", "types": ["bar", "point_of_interest", "establishment"], "user_ratings_total": 151, "vicinity": "40 Bower Pl, Maidstone"}, {"business_status": "OPERATIONAL", "geometry": {"location": {"lat": 51.2739906, "lng": 0.5212514}, "viewport": {"northeast": {"lat": 51.27504867989272, "lng": 0.5228662798927222}, "southwest": {"lat": 51.27234902010728, "lng": 0.5201666201072778}}}, "icon": "https://maps.gstatic.com/mapfiles/place_api/icons/v1/png_71/bar-71.png", "icon_background_color": "#FF9E67", "icon_mask_base_uri": "https://maps.gstatic.com/mapfiles/place_api/icons/v2/bar_pinlet", "name": "The Skull Bar", "opening_hours": {"open_now": true}, "photos": [{"height": 6936, "html_attributions": ["<a href=\"https://maps.google.com/maps/contrib/101506984541948451963\">Davy Jones</a>"], "photo_reference": "AUc7tXW325f8fndW4z28qxsS0bo3zAaTfutzXiKJG8WVFz8yscCHXZeLUeg722IKYHS1GK-3fVHM-bNqp0JHqvF_iG68GOioVfDDGGrCHBKic2tVo43I1mI8fNPMW5g1_NOaN9NHYxTsZ57ySZVr1QQHZst5HljQobM7Nh4cqL_LDeH52NGz", "width": 9248}], "place_id": "ChIJp6ssuLQz30cRmhM-ZYBIKHc", "plus_code": {"compound_code": "7GFC+HG Maidstone, United Kingdom", "global_code": "9F327GFC+HG"}, "rating": 4.8, "reference": "ChIJp6ssuLQz30cRmhM-ZYBIKHc", "scope": "GOOGLE", "types": ["bar", "restaurant", "food", "point_of_interest", "establishment"], "user_ratings_total": 318, "vicinity": "31, Royal Star Arcade, High St, Maidstone"}, {"business_status": "OPERATIONAL", "geometry": {"location": {"lat": 51.2738005, "lng": 0.5118077}, "viewport": {"northeast": {"lat": 51.27513532989273, "lng": 0.5130746298927222}, "southwest": {"lat": 51.27243567010728, "lng": 0.5103749701072777}}}, "icon": "https://maps.gstatic.com/mapfiles/place_api/icons/v1/png_71/bar-71.png", "icon_background_color": "#FF9E67", "icon_mask_base_uri": "https://maps.gstatic.com/mapfiles/place_api/icons/v2/bar_pinlet", "name": "The White Horse", "opening_hours": {"open_now": true}, "photos": [{"height": 1836, "html_attributions": ["<a href=\"https://maps.google.com/maps/contrib/100171514346665495840\">A Google User</a>"], "photo_reference": "AUc7tXVvvF-5Zs-Tg8Fp0dq-EHAPiqeunoK7w7Jcm_oni92HUDoaGgIruWFqBLRoiA8xHx7THeVOjjuAs3K0V0sDqZsdv6-rvfZkeH23VKY4t0uqGz8ikDy7S_ttvPCrzORMOtQ2ifanpG2lvQH6CW3UfIpd3-oh4or9ZXwatsRpqsQuO-ju", "width": 3264}], "place_id": "ChIJJ2YPZc0z30cR5hcQctgbsOk", "plus_code": {"compound_code": "7GF6+GP Maidstone, United Kingdom", "global_code": "9F327GF6+GP"}, "price_level": 2, "rating": 4.5, "reference": "ChIJJ2YPZc0z30cR5hcQctgbsOk", "scope": "GOOGLE", "types": ["bar", "point_of_interest", "establishment"], "user_ratings_total": 233, "vicinity": "46 London Rd, Maidstone"}, {"business_status": "OPERATIONAL", "geometry": {"location": {"lat": 51.28577319999999, "lng": 0.5423264}, "viewport": {"northeast": {"lat": 51.28710402989272, "lng": 0.5439475798927222}, "southwest": {"lat": 51.28440437010727, "lng": 0.5412479201072777}}}, "icon": "https://maps.gstatic.com/mapfiles/place_api/icons/v1/png_71/bar-71.png", "icon_background_color": "#FF9E67", "icon_mask_base_uri": "https://maps.gstatic.com/mapfiles/place_api/icons/v2/bar_pinlet", "name": "Chiltern Hundreds", "opening_hours": {"open_now": true}, "photos": [{"height": 1080, "html_attributions": ["<a href=\"https://maps.google.com/maps/contrib/116226757691831729334\">A Google User</a>"], "photo_reference": "AUc7tXV5YMCpu4TwtvUQTMlrEqseAUnRdVZUsNQm0eL1IlF1HH2KmMK0CTvoFLYRzLp0mcnxM8Cph2SyLcEWehRQMllDzxSWIhc2p_NfDuss8H2yi4LXnSyyqtue5h_fWscaB1zKG-rxiqH8ASq9dxC84h2lLRpQX1SQJsGcqdcmYWY-PSOA", "width": 1920}], "place_id": "ChIJYXF8DGoy30cROt6dnDPB788", "plus_code": {"compound_code": "7GPR+8W Maidstone, United Kingdom", "global_code": "9F327GPR+8W"}, "price_level": 2, "rating": 4.1, "reference": "ChIJYXF8DGoy30cROt6dnDPB788", "scope": "GOOGLE", "types": ["bar", "restaurant", "food", "point_of_interest", "establishment"], "user_ratings_total": 1400, "vicinity": "Penenden Heath Rd, Penenden Heath, Maidstone"}, {"business_status": "OPERATIONAL", "geometry": {"location": {"lat": 51.27554809999999, "lng": 0.5200353999999999}, "viewport": {"northeast": {"lat": 51.27642912989272, "lng": 0.5214297}, "southwest": {"lat": 51.27372947010728, "lng": 0.5183840999999999}}}, "icon": "https://maps.gstatic.com/mapfiles/place_api/icons/v1/png_71/bar-71.png", "icon_background_color": "#FF9E67", "icon_mask_base_uri": "https://maps.gstatic.com/mapfiles/place_api/icons/v2/bar_pinlet", "name": "Royal Albion", "opening_hours": {"open_now": true}, "photos": [{"height": 1000, "html_attributions": ["<a href=\"https://maps.google.com/maps/contrib/107793661230650420722\">Royal Albion - Shepherd Neame</a>"], "photo_reference": "AUc7tXVG7vlXPzenwl9paLrYlizq0rAi_HlFVKVND4S3InzpJl3ejYmlhmqopwQNIM97SxupPvMUI3UhMM6nfqtX1o5x363aANbfWQ-_nmtaXRETdE0_q9tQ19FouMASJSAvneTtf-Kczj6pBhmXQSkUami2CPX-mfcKO4C2yUXQ2RbzXRhR", "width": 664}], "place_id": "ChIJH_t91jMy30cRNOTHKMjwsPs", "plus_code": {"compound_code": "7GGC+62 Maidstone, United Kingdom", "global_code": "9F327GGC+62"}, "price_level": 2, "rating": 4.3, "reference": "ChIJH_t91jMy30cRNOTHKMjwsPs", "scope": "GOOGLE", "types": ["bar", "point_of_interest", "establishment"], "user_ratings_total": 195, "vicinity": "19 Havock Lane, Maidstone"}, {"business_status": "OPERATIONAL", "geometry": {"location": {"lat": 51.28247169999999, "lng": 0.5186045}, "viewport": {"northeast": {"lat": 51.28383657989271, "lng": 0.5199475798927222}, "southwest": {"lat": 51.28113692010727, "lng": 0.5172479201072777}}}, "icon": "https://maps.gstatic.com/mapfiles/place_api/icons/v1/png_71/bar-71.png", "icon_background_color": "#FF9E67", "icon_mask_base_uri": "https://maps.gstatic.com/mapfiles/place_api/icons/v2/bar_pinlet", "name": "The Flower Pot", "opening_hours": {"open_now": true}, "photos": [{"height": 3024, "html_attributions": ["<a href=\"https://maps.google.com/maps/contrib/105077495816936695047\">Richard Wakefield</a>"], "photo_reference": "AUc7tXVv8yd_7Kxvek7wDgY_mW9su0qPR6FpQhcGB2HNzfgawYXq7gqc0vU-rRyjK--F4lk2zl0Mi-A1b_1gf29lf6OfwbklvjWXzNLZFIINXglzrxHsLDHgYA7oopJN198j8DrhMd0Tx0Gi9aIWGoGEEK0lNmqBeHECWLwSEA7VfxRvNZ60", "width": 4032}], "place_id": "ChIJA3dQjjUy30cRyV_PQbbpnPw", "plus_code": {"compound_code": "7GJ9+XC Maidstone, United Kingdom", "global_code": "9F327GJ9+XC"}, "price_level": 1, "rating": 4.6, "reference": "ChIJA3dQjjUy30cRyV_PQbbpnPw", "scope": "GOOGLE", "types": ["bar", "point_of_interest", "establishment"], "user_ratings_total": 387, "vicinity": "96 Sandling Rd, Maidstone"}, {"business_status": "OPERATIONAL", "geometry": {"location": {"lat": 51.2760578, "lng": 0.5257167}, "viewport": {"northeast": {"lat": 51.27744422989272, "lng": 0.5270550298927221}, "southwest": {"lat": 51.27474457010727, "lng": 0.5243553701072777}}}, "icon": "https://maps.gstatic.com/mapfiles/place_api/icons/v1/png_71/bar-71.png", "icon_background_color": "#FF9E67", "icon_mask_base_uri": "https://maps.gstatic.com/mapfiles/place_api/icons/v2/bar_pinlet", "name": "The Style & Winch", "opening_hours": {"open_now": true}, "photos": [{"height": 1444, "html_attributions": ["<a href=\"https://maps.google.com/maps/contrib/109893558381231346771\">Derek Headlam</a>"], "photo_reference": "AUc7tXUaMwehR2tB9l93_o0hmBnW2x0bkNaVPYSML9BdElOX79PuefKnKjhJgfCfftgWr3pwYMCb-NuGK1sAoWAbVUwBaQhM8R19RNxHKhIkdoiPR-OW72jOWSgfz3lVtV4rknPQd4y14yVU8hjDHnl98qX8Kqk1YYU2Qpd0XB-P17Chpuck", "width": 2988}], "place_id": "ChIJCTfRmzAy30cRdNaCGOQDgpI", "plus_code": {"compound_code": "7GGG+C7 Maidstone, United Kingdom", "global_code": "9F327GGG+C7"}, "price_level": 2, "rating": 4.4, "reference": "ChIJCTfRmzAy30cRdNaCGOQDgpI", "scope": "GOOGLE", "types": ["bar", "point_of_interest", "establishment"], "user_ratings_total": 195, "vicinity": "72 Union St, Maidstone"}, {"business_status": "OPERATIONAL", "geometry": {"location": {"lat": 51.2634059, "lng": 0.5135358999999999}, "viewport": {"northeast": {"lat": 51.26474142989272, "lng": 0.5148320298927221}, "southwest": {"lat": 51.26204177010727, "lng": 0.5121323701072776}}}, "icon": "https://maps.gstatic.com/mapfiles/place_api/icons/v1/png_71/bar-71.png", "icon_background_color": "#FF9E67", "icon_mask_base_uri": "https://maps.gstatic.com/mapfiles/place_api/icons/v2/bar_pinlet", "name": "The Royal Paper Mill", "opening_hours": {"open_now": true}, "photos": [{"height": 4000, "html_attributions": ["<a href=\"https://maps.google.com/maps/contrib/100171514346665495840\">A Google User</a>"], "photo_reference": "AUc7tXX508p4eHJZL372T3snBZidvuOXOlTjRn-35QgiMfjtmfpOVg6PqpEVXxOlXSJOCZLkh7pqOcix6t_DS3Sc7m2qfl-FPjxCyzA7sPFSeU3tWyUQSU_yHxDqRb1NmhryLi2xBYs7YShsDLs1wvgWLefpvgi390FNYtNv2g1Wz50xD5pG", "width": 2250}], "place_id": "ChIJV-L6N9Uz30cR40-Wnx9oka0", "plus_code": {"compound_code": "7G77+9C Maidstone, United Kingdom", "global_code": "9F327G77+9C"}, "price_level": 1, "rating": 4.5, "reference": "ChIJV-L6N9Uz30cR40-Wnx9oka0", "scope": "GOOGLE", "types": ["bar", "point_of_interest", "establishment"], "user_ratings_total": 58, "vicinity": "39 Tovil Hill, Maidstone"}, {"business_status": "OPERATIONAL", "geometry": {"location": {"lat": 51.2855709, "lng": 0.5526069}, "viewport": {"northeast": {"lat": 51.28680327989272, "lng": 0.5540395298927223}, "southwest": {"lat": 51.28410362010727, "lng": 0.5513398701072778}}}, "icon": "https://maps.gstatic.com/mapfiles/place_api/icons/v1/png_71/bar-71.png", "icon_background_color": "#FF9E67", "icon_mask_base_uri": "https://maps.gstatic.com/mapfiles/place_api/icons/v2/bar_pinlet", "name": "Newnham Court Inn - Pub & Grill", "opening_hours": {"open_now": true}, "photos": [{"height": 1080, "html_attributions": ["<a href=\"https://maps.google.com/maps/contrib/106130321140232410076\">Mark Locke</a>"], "photo_reference": "AUc7tXXsn37zWZMAeIizwY5Qz6KaGj7mEmQcmXfszL05EtXZe_j8ccN1KNq5y4Y1sh-NN6DBjfEjVS2KY8rL-OHpG5kJpsJkm5btEGl0JzIs5Phw3G3o2Xlz-O7qDKeebdeOes3AE9t5TDg65eMJqV5eMFCyYPL2AJuD_G99OxN7of0bFTfZ", "width": 1920}], "place_id": "ChIJc5Nbk3Iy30cRlLh2aVDtwqk", "plus_code": {"compound_code": "7HP3+62 Maidstone, United Kingdom", "global_code": "9F327HP3+62"}, "price_level": 1, "rating": 4, "reference": "ChIJc5Nbk3Iy30cRlLh2aVDtwqk", "scope": "GOOGLE", "types": ["bar", "restaurant", "food", "point_of_interest", "establishment"], "user_ratings_total": 1627, "vicinity": "Bearsted Rd, Weavering, Maidstone"}, {"business_status": "OPERATIONAL", "geometry": {"location": {"lat": 51.2802924, "lng": 0.5067157999999999}, "viewport": {"northeast": {"lat": 51.28151147989272, "lng": 0.5078058298927223}, "southwest": {"lat": 51.27881182010727, "lng": 0.5051061701072778}}}, "icon": "https://maps.gstatic.com/mapfiles/place_api/icons/v1/png_71/bar-71.png", "icon_background_color": "#FF9E67", "icon_mask_base_uri": "https://maps.gstatic.com/mapfiles/place_api/icons/v2/bar_pinlet", "name": "Pippin", "opening_hours": {"open_now": true}, "photos": [{"height": 1200, "html_attributions": ["<a href=\"https://maps.google.com/maps/contrib/105062520639568462489\">Ovidiu</a>"], "photo_reference": "AUc7tXXS8SCChGEzRcctJYJ_-uuSJfQsFN5E2XzeguT79g0GAxAWaG7TYe1tGyo9M7raafapVUXFPOKhnWigpxrT1X5z-4_sCpsl0gh1MzSQw-D3FNCkeaWv2wMwvHeke_UMlm-1ukAFodrh-tHMXApzEHF44k05j2yxSrPg1dOPTiOt74DG", "width": 1600}], "place_id": "ChIJ2QQ8qMkz30cRrC50CRl83tA", "plus_code": {"compound_code": "7GJ4+4M Maidstone, United Kingdom", "global_code": "9F327GJ4+4M"}, "price_level": 2, "rating": 4, "reference": "ChIJ2QQ8qMkz30cRrC50CRl83tA", "scope": "GOOGLE", "types": ["bar", "restaurant", "food", "point_of_interest", "establishment"], "user_ratings_total": 1129, "vicinity": "78 London Rd, Maidstone"}, {"business_status": "OPERATIONAL", "geometry": {"location": {"lat": 51.2721265, "lng": 0.515184}, "viewport": {"northeast": {"lat": 51.27346967989272, "lng": 0.5165409798927223}, "southwest": {"lat": 51.27077002010728, "lng": 0.5138413201072778}}}, "icon": "https://maps.gstatic.com/mapfiles/place_api/icons/v1/png_71/bar-71.png", "icon_background_color": "#FF9E67", "icon_mask_base_uri": "https://maps.gstatic.com/mapfiles/place_api/icons/v2/bar_pinlet", "name": "The Cellars Alehouse", "opening_hours": {"open_now": true}, "photos": [{"height": 869, "html_attributions": ["<a href=\"https://maps.google.com/maps/contrib/105077495816936695047\">Richard Wakefield</a>"], "photo_reference": "AUc7tXU5ueO8tlKyPxogATSRuRvpsXulIDCbVKTf85gJlYavEqZfcOoE59p20nfwckUT6hNe12YJyeVBeghrwQTKiXJikq77E4wqe6gWt7q5ZE3HaBNk-U2o2aSsGO7Zy15A_67IXTS_2iayl1NA-EQVxxp7-g_LCD3GIjIT_QeXFP8ZjuOZ", "width": 1170}], "place_id": "ChIJ86ENWi0y30cRJ5BrR5a9VIw", "plus_code": {"compound_code": "7GC8+V3 Maidstone, UK", "global_code": "9F327GC8+V3"}, "price_level": 1, "rating": 4.8, "reference": "ChIJ86ENWi0y30cRJ5BrR5a9VIw", "scope": "GOOGLE", "types": ["bar", "point_of_interest", "establishment"], "user_ratings_total": 315, "vicinity": "The old brewery, Buckland Rd, Maidstone"}, {"business_status": "OPERATIONAL", "geometry": {"location": {"lat": 51.2730859, "lng": 0.5213424}, "viewport": {"northeast": {"lat": 51.27445407989272, "lng": 0.5226982798927222}, "southwest": {"lat": 51.27175442010727, "lng": 0.5199986201072778}}}, "icon": "https://maps.gstatic.com/mapfiles/place_api/icons/v1/png_71/bar-71.png", "icon_background_color": "#FF9E67", "icon_mask_base_uri": "https://maps.gstatic.com/mapfiles/place_api/icons/v2/bar_pinlet", "name": "The Stag", "opening_hours": {"open_now": true}, "photos": [{"height": 3902, "html_attributions": ["<a href=\"https://maps.google.com/maps/contrib/114323275076868785917\">Alan Gillett</a>"], "photo_reference": "AUc7tXUN-78CrVLs_DMk9C0Zd5XnD-bGnfib2IexkvM9Vpe4jBUXxS9oC0oGwIeEyRid4x7jLJ04lCnksibenx7DtFidfQWZQvoZKsYqHFLBukeQYGyqkGZDOen2TqHBvznN2r3JIdQwbuKokZlImj8_KM0IiWniLyg_VUHnYIsla_BaMzNU", "width": 5869}], "place_id": "ChIJz66I-zEy30cRayKr2Mhqh9A", "plus_code": {"compound_code": "7GFC+6G Maidstone, United Kingdom", "global_code": "9F327GFC+6G"}, "price_level": 2, "rating": 4.2, "reference": "ChIJz66I-zEy30cRayKr2Mhqh9A", "scope": "GOOGLE", "types": ["bar", "point_of_interest", "establishment"], "user_ratings_total": 248, "vicinity": "11 Middle Row, Maidstone"}, {"business_status": "OPERATIONAL", "geometry": {"location": {"lat": 51.2732579, "lng": 0.521002}, "viewport": {"northeast": {"lat": 51.27461492989272, "lng": 0.5223747798927222}, "southwest": {"lat": 51.27191527010728, "lng": 0.5196751201072778}}}, "icon": "https://maps.gstatic.com/mapfiles/place_api/icons/v1/png_71/bar-71.png", "icon_background_color": "#FF9E67", "icon_mask_base_uri": "https://maps.gstatic.com/mapfiles/place_api/icons/v2/bar_pinlet", "name": "The Herbalist", "opening_hours": {"open_now": true}, "photos": [{"height": 3024, "html_attributions": ["<a href=\"https://maps.google.com/maps/contrib/108978648858208949576\">David Clarke</a>"], "photo_reference": "AUc7tXWn4reGCxkmbQptb-PUvju7QaVyKgx7hLG9Dhkp-qm8oX8NvoUKRotHPqdLyNRQcyhnDhNC02JNBBbbgJH-Ter_LZf3vAJObDt3ZOQZI4tcqpsi9uTpnbPAGslfi2q2Ua05KL9Ze4yyvYOlPi-FQ6Om4I5K8lsAs9wYKH4FhgggrsAV", "width": 4032}], "place_id": "ChIJZ0Y9xJIz30cR7nezh0xQOzk", "plus_code": {"compound_code": "7GFC+79 Maidstone, United Kingdom", "global_code": "9F327GFC+79"}, "price_level": 2, "rating": 4.3, "reference": "ChIJZ0Y9xJIz30cR7nezh0xQOzk", "scope": "GOOGLE", "types": ["bar", "restaurant", "food", "point_of_interest", "establishment"], "user_ratings_total": 792, "vicinity": "1-9 Pudding Ln, Maidstone"}, {"business_status": "OPERATIONAL", "geometry": {"location": {"lat": 51.2770559, "lng": 0.5568069}, "viewport": {"northeast": {"lat": 51.27852312989272, "lng": 0.5582326298927224}, "southwest": {"lat": 51.27582347010728, "lng": 0.5555329701072779}}}, "icon": "https://maps.gstatic.com/mapfiles/place_api/icons/v1/png_71/bar-71.png", "icon_background_color": "#FF9E67", "icon_mask_base_uri": "https://maps.gstatic.com/mapfiles/place_api/icons/v2/bar_pinlet", "name": "Early Bird", "opening_hours": {"open_now": true}, "photos": [{"height": 2592, "html_attributions": ["<a href=\"https://maps.google.com/maps/contrib/108462743805337435196\">Marius Ispas</a>"], "photo_reference": "AUc7tXUc1TrdnUDXa0Rwt--yVHPX1r8WdgzB7X7yl3feq38q84bJUZnojQwBobwRfGM0ZWvLXyQO1VZqKAjeA3FJa4LSwTLsfyNrRqW7NIqf61td4VhcAH9uONi9vWYdPisS5vNdIEyy-3P0Zhn8tDeewBINDw3dttxxElPd8Y60TfG-prnL", "width": 4608}], "place_id": "ChIJO8sIUgky30cRQL1NGLCMmZg", "plus_code": {"compound_code": "7HG4+RP Maidstone, United Kingdom", "global_code": "9F327HG4+RP"}, "price_level": 2, "rating": 4.4, "reference": "ChIJO8sIUgky30cRQL1NGLCMmZg", "scope": "GOOGLE", "types": ["bar", "restaurant", "food", "point_of_interest", "establishment"], "user_ratings_total": 294, "vicinity": "Minor Centre, Grovewood Dr N, Weavering, Maidstone"}, {"business_status": "OPERATIONAL", "geometry": {"location": {"lat": 51.2737347, "lng": 0.5223146}, "viewport": {"northeast": {"lat": 51.27503387989272, "lng": 0.5237299798927222}, "southwest": {"lat": 51.27233422010728, "lng": 0.5210303201072778}}}, "icon": "https://maps.gstatic.com/mapfiles/place_api/icons/v1/png_71/bar-71.png", "icon_background_color": "#FF9E67", "icon_mask_base_uri": "https://maps.gstatic.com/mapfiles/place_api/icons/v2/bar_pinlet", "name": "The Muggleton Inn - JD Wetherspoon", "opening_hours": {"open_now": true}, "photos": [{"height": 3000, "html_attributions": ["<a href=\"https://maps.google.com/maps/contrib/101827673959230276618\">B\u00e9la Sz\u0151ke</a>"], "photo_reference": "AUc7tXUWWQKLnS5OhDtyQDltEFqQz0HCgwaVxDRKNSi0rZKyiDf4nEqFBzaRYzBtd29EDgZH8L9GbksgDAs3MCH9gKIi9b540SOzLRarnyb14jclHGB3JFIWglZXzn_qTSQcldXZFHV01CH4BL3EysOsRDjt4NOu6ThrvSqlkqJFdkokjIqJ", "width": 4000}], "place_id": "ChIJZ9J5FFsz30cRriXmnOZrYpk", "plus_code": {"compound_code": "7GFC+FW Maidstone, United Kingdom", "global_code": "9F327GFC+FW"}, "price_level": 1, "rating": 3.8, "reference": "ChIJZ9J5FFsz30cRriXmnOZrYpk", "scope": "GOOGLE", "types": ["bar", "restaurant", "food", "point_of_interest", "establishment"], "user_ratings_total": 1497, "vicinity": "8-9 High St, Maidstone"}, {"business_status": "OPERATIONAL", "geometry": {"location": {"lat": 51.2892721, "lng": 0.5373753}, "viewport": {"northeast": {"lat": 51.29053992989272, "lng": 0.5386325298927224}, "southwest": {"lat": 51.28784027010727, "lng": 0.5359328701072779}}}, "icon": "https://maps.gstatic.com/mapfiles/place_api/icons/v1/png_71/bar-71.png", "icon_background_color": "#FF9E67", "icon_mask_base_uri": "https://maps.gstatic.com/mapfiles/place_api/icons/v2/bar_pinlet", "name": "Bull", "opening_hours": {"open_now": true}, "photos": [{"height": 2988, "html_attributions": ["<a href=\"https://maps.google.com/maps/contrib/109537368332181197568\">Ruxandra Vitale</a>"], "photo_reference": "AUc7tXXNM5stwpq_x_vMkXUs8362a45z3uuLJnr-jCxMzoQjBHn7qxIgxrM77FhJXkOE8RI4CxDe3PnZ2NMdyizT5yiNUk-24v4f07YHPn9_275AOpxvpwxws8_Lrtqy869rZMnYudPsMXfufhbwi47jxX0S2KApkRSD5mg5sC7meKmY9DKV", "width": 5312}], "place_id": "ChIJ_3F2-Dcy30cRSjy7s2O9Lgo", "plus_code": {"compound_code": "7GQP+PW Maidstone, United Kingdom", "global_code": "9F327GQP+PW"}, "price_level": 2, "rating": 3.9, "reference": "ChIJ_3F2-Dcy30cRSjy7s2O9Lgo", "scope": "GOOGLE", "types": ["bar", "restaurant", "food", "point_of_interest", "establishment"], "user_ratings_total": 1022, "vicinity": "Boxley Rd, Penenden Heath, Maidstone"}, {"business_status": "OPERATIONAL", "geometry": {"location": {"lat": 51.268465, "lng": 0.526555}, "viewport": {"northeast": {"lat": 51.26983072989272, "lng": 0.5278616298927222}, "southwest": {"lat": 51.26713107010728, "lng": 0.5251619701072777}}}, "icon": "https://maps.gstatic.com/mapfiles/place_api/icons/v1/png_71/bar-71.png", "icon_background_color": "#FF9E67", "icon_mask_base_uri": "https://maps.gstatic.com/mapfiles/place_api/icons/v2/bar_pinlet", "name": "Lashings Bar & Grill", "opening_hours": {"open_now": false}, "photos": [{"height": 4032, "html_attributions": ["<a href=\"https://maps.google.com/maps/contrib/110986360009670067999\">Lachezar Georgiev</a>"], "photo_reference": "AUc7tXUsetc2HL1u2L11-UwDBeT9nr4v7xhv_2p2nYQkIczxe92Zl3wO82Si_ktcsm_jMb5AWiz6ZM_bfKJpSVwMfhZ7c0E4Ia7ClZ44Zjn4BapmIlvkuAKs0cq33h1dYr5YAExMDAWRGbJHuq2TuFsbJwNX_iBLp5hk8IR5qsWTQQYRRMwr", "width": 3024}], "place_id": "ChIJu2ZB8yUy30cRdhYD0FHaQTk", "plus_code": {"compound_code": "7G9G+9J Maidstone, United Kingdom", "global_code": "9F327G9G+9J"}, "price_level": 2, "rating": 4.1, "reference": "ChIJu2ZB8yUy30cRdhYD0FHaQTk", "scope": "GOOGLE", "types": ["bar", "restaurant", "food", "point_of_interest", "establishment"], "user_ratings_total": 317, "vicinity": "Lashings House, 81-83 Upper Stone St, Maidstone"}, {"business_status": "OPERATIONAL", "geometry": {"location": {"lat": 51.277258, "lng": 0.5221279}, "viewport": {"northeast": {"lat": 51.27881422989272, "lng": 0.5233148298927222}, "southwest": {"lat": 51.27611457010727, "lng": 0.5206151701072776}}}, "icon": "https://maps.gstatic.com/mapfiles/place_api/icons/v1/png_71/bar-71.png", "icon_background_color": "#FF9E67", "icon_mask_base_uri": "https://maps.gstatic.com/mapfiles/place_api/icons/v2/bar_pinlet", "name": "Mu Mu: Lounges Cabaret Club", "opening_hours": {"open_now": true}, "photos": [{"height": 3024, "html_attributions": ["<a href=\"https://maps.google.com/maps/contrib/108978648858208949576\">David Clarke</a>"], "photo_reference": "AUc7tXVmwFPM6TkzKV1bultRJbPqghE-raZSkb54a2D4z3WVsHoFB1xSwHl6wnZ8YlDPn2x3ggkuN4HPTYYW_m9tAQFGPp1fN4wUl4G56e9YSiuFrEge46S38jBF_OQCFZf8-UE_5dkA7ah_NXNYYPEPoJgdErND1ta1CJ6PEdwvdm4gGCC2", "width": 4032}], "place_id": "ChIJNdxVMDEy30cRC_QqIBzyQKE", "plus_code": {"compound_code": "7GGC+WV Maidstone, United Kingdom", "global_code": "9F327GGC+WV"}, "price_level": 2, "rating": 4.3, "reference": "ChIJNdxVMDEy30cRC_QqIBzyQKE", "scope": "GOOGLE", "types": ["night_club", "bar", "restaurant", "food", "point_of_interest", "establishment"], "user_ratings_total": 663, "vicinity": "108-110 Week St, Maidstone"}, {"business_status": "OPERATIONAL", "geometry": {"location": {"lat": 51.2743045, "lng": 0.5194489}, "viewport": {"northeast": {"lat": 51.27565762989272, "lng": 0.5207849298927222}, "southwest": {"lat": 51.27295797010728, "lng": 0.5180852701072777}}}, "icon": "https://maps.gstatic.com/mapfiles/place_api/icons/v1/png_71/restaurant-71.png", "icon_background_color": "#FF9E67", "icon_mask_base_uri": "https://maps.gstatic.com/mapfiles/place_api/icons/v2/restaurant_pinlet", "name": "La Taberna", "opening_hours": {"open_now": true}, "photos": [{"height": 2927, "html_attributions": ["<a href=\"https://maps.google.com/maps/contrib/100537678572968488107\">La Taberna, Spanish Restaurant</a>"], "photo_reference": "AUc7tXUtKjLs6KO_mJsq4b_FmRjFIvUUqxZ9YGw1Y39__0Io-llDa_OBtedIhn_GR8PcowcE_gjPaDE4Xmu4x0Xcff5uFh8sE6CbBC5olFFAlwF86GIWqXYG615lNdKom_hmvprKI0vnGxbdON2JdaZITDBqtj6T2k0y2w7q0Zy_kmqoX5tR", "width": 4391}], "place_id": "ChIJR-GT7jAy30cR1HpP6DoBjn4", "plus_code": {"compound_code": "7GF9+PQ Maidstone, United Kingdom", "global_code": "9F327GF9+PQ"}, "price_level": 2, "rating": 4.7, "reference": "ChIJR-GT7jAy30cR1HpP6DoBjn4", "scope": "GOOGLE", "types": ["restaurant", "food", "point_of_interest", "establishment"], "user_ratings_total": 702, "vicinity": "Corpus Christi Hall, 51 Earl St, Maidstone"}, {"business_status": "OPERATIONAL", "geometry": {"location": {"lat": 51.2799854, "lng": 0.5194462}, "viewport": {"northeast": {"lat": 51.28155687989272, "lng": 0.5209026298927223}, "southwest": {"lat": 51.27885722010728, "lng": 0.5182029701072778}}}, "icon": "https://maps.gstatic.com/mapfiles/place_api/icons/v1/png_71/lodging-71.png", "icon_background_color": "#909CE1", "icon_mask_base_uri": "https://maps.gstatic.com/mapfiles/place_api/icons/v2/hotel_pinlet", "name": "Innkeeper's Collection Maidstone", "opening_hours": {"open_now": true}, "photos": [{"height": 322, "html_attributions": ["<a href=\"https://maps.google.com/maps/contrib/101385270769722727163\">Innkeeper&#39;s Lodge Maidstone</a>"], "photo_reference": "AUc7tXXtw7AEeSWzMZXtcD1aN_g2nTnjNdCPQ4ZZ3Zac-5VMWOSInLveOFkp1PubMGpTbvNIPBvU9Z8rq3lqUUzAeeJeN-EwqUthK2UQ0d-jG7spyydH94MN9W2XwvDB0nazwc6iz9wk6QmsThJ0k2qe8bsj_3UkEK4qZJ6Jv-O4ktZG_V5q", "width": 980}], "place_id": "ChIJk4lGzTUy30cRS6pJIbXTuXI", "plus_code": {"compound_code": "7GH9+XQ Maidstone, United Kingdom", "global_code": "9F327GH9+XQ"}, "rating": 4.1, "reference": "ChIJk4lGzTUy30cRS6pJIbXTuXI", "scope": "GOOGLE", "types": ["lodging", "bar", "restaurant", "food", "point_of_interest", "establishment"], "user_ratings_total": 188, "vicinity": "Sandling Rd, Maidstone"}, {"business_status": "OPERATIONAL", "geometry": {"location": {"lat": 51.2725731, "lng": 0.5216095}, "viewport": {"northeast": {"lat": 51.27397107989272, "lng": 0.5231635798927222}, "southwest": {"lat": 51.27127142010728, "lng": 0.5204639201072777}}}, "icon": "https://maps.gstatic.com/mapfiles/place_api/icons/v1/png_71/bar-71.png", "icon_background_color": "#FF9E67", "icon_mask_base_uri": "https://maps.gstatic.com/mapfiles/place_api/icons/v2/bar_pinlet", "name": "Banks Bar", "opening_hours": {"open_now": false}, "photos": [{"height": 4000, "html_attributions": ["<a href=\"https://maps.google.com/maps/contrib/105189674278071198243\">Suzy King</a>"], "photo_reference": "AUc7tXV4QbvPKsSjCVHCNYH43wJisUQJBS028vNGL4CTGwcdKYtqpy5fAJe9gy11SNAQeDoDcb_FGVuwTGsumErev0kEnP6696YPdrVNcXjOqcbelsxE7SfzO5_fIUZTudtcC4985dQTjprJKA7fKu0G6XnR9KjsabjPNk8BEUmF533St6On", "width": 1800}], "place_id": "ChIJlXGR5jEy30cRvpnqLDGo258", "plus_code": {"compound_code": "7GFC+2J Maidstone, United Kingdom", "global_code": "9F327GFC+2J"}, "rating": 4.1, "reference": "ChIJlXGR5jEy30cRvpnqLDGo258", "scope": "GOOGLE", "types": ["night_club", "bar", "restaurant", "food", "point_of_interest", "establishment"], "user_ratings_total": 62, "vicinity": "76 Bank St, Maidstone"}, {"business_status": "OPERATIONAL", "geometry": {"location": {"lat": 51.2800191, "lng": 0.519339}, "viewport": {"northeast": {"lat": 51.28131572989273, "lng": 0.5204584298927222}, "southwest": {"lat": 51.27861607010728, "lng": 0.5177587701072777}}}, "icon": "https://maps.gstatic.com/mapfiles/place_api/icons/v1/png_71/restaurant-71.png", "icon_background_color": "#FF9E67", "icon_mask_base_uri": "https://maps.gstatic.com/mapfiles/place_api/icons/v2/restaurant_pinlet", "name": "Miller & Carter Maidstone", "opening_hours": {"open_now": true}, "photos": [{"height": 3024, "html_attributions": ["<a href=\"https://maps.google.com/maps/contrib/103413922728456998778\">Jason Pettit</a>"], "photo_reference": "AUc7tXW0s0MTXzaR7JDh5BagZIKFbulLSAmoivCUMSHJuQIC0BsfQgvk1Wn4zcHVRigP2CNpVz_bxeBvwkHs5Nc21v_mPNdkEZBSnjrNUbgeM1XziLFfvyyizZ0OEtYdVARtjr-j43Dvu1vGprjelrUg-gR4dThLWimQ643D-tRdKMlAhH1X", "width": 4032}], "place_id": "ChIJ8a3exTUy30cR5ByODMrV-qg", "plus_code": {"compound_code": "7GJ9+2Q Maidstone, United Kingdom", "global_code": "9F327GJ9+2Q"}, "price_level": 2, "rating": 4.5, "reference": "ChIJ8a3exTUy30cR5ByODMrV-qg", "scope": "GOOGLE", "types": ["restaurant", "food", "point_of_interest", "establishment"], "user_ratings_total": 3864, "vicinity": "Sandling Rd, Maidstone"}, {"business_status": "OPERATIONAL", "geometry": {"location": {"lat": 51.2692478, "lng": 0.5053124}, "viewport": {"northeast": {"lat": 51.27062312989272, "lng": 0.5067759798927222}, "southwest": {"lat": 51.26792347010728, "lng": 0.5040763201072778}}}, "icon": "https://maps.gstatic.com/mapfiles/place_api/icons/v1/png_71/lodging-71.png", "icon_background_color": "#909CE1", "icon_mask_base_uri": "https://maps.gstatic.com/mapfiles/place_api/icons/v2/hotel_pinlet", "name": "Grange Moor Hotel", "opening_hours": {"open_now": true}, "photos": [{"height": 3637, "html_attributions": ["<a href=\"https://maps.google.com/maps/contrib/114943264243359539199\">A Google User</a>"], "photo_reference": "AUc7tXXELj2xCAcBglXU8SFZqPlJltiD1SvDrGqvJflNNz48VkrP8e89NcTtiFFdkUsr21CLoIaIsgkubrGKvMKOJKUBD7UT9nOzlUualMwsDU-a1F_J2G7ImTzXoMb889ldVI3Wrc3SKttrxNZysjNNArxetNNqfgqpkeSmk3PvDdtjGUrE", "width": 5500}], "place_id": "ChIJgzb6-9Az30cRNb1rS9AfFak", "plus_code": {"compound_code": "7G94+M4 Maidstone, United Kingdom", "global_code": "9F327G94+M4"}, "rating": 3.9, "reference": "ChIJgzb6-9Az30cRNb1rS9AfFak", "scope": "GOOGLE", "types": ["lodging", "bar", "restaurant", "food", "point_of_interest", "establishment"], "user_ratings_total": 628, "vicinity": "4-8 St Michael's Rd, Maidstone"}, {"business_status": "OPERATIONAL", "geometry": {"location": {"lat": 51.2711504, "lng": 0.5249167}, "viewport": {"northeast": {"lat": 51.27251462989271, "lng": 0.5263665298927221}, "southwest": {"lat": 51.26981497010727, "lng": 0.5236668701072777}}}, "icon": "https://maps.gstatic.com/mapfiles/place_api/icons/v1/png_71/restaurant-71.png", "icon_background_color": "#FF9E67", "icon_mask_base_uri": "https://maps.gstatic.com/mapfiles/place_api/icons/v2/restaurant_pinlet", "name": "Shamrat", "opening_hours": {"open_now": true}, "photos": [{"height": 3264, "html_attributions": ["<a href=\"https://maps.google.com/maps/contrib/102262051538079215759\">Shamrat Indian Brasserie</a>"], "photo_reference": "AUc7tXXIEy3O_AU-upKmC2MvSOC1eb6qctHihUvbdkRTvyeBT9keDVqdrInyZGJ4OesiO5AejkvlLEZJxUgzcQPOIvx7zmNM3e6NpCViI4n8cSmOkzUI563vylqfWsDj-nt5sklxVbFPrvzw8r7T09bIa0u26c39q5voQ4yiWmm266XmukDO", "width": 4928}], "place_id": "ChIJbRdt6S8y30cRjlU4d8JIrzw", "plus_code": {"compound_code": "7GCF+FX Maidstone, United Kingdom", "global_code": "9F327GCF+FX"}, "price_level": 2, "rating": 4.7, "reference": "ChIJbRdt6S8y30cRjlU4d8JIrzw", "scope": "GOOGLE", "types": ["meal_takeaway", "restaurant", "food", "point_of_interest", "establishment"], "user_ratings_total": 541, "vicinity": "36 Lower Stone St, Maidstone"}, {"business_status": "OPERATIONAL", "geometry": {"location": {"lat": 51.2731734, "lng": 0.5219353999999999}, "viewport": {"northeast": {"lat": 51.27434747989273, "lng": 0.5226659798927222}, "southwest": {"lat": 51.27164782010728, "lng": 0.5199663201072777}}}, "icon": "https://maps.gstatic.com/mapfiles/place_api/icons/v1/png_71/bar-71.png", "icon_background_color": "#FF9E67", "icon_mask_base_uri": "https://maps.gstatic.com/mapfiles/place_api/icons/v2/bar_pinlet", "name": "kalaRED Oriental bar", "opening_hours": {"open_now": false}, "photos": [{"height": 3024, "html_attributions": ["<a href=\"https://maps.google.com/maps/contrib/108978648858208949576\">David Clarke</a>"], "photo_reference": "AUc7tXXR8KkTc1ZWB6R-Chvx_iZeN5KhIZj1b599r-zeZir5XjDpPjQainzXKA1i2ttBJ7rw1T-88-BQ5cxuI1KByxo5beSq7LrPpgVbzPx9HlWu5Vslx571dbE161vZ9d5um8JQ6N9ubIr8Zp98aO0z85xoa0fGdP_81-nlKli80QwiC0Pz", "width": 4032}], "place_id": "ChIJ9ZS-3DEy30cRo0vUPFJoiNI", "plus_code": {"compound_code": "7GFC+7Q Maidstone, United Kingdom", "global_code": "9F327GFC+7Q"}, "price_level": 2, "rating": 4, "reference": "ChIJ9ZS-3DEy30cRo0vUPFJoiNI", "scope": "GOOGLE", "types": ["bar", "night_club", "restaurant", "food", "point_of_interest", "establishment"], "user_ratings_total": 200, "vicinity": "83-84 Bank St, Maidstone"}, {"business_status": "CLOSED_TEMPORARILY", "geometry": {"location": {"lat": 51.2748942, "lng": 0.5210593000000001}, "viewport": {"northeast": {"lat": 51.27616707989272, "lng": 0.5224524298927221}, "southwest": {"lat": 51.27346742010728, "lng": 0.5197527701072777}}}, "icon": "https://maps.gstatic.com/mapfiles/place_api/icons/v1/png_71/bar-71.png", "icon_background_color": "#FF9E67", "icon_mask_base_uri": "https://maps.gstatic.com/mapfiles/place_api/icons/v2/bar_pinlet", "name": "Blu Butterfly", "permanently_closed": true, "photos": [{"height": 4032, "html_attributions": ["<a href=\"https://maps.google.com/maps/contrib/107910921787941529869\">A Google User</a>"], "photo_reference": "AUc7tXUPmVxEyDNtH-wpx-VROAfr0T4UdrzYWXT0X1nDw8K9g3NVdyqt8tS_SloQAeI63g_7cDmlkrHl7g8ybm5g7GuyYvegxJkGlt0gCDI8ZwZm1caU7R2nvXmq0dz8vgb7ku61KFhdpr3dWsTOjRe3WCkKXmQ_oFyrwVmWQfVFyduHNh1y", "width": 3024}], "place_id": "ChIJC5pF0Qoz30cRNYUMEIYhuV0", "plus_code": {"compound_code": "7GFC+XC Maidstone, United Kingdom", "global_code": "9F327GFC+XC"}, "rating": 4.2, "reference": "ChIJC5pF0Qoz30cRNYUMEIYhuV0", "scope": "GOOGLE", "types": ["bar", "restaurant", "food", "point_of_interest", "establishment"], "user_ratings_total": 68, "vicinity": "40 Earl St, Maidstone"}, {"business_status": "OPERATIONAL", "geometry": {"location": {"lat": 51.27167069999999, "lng": 0.5138961}, "viewport": {"northeast": {"lat": 51.27310577989272, "lng": 0.5151180798927223}, "southwest": {"lat": 51.27040612010727, "lng": 0.5124184201072778}}}, "icon": "https://maps.gstatic.com/mapfiles/place_api/icons/v1/png_71/lodging-71.png", "icon_background_color": "#909CE1", "icon_mask_base_uri": "https://maps.gstatic.com/mapfiles/place_api/icons/v2/hotel_pinlet", "name": "Premier Inn Maidstone Town Centre hotel", "photos": [{"height": 2848, "html_attributions": ["<a href=\"https://maps.google.com/maps/contrib/117400067884568554769\">Premier Inn Maidstone Town Centre Hotel</a>"], "photo_reference": "AUc7tXU6goRVeW6MJJAgzviaWn5Q_M8exRw3c5XpcUf1LtQTOHn6tR0rQ_XLG6wuS8ttDEWTxm71GQCbfdcTACADchdL7lgIgDQKFvq_fwxmV5UFsBjB_qYVglVFXDY3o9aA5ok1rnfprR5_ew-JKMB3y-wPRxtO3K5k7Urwn-M355hGAE9F", "width": 4288}], "place_id": "ChIJpdv1sdIz30cRToV4N3Rnk04", "plus_code": {"compound_code": "7GC7+MH Maidstone, United Kingdom", "global_code": "9F327GC7+MH"}, "rating": 4, "reference": "ChIJpdv1sdIz30cRToV4N3Rnk04", "scope": "GOOGLE", "types": ["lodging", "restaurant", "food", "point_of_interest", "establishment"], "user_ratings_total": 811, "vicinity": "5-11 London Rd, Maidstone"}]