[{"business_status": "OPERATIONAL", "geometry": {"location": {"lat": 53.6109327, "lng": -6.1855012}, "viewport": {"northeast": {"lat": 53.61230827989273, "lng": -6.184116020107279}, "southwest": {"lat": 53.60960862010728, "lng": -6.186815679892723}}}, "icon": "https://maps.gstatic.com/mapfiles/place_api/icons/v1/png_71/bar-71.png", "icon_background_color": "#FF9E67", "icon_mask_base_uri": "https://maps.gstatic.com/mapfiles/place_api/icons/v2/bar_pinlet", "name": "Harveys American Bar & Grill", "photos": [{"height": 3468, "html_attributions": ["<a href=\"https://maps.google.com/maps/contrib/116560215767090909844\">\u0421\u0432\u0435\u0442\u043b\u043e\u0437\u0430\u0440 \u0425\u0440\u0438\u0441\u0442\u043e\u0432</a>"], "photo_reference": "AUc7tXVWo1Jj0Yxu92fUYfQ14SAgvG8QoWofAx33njJQHEsxlrKkvY8hiI1dJuDcAiOfFWzYzdNvjqhr--FL_UMGC8myt38mVkGDtcGdj4h-67ZyNjollkfQJXRJ1S52v7i01bPzv5Zi2miksguO-cGlUi6ZMFc1qkuvwQ90_OacMHBhVtTs", "width": 4624}], "place_id": "ChIJqdJ0vCgjZ0gRURqwB0w0BVc", "plus_code": {"compound_code": "JR67+9Q Balbriggan, County Dublin, Ireland", "global_code": "9C5MJR67+9Q"}, "rating": 4.3, "reference": "ChIJqdJ0vCgjZ0gRURqwB0w0BVc", "scope": "GOOGLE", "types": ["bar", "restaurant", "food", "point_of_interest", "establishment"], "user_ratings_total": 126, "vicinity": "The Harvest Inn, Drogheda St, Balbriggan"}, {"business_status": "OPERATIONAL", "geometry": {"location": {"lat": 53.6109327, "lng": -6.1855012}, "viewport": {"northeast": {"lat": 53.61230822989271, "lng": -6.184115970107278}, "southwest": {"lat": 53.60960857010727, "lng": -6.186815629892722}}}, "icon": "https://maps.gstatic.com/mapfiles/place_api/icons/v1/png_71/bar-71.png", "icon_background_color": "#FF9E67", "icon_mask_base_uri": "https://maps.gstatic.com/mapfiles/place_api/icons/v2/bar_pinlet", "name": "The Harvest", "opening_hours": {"open_now": false}, "photos": [{"height": 1264, "html_attributions": ["<a href=\"https://maps.google.com/maps/contrib/112136890710260207302\">Gary Teeling</a>"], "photo_reference": "AUc7tXWwLgiWclm0bR0g30wv7mTn-sCCopH0H7EZaASly1nYpw4PYynSQh18QtpUuUgIifNYM22QAK_uIpcdecrMK3JD87O4KOqxqGkq5Q9TfUkNERxyZy5onh2ZnGcW264sDo0Xj7LNViYDNmk9AaRvuomOWYce5UH6AKPjJXLdlhiB-oRl", "width": 2600}], "place_id": "ChIJtdesxuciZ0gR5GznVNj3ab8", "plus_code": {"compound_code": "JR67+9Q Balbriggan, County Dublin, Ireland", "global_code": "9C5MJR67+9Q"}, "price_level": 2, "rating": 4.3, "reference": "ChIJtdesxuciZ0gR5GznVNj3ab8", "scope": "GOOGLE", "types": ["bar", "restaurant", "food", "point_of_interest", "establishment"], "user_ratings_total": 696, "vicinity": "Drogheda St, Balbriggan"}, {"business_status": "OPERATIONAL", "geometry": {"location": {"lat": 53.6136772, "lng": -6.206811999999999}, "viewport": {"northeast": {"lat": 53.61490212989272, "lng": -6.205444770107277}, "southwest": {"lat": 53.61220247010728, "lng": -6.20814442989272}}}, "icon": "https://maps.gstatic.com/mapfiles/place_api/icons/v1/png_71/bar-71.png", "icon_background_color": "#FF9E67", "icon_mask_base_uri": "https://maps.gstatic.com/mapfiles/place_api/icons/v2/bar_pinlet", "name": "Curtin\u2019s Hamlet Bar", "opening_hours": {"open_now": false}, "photos": [{"height": 1920, "html_attributions": ["<a href=\"https://maps.google.com/maps/contrib/104714797312773043539\">Dermot Quinn</a>"], "photo_reference": "AUc7tXXHEAr0i3J7XmHzXElcJbpBMb2WBn89z0b3FoftRCT-auBFD6GgHB0PpBdnVyT1UQ-Ja4WdfYYSZoMa8NH-3tVKZF57wJtX2Br7L-U3QypF4Uo4xJE-f2i9fN3m4p8WHx1MnJSn2rZVHl0-YTDzCbOf_viNgNPDbdTo0SQjOda1BlI4", "width": 1080}], "place_id": "ChIJIRx9KNoiZ0gRwcFI_U_5GEw", "plus_code": {"compound_code": "JQ7V+F7 Balbriggan, County Dublin, Ireland", "global_code": "9C5MJQ7V+F7"}, "price_level": 2, "rating": 4.4, "reference": "ChIJIRx9KNoiZ0gRwcFI_U_5GEw", "scope": "GOOGLE", "types": ["bar", "restaurant", "food", "point_of_interest", "establishment"], "user_ratings_total": 152, "vicinity": "Castle Mills Shopping Centre, Hamlet Ln, Flemingtown, Balbriggan"}, {"business_status": "OPERATIONAL", "geometry": {"location": {"lat": 53.5958226, "lng": -6.182538999999999}, "viewport": {"northeast": {"lat": 53.59721867989272, "lng": -6.181102320107277}, "southwest": {"lat": 53.59451902010728, "lng": -6.183801979892721}}}, "icon": "https://maps.gstatic.com/mapfiles/place_api/icons/v1/png_71/restaurant-71.png", "icon_background_color": "#FF9E67", "icon_mask_base_uri": "https://maps.gstatic.com/mapfiles/place_api/icons/v2/restaurant_pinlet", "name": "Pink pepper restaurant and bar", "photos": [{"height": 1512, "html_attributions": ["<a href=\"https://maps.google.com/maps/contrib/108731244495992265685\">A Google User</a>"], "photo_reference": "AUc7tXXgG7pABWxutTa_X1S67rdmPSBntlvSCqdRzZZY-KcCOFdTLnyrMDAZiFlI3Ngl1o6e3Z8SXaQ_Awcsfww1QHMt5qpKWDd5KSxJ1d0MWc4Ipb63xpX03gySVn7QA1l3vS4xK2ULWePyr9QAKob_rvsuB6XF8L0HhAL_1QUrMp_jyoj-", "width": 2016}], "place_id": "ChIJyXXkM88jZ0gRuWE43hu_6RQ", "plus_code": {"compound_code": "HRW8+8X Balbriggan, County Dublin, Ireland", "global_code": "9C5MHRW8+8X"}, "rating": 4.5, "reference": "ChIJyXXkM88jZ0gRuWE43hu_6RQ", "scope": "GOOGLE", "types": ["restaurant", "bar", "food", "point_of_interest", "establishment"], "user_ratings_total": 14, "vicinity": "Blackhall, Kilsough South, Balbriggan"}, {"business_status": "OPERATIONAL", "geometry": {"location": {"lat": 53.6085455, "lng": -6.1800408}, "viewport": {"northeast": {"lat": 53.60992137989272, "lng": -6.178748220107278}, "southwest": {"lat": 53.60722172010728, "lng": -6.181447879892722}}}, "icon": "https://maps.gstatic.com/mapfiles/place_api/icons/v1/png_71/restaurant-71.png", "icon_background_color": "#FF9E67", "icon_mask_base_uri": "https://maps.gstatic.com/mapfiles/place_api/icons/v2/restaurant_pinlet", "name": "The La-La Caf\u00e9 & Restaurant", "opening_hours": {"open_now": true}, "photos": [{"height": 2268, "html_attributions": ["<a href=\"https://maps.google.com/maps/contrib/117769036381937405569\">Daniel Anderson</a>"], "photo_reference": "AUc7tXWw7FT54XB54ryoRGpEouhuDApaRgpU1pV1Uy3dyJO3QSE2w5zu3yCc_HMX2rJyrEClx1qkxesG0-4JSzL5B4Bj6RZJe7ui98wXhBvGqxtygqe0ePwqe0qpv7eZ4FIL1rZembGAwSykZ5kUEghyMjylJXx4f_8LXsn7ZyBRNdjMTEdP", "width": 4032}], "place_id": "ChIJzUshgQgjZ0gRvuWbTa-PzoU", "plus_code": {"compound_code": "JR59+CX Balbriggan, County Dublin, Ireland", "global_code": "9C5MJR59+CX"}, "rating": 4.5, "reference": "ChIJzUshgQgjZ0gRvuWbTa-PzoU", "scope": "GOOGLE", "types": ["restaurant", "cafe", "food", "point_of_interest", "establishment"], "user_ratings_total": 396, "vicinity": "3 Church St, Balbriggan"}, {"business_status": "OPERATIONAL", "geometry": {"location": {"lat": 53.6057159, "lng": -6.1842004}, "viewport": {"northeast": {"lat": 53.60706572989273, "lng": -6.182850570107278}, "southwest": {"lat": 53.60436607010728, "lng": -6.185550229892722}}}, "icon": "https://maps.gstatic.com/mapfiles/place_api/icons/v1/png_71/restaurant-71.png", "icon_background_color": "#FF9E67", "icon_mask_base_uri": "https://maps.gstatic.com/mapfiles/place_api/icons/v2/restaurant_pinlet", "name": "Golden Wok", "opening_hours": {"open_now": false}, "photos": [{"height": 1836, "html_attributions": ["<a href=\"https://maps.google.com/maps/contrib/104602483528597531645\">A Google User</a>"], "photo_reference": "AUc7tXXtccLmClvje0-V_dJRBiI5sLI-Rc57KhyXA-U-xMVWYY2WRICKpxlomkqoP9awichNIzWKWvBHWkJ_DgqLy59CE5-k5ieZcorl-Zj_ZDSwVMDkkXhaQt9Qg_J9weEJ5j6mb7sDB3J7Ar3N2-c32SFSETBephSrLTPQWA6wvL2Xx4vG", "width": 3264}], "place_id": "ChIJv4q0l-kiZ0gRx0iFOs4ix9I", "plus_code": {"compound_code": "JR48+78 Balbriggan, County Dublin, Ireland", "global_code": "9C5MJR48+78"}, "price_level": 2, "rating": 3.8, "reference": "ChIJv4q0l-kiZ0gRx0iFOs4ix9I", "scope": "GOOGLE", "types": ["meal_takeaway", "restaurant", "food", "point_of_interest", "establishment"], "user_ratings_total": 193, "vicinity": "65 Dublin St, Balbriggan, Dublin"}]