[{"business_status": "OPERATIONAL", "geometry": {"location": {"lat": 48.77302, "lng": 9.17231}, "viewport": {"northeast": {"lat": 48.77439337989272, "lng": 9.173710179892721}, "southwest": {"lat": 48.77169372010728, "lng": 9.171010520107277}}}, "icon": "https://maps.gstatic.com/mapfiles/place_api/icons/v1/png_71/bar-71.png", "icon_background_color": "#FF9E67", "icon_mask_base_uri": "https://maps.gstatic.com/mapfiles/place_api/icons/v2/bar_pinlet", "name": "Biddy Earlys Irish Pub", "opening_hours": {"open_now": true}, "photos": [{"height": 3366, "html_attributions": ["<a href=\"https://maps.google.com/maps/contrib/115188501379681236218\">Donal C</a>"], "photo_reference": "AUGGfZnvrSENYkLsfYhmQAJx0dUxJK5T1ANDTThDuRc-CTfhCa0ssA7fLwAFgmL7j9t6YPOMvIQHqa7Fm4uQuqQ3n6CiXlS5T4fp62ZZPHgG2fTJV_gshUR1OAQkkHZP7mDp-G2M5zy4WPGXFuPcs8hXfI5bEJ3NQjqj7rkO7YkNpXzMMhTi", "width": 5984}], "place_id": "ChIJZVboOknbmUcRUxU3s3ziMmo", "plus_code": {"compound_code": "Q5FC+6W Stuttgart, Germany", "global_code": "8FWFQ5FC+6W"}, "price_level": 2, "rating": 4.4, "reference": "ChIJZVboOknbmUcRUxU3s3ziMmo", "scope": "GOOGLE", "types": ["bar", "restaurant", "food", "point_of_interest", "establishment"], "user_ratings_total": 2052, "vicinity": "Marienstra\u00dfe 28, Stuttgart"}, {"business_status": "OPERATIONAL", "geometry": {"location": {"lat": 48.7717247, "lng": 9.160877700000002}, "viewport": {"northeast": {"lat": 48.77309392989272, "lng": 9.162290829892722}, "southwest": {"lat": 48.77039427010727, "lng": 9.159591170107278}}}, "icon": "https://maps.gstatic.com/mapfiles/place_api/icons/v1/png_71/bar-71.png", "icon_background_color": "#FF9E67", "icon_mask_base_uri": "https://maps.gstatic.com/mapfiles/place_api/icons/v2/bar_pinlet", "name": "Wirtshaus Troll", "opening_hours": {"open_now": true}, "photos": [{"height": 2160, "html_attributions": ["<a href=\"https://maps.google.com/maps/contrib/114015234439729031668\">Marco Weiskopf</a>"], "photo_reference": "AUGGfZk1IUbuWGQNeYRQQ_Buvjw9W09LQCeYJ8GXnqVk3J7IPMgOXHmzilZUMttLzOVH2oBV9pOgke4JniK6T8qNSfzZc-bHSHq2GovsPeEnqcs9HDsT_G-7tu0YvyGqkQp7Rr56KsOVngVLTsGMkT3DvzrJk25inGqqLOLu5PmdySz9k7ib", "width": 3840}], "place_id": "ChIJ7fdaiUPbmUcRpA1d-oebAQg", "plus_code": {"compound_code": "Q5C6+M9 Stuttgart, Germany", "global_code": "8FWFQ5C6+M9"}, "price_level": 1, "rating": 4.3, "reference": "ChIJ7fdaiUPbmUcRpA1d-oebAQg", "scope": "GOOGLE", "types": ["bar", "restaurant", "food", "point_of_interest", "establishment"], "user_ratings_total": 1027, "vicinity": "Hasenbergstra\u00dfe 37B, Stuttgart"}, {"business_status": "OPERATIONAL", "geometry": {"location": {"lat": 48.7587553, "lng": 9.1502875}, "viewport": {"northeast": {"lat": 48.76017807989272, "lng": 9.151704779892723}, "southwest": {"lat": 48.75747842010727, "lng": 9.14900512010728}}}, "icon": "https://maps.gstatic.com/mapfiles/place_api/icons/v1/png_71/bar-71.png", "icon_background_color": "#FF9E67", "icon_mask_base_uri": "https://maps.gstatic.com/mapfiles/place_api/icons/v2/bar_pinlet", "name": "Dafni\u2019s Bistro-Pub", "opening_hours": {"open_now": true}, "photos": [{"height": 2736, "html_attributions": ["<a href=\"https://maps.google.com/maps/contrib/118026527244475560654\">A Google User</a>"], "photo_reference": "AUGGfZndKBtWL6hsSvFf853svQgmTk55OBAWGZZn0naOezHX-WRAPtaBm9aLWezr6xL34thE1d1SV_wg_AobaQjdu9v7dxsZTY8S1XlxJgyF9--eOQkjYnsRLXCHOlk-J_Ttc43ygFwgTTZYXiRAanPvKCLUHORBCn7OOJLjv2VKUcS--yOo", "width": 3648}], "place_id": "ChIJeQmYAmDbmUcRiR4uDPqC9ck", "plus_code": {"compound_code": "Q552+G4 Stuttgart, Germany", "global_code": "8FWFQ552+G4"}, "price_level": 1, "rating": 4.4, "reference": "ChIJeQmYAmDbmUcRiR4uDPqC9ck", "scope": "GOOGLE", "types": ["bar", "restaurant", "food", "point_of_interest", "establishment"], "user_ratings_total": 113, "vicinity": "B\u00f6blinger Str. 181A, Stuttgart"}, {"business_status": "OPERATIONAL", "geometry": {"location": {"lat": 48.7806755, "lng": 9.1765867}, "viewport": {"northeast": {"lat": 48.78223972989272, "lng": 9.177769929892724}, "southwest": {"lat": 48.77954007010727, "lng": 9.17507027010728}}}, "icon": "https://maps.gstatic.com/mapfiles/place_api/icons/v1/png_71/restaurant-71.png", "icon_background_color": "#FF9E67", "icon_mask_base_uri": "https://maps.gstatic.com/mapfiles/place_api/icons/v2/restaurant_pinlet", "name": "Classic Rock Caf\u00e9", "opening_hours": {"open_now": true}, "photos": [{"height": 2736, "html_attributions": ["<a href=\"https://maps.google.com/maps/contrib/100760446794993260614\">Ulrich Schr\u00f6der</a>"], "photo_reference": "AUGGfZl4JAQl1bpMb-UjQx5sQACOx05PmfFjhnkeulsrRYdWahzS_1GhW2erTfpXTJCVGMNvDo8AxacWYhHnAGR54UyZy0vgc2iincgfcyoSmgSVU7DpMC9BDNUSVDPXVL6MQzbquuMIPSWrCqYl-4FPKtvhCQrN8ALELoA85dW4fAZ6edVI", "width": 3648}], "place_id": "ChIJW-aRv0vbmUcRjxFX-zAz33k", "plus_code": {"compound_code": "Q5JG+7J Stuttgart, Germany", "global_code": "8FWFQ5JG+7J"}, "price_level": 2, "rating": 4.2, "reference": "ChIJW-aRv0vbmUcRjxFX-zAz33k", "scope": "GOOGLE", "types": ["restaurant", "night_club", "cafe", "bar", "food", "point_of_interest", "establishment"], "user_ratings_total": 2118, "vicinity": "Schellingstra\u00dfe 7, Stuttgart"}, {"business_status": "OPERATIONAL", "geometry": {"location": {"lat": 48.7751825, "lng": 9.156105}, "viewport": {"northeast": {"lat": 48.77649662989272, "lng": 9.157449479892723}, "southwest": {"lat": 48.77379697010728, "lng": 9.154749820107279}}}, "icon": "https://maps.gstatic.com/mapfiles/place_api/icons/v1/png_71/bar-71.png", "icon_background_color": "#FF9E67", "icon_mask_base_uri": "https://maps.gstatic.com/mapfiles/place_api/icons/v2/bar_pinlet", "name": "Ackermann's pub and bar - Stuttgart", "opening_hours": {"open_now": true}, "photos": [{"height": 427, "html_attributions": ["<a href=\"https://maps.google.com/maps/contrib/108731956755730662562\">Ackermanns Kneipe und Bar</a>"], "photo_reference": "AUGGfZlUN-_zm3AoPcWCx8KiRkr-PQn8lxS2WUu2Blv8sFpM3rKcFtszWkDiYES9RXZBcetn_iL8UUgan0fRSvYkFD4_Z1AsDxDi78q9YgXknlfN4WkEQttT821BEL9lrXxL2mT0Cvpy4I6JFImvnJ2Er3VM0dcQWGzwMJpt60G4RYOtYIpC", "width": 640}], "place_id": "ChIJz-L02EHbmUcRQmDvI8XagqA", "plus_code": {"compound_code": "Q5G4+3C Stuttgart, Germany", "global_code": "8FWFQ5G4+3C"}, "price_level": 2, "rating": 4.5, "reference": "ChIJz-L02EHbmUcRQmDvI8XagqA", "scope": "GOOGLE", "types": ["bar", "restaurant", "food", "point_of_interest", "establishment"], "user_ratings_total": 372, "vicinity": "Bebelstra\u00dfe 20, Stuttgart"}, {"business_status": "OPERATIONAL", "geometry": {"location": {"lat": 48.777671, "lng": 9.1640386}, "viewport": {"northeast": {"lat": 48.77901977989272, "lng": 9.165373029892724}, "southwest": {"lat": 48.77632012010728, "lng": 9.16267337010728}}}, "icon": "https://maps.gstatic.com/mapfiles/place_api/icons/v1/png_71/restaurant-71.png", "icon_background_color": "#FF9E67", "icon_mask_base_uri": "https://maps.gstatic.com/mapfiles/place_api/icons/v2/restaurant_pinlet", "name": "SUTSCHE", "opening_hours": {"open_now": true}, "photos": [{"height": 1868, "html_attributions": ["<a href=\"https://maps.google.com/maps/contrib/116535142257777539821\">Carlos Andr\u00e9s Rivera</a>"], "photo_reference": "AUGGfZlf-qz3Bsp0cNW5WyJ1NPQk5uoIVi5SSmfp_bACfSC316Pg2X9-2nTwWHtlvl1S65CAuTjOJxbEO7NIXeiyAVnbR_olecOlq4kr3r_gGglyFWwJ6GsgnstqOXkLMEd4DnWkSGQYsFmef3eTXrR4OefRLl_VPB4DWTDykz6qJGDLOcf8", "width": 4000}], "place_id": "ChIJqzqaVkfbmUcRDWBzX50R2sA", "plus_code": {"compound_code": "Q5H7+3J Stuttgart, Germany", "global_code": "8FWFQ5H7+3J"}, "price_level": 2, "rating": 4.4, "reference": "ChIJqzqaVkfbmUcRDWBzX50R2sA", "scope": "GOOGLE", "types": ["restaurant", "bar", "food", "point_of_interest", "establishment"], "user_ratings_total": 632, "vicinity": "Breitscheidstra\u00dfe 38, Stuttgart"}, {"business_status": "OPERATIONAL", "geometry": {"location": {"lat": 48.7729805, "lng": 9.1826669}, "viewport": {"northeast": {"lat": 48.77429742989272, "lng": 9.183971729892722}, "southwest": {"lat": 48.77159777010728, "lng": 9.181272070107278}}}, "icon": "https://maps.gstatic.com/mapfiles/place_api/icons/v1/png_71/bar-71.png", "icon_background_color": "#FF9E67", "icon_mask_base_uri": "https://maps.gstatic.com/mapfiles/place_api/icons/v2/bar_pinlet", "name": "Paddy's Irish Pub - Stuttgart", "opening_hours": {"open_now": true}, "photos": [{"height": 3120, "html_attributions": ["<a href=\"https://maps.google.com/maps/contrib/104745682257551993936\">Wolfgang M\u00fchleisen</a>"], "photo_reference": "AUGGfZkaaVQV3hUVfJm29UnhbOSt8cpRdsDW2eyQMt_X0gPLCAjL61DGyZW5s_OqYz2m-JknFBsk-uIs_mO314BtArKZMNIc8iCJqdNwZJNGQS8Oh2BoqI-iVQivEhNsf1uVFgQ51H6vubHUxDgmVrnYUwOIhvNpWIbwMcig8BqpR2PF9bJ1", "width": 4160}], "place_id": "ChIJIzlVwrTEmUcRZTmNDUVyyFg", "plus_code": {"compound_code": "Q5FM+53 Stuttgart, Germany", "global_code": "8FWFQ5FM+53"}, "price_level": 2, "rating": 4.5, "reference": "ChIJIzlVwrTEmUcRZTmNDUVyyFg", "scope": "GOOGLE", "types": ["bar", "restaurant", "food", "point_of_interest", "establishment"], "user_ratings_total": 360, "vicinity": "Pfarrstra\u00dfe 25, Stuttgart"}, {"business_status": "OPERATIONAL", "geometry": {"location": {"lat": 48.77413, "lng": 9.17283}, "viewport": {"northeast": {"lat": 48.77558427989273, "lng": 9.174265629892723}, "southwest": {"lat": 48.77288462010728, "lng": 9.17156597010728}}}, "icon": "https://maps.gstatic.com/mapfiles/place_api/icons/v1/png_71/bar-71.png", "icon_background_color": "#FF9E67", "icon_mask_base_uri": "https://maps.gstatic.com/mapfiles/place_api/icons/v2/bar_pinlet", "name": "Long bar", "opening_hours": {"open_now": true}, "photos": [{"height": 3024, "html_attributions": ["<a href=\"https://maps.google.com/maps/contrib/111200933172553513205\">A Google User</a>"], "photo_reference": "AUGGfZmNWSDOTDYSNHtEk_eayASl7Gw-XvhjYTczCucag0o4mLekynBmVC_ZTQMgvSu8ltynoq3UtVgKW0KM7ERgK1EOSCtDDQes4MPZdaVdDFamjwA9w0dB2RhcCcsLQQfA1SZGJV7L1CRNwt-6XkiAIEpwIdStB0jURJ1XQrPEXZpRXq02", "width": 4032}], "place_id": "ChIJ7dKZAEnbmUcRybIf6XLmvL8", "plus_code": {"compound_code": "Q5FF+M4 Stuttgart, Germany", "global_code": "8FWFQ5FF+M4"}, "price_level": 2, "rating": 3.6, "reference": "ChIJ7dKZAEnbmUcRybIf6XLmvL8", "scope": "GOOGLE", "types": ["bar", "restaurant", "food", "point_of_interest", "establishment"], "user_ratings_total": 351, "vicinity": "Roteb\u00fchlpl. 11, Stuttgart"}, {"business_status": "OPERATIONAL", "geometry": {"location": {"lat": 48.76072749999999, "lng": 9.1524022}, "viewport": {"northeast": {"lat": 48.76211012989272, "lng": 9.153779429892722}, "southwest": {"lat": 48.75941047010728, "lng": 9.151079770107279}}}, "icon": "https://maps.gstatic.com/mapfiles/place_api/icons/v1/png_71/bar-71.png", "icon_background_color": "#FF9E67", "icon_mask_base_uri": "https://maps.gstatic.com/mapfiles/place_api/icons/v2/bar_pinlet", "name": "Ritterst\u00fcble", "opening_hours": {"open_now": true}, "photos": [{"height": 1280, "html_attributions": ["<a href=\"https://maps.google.com/maps/contrib/110962185582514436449\">Ritterst\u00fcble</a>"], "photo_reference": "AUGGfZl05ogZR18h7N-V0-TFKzyNkUjBIW41WfWQgJZaJwOJbLF6O-Z1dnlh4xgJdqQYU3w4Wgi6_4TtiFVxqTWR8wOt_4KgJGIhbZ4VVStivt_RsBwF8Ol2QoVHTrw6Kp4i7Ld48xsor0Ig853oUahz3pECc_fyqAo4oKYWy8Q4kXhtB4bQ", "width": 1920}], "place_id": "ChIJAxMhzl_bmUcRnOG0sNU11Lk", "plus_code": {"compound_code": "Q562+7X Stuttgart, Germany", "global_code": "8FWFQ562+7X"}, "price_level": 1, "rating": 4.7, "reference": "ChIJAxMhzl_bmUcRnOG0sNU11Lk", "scope": "GOOGLE", "types": ["bar", "restaurant", "food", "point_of_interest", "establishment"], "user_ratings_total": 162, "vicinity": "Ritterstra\u00dfe 7, Stuttgart"}, {"business_status": "OPERATIONAL", "geometry": {"location": {"lat": 48.77302, "lng": 9.17231}, "viewport": {"northeast": {"lat": 48.77439477989273, "lng": 9.173708679892721}, "southwest": {"lat": 48.77169512010728, "lng": 9.171009020107277}}}, "icon": "https://maps.gstatic.com/mapfiles/place_api/icons/v1/png_71/bar-71.png", "icon_background_color": "#FF9E67", "icon_mask_base_uri": "https://maps.gstatic.com/mapfiles/place_api/icons/v2/bar_pinlet", "name": "Sophie\u2019s Brauhaus", "opening_hours": {"open_now": true}, "photos": [{"height": 2592, "html_attributions": ["<a href=\"https://maps.google.com/maps/contrib/107285460501740448647\">Sophie\u2019s Brauhaus</a>"], "photo_reference": "AUGGfZkXqNT6GKdsHMTeIiIgAJeXkv_x_0RLWWSyr5IrZ3pnxNat7T9XiejwoHCJxm40umzru_9N-a_clxzVRdSqjzMxw3TTUAKHVJMC_4nPedj0y004TX8Vxv1j3DXX4-2MHTtvaUiO-jywa4OCa9Pz_URuCt2DlYHE1NLPot75s1hIcgOW", "width": 3872}], "place_id": "ChIJwUG-OknbmUcRCkp2gKH7Jqg", "plus_code": {"compound_code": "Q5FC+6W Stuttgart, Germany", "global_code": "8FWFQ5FC+6W"}, "price_level": 2, "rating": 4.3, "reference": "ChIJwUG-OknbmUcRCkp2gKH7Jqg", "scope": "GOOGLE", "types": ["bar", "restaurant", "food", "point_of_interest", "establishment"], "user_ratings_total": 1374, "vicinity": "Marienstra\u00dfe 28, Stuttgart"}, {"business_status": "OPERATIONAL", "geometry": {"location": {"lat": 48.77227999999999, "lng": 9.178998499999999}, "viewport": {"northeast": {"lat": 48.77367772989272, "lng": 9.18023357989272}, "southwest": {"lat": 48.77097807010728, "lng": 9.177533920107276}}}, "icon": "https://maps.gstatic.com/mapfiles/place_api/icons/v1/png_71/restaurant-71.png", "icon_background_color": "#FF9E67", "icon_mask_base_uri": "https://maps.gstatic.com/mapfiles/place_api/icons/v2/restaurant_pinlet", "name": "Thirty Nine Bar and Dining - Stuttgart", "opening_hours": {"open_now": true}, "photos": [{"height": 781, "html_attributions": ["<a href=\"https://maps.google.com/maps/contrib/103386610433985034897\">Willy L\u00f6bl</a>"], "photo_reference": "AUGGfZkpGtDx1O5mPFQ9brB_th3yw05fzyAViRWktv4bmKiATNzk38EYYEI1SQatcC5I03DtiGr4Z6Ol9-qDxVsa0YISo7IupBLs0HCFjqlJ8QxnrOoPzOcosRrXEvpH2NrGFt1gXygbHxNCnag1JNyD_KsrS7xyhfzRrek5wZFnADPbDGsd", "width": 1173}], "place_id": "ChIJbfZ9b0vbmUcRFxZL-2LH_tA", "plus_code": {"compound_code": "Q5CH+WH Stuttgart, Germany", "global_code": "8FWFQ5CH+WH"}, "price_level": 1, "rating": 3.9, "reference": "ChIJbfZ9b0vbmUcRFxZL-2LH_tA", "scope": "GOOGLE", "types": ["restaurant", "bar", "food", "point_of_interest", "establishment"], "user_ratings_total": 33, "vicinity": "Hauptst\u00e4tter Str. 39, Stuttgart"}, {"business_status": "OPERATIONAL", "geometry": {"location": {"lat": 48.7736242, "lng": 9.1774097}, "viewport": {"northeast": {"lat": 48.77475777989272, "lng": 9.17876427989272}, "southwest": {"lat": 48.77205812010728, "lng": 9.176064620107276}}}, "icon": "https://maps.gstatic.com/mapfiles/place_api/icons/v1/png_71/bar-71.png", "icon_background_color": "#FF9E67", "icon_mask_base_uri": "https://maps.gstatic.com/mapfiles/place_api/icons/v2/bar_pinlet", "name": "deli", "opening_hours": {"open_now": true}, "photos": [{"height": 1282, "html_attributions": ["<a href=\"https://maps.google.com/maps/contrib/110097976493114463676\">Deli -Food - Bar - Music-</a>"], "photo_reference": "AUGGfZk3M_ndqMJEf-9qw88TA7whM7psYxIDNZOriIGihxSOKoB8UkcgXUoTRGkjDt45JNO1KSUE_kEAvTEOR9Z1r-k6W_MCV7JlN3VM4uvEQc-RXA2upmGbzr2JdbelzCFyZWxug-hgJX4D-nqAIx04lnfoYi3Bhvdsa3_EseEs49ZgPjQs", "width": 1920}], "place_id": "ChIJW6msukvbmUcRfHMEypZs17E", "plus_code": {"compound_code": "Q5FG+CX Stuttgart, Germany", "global_code": "8FWFQ5FG+CX"}, "price_level": 2, "rating": 4.1, "reference": "ChIJW6msukvbmUcRfHMEypZs17E", "scope": "GOOGLE", "types": ["bar", "restaurant", "food", "point_of_interest", "establishment"], "user_ratings_total": 841, "vicinity": "Gei\u00dfstra\u00dfe 7, Stuttgart"}, {"business_status": "OPERATIONAL", "geometry": {"location": {"lat": 48.773494, "lng": 9.1773176}, "viewport": {"northeast": {"lat": 48.77470892989272, "lng": 9.178743429892721}, "southwest": {"lat": 48.77200927010728, "lng": 9.176043770107277}}}, "icon": "https://maps.gstatic.com/mapfiles/place_api/icons/v1/png_71/restaurant-71.png", "icon_background_color": "#FF9E67", "icon_mask_base_uri": "https://maps.gstatic.com/mapfiles/place_api/icons/v2/restaurant_pinlet", "name": "Ruben\u2019s Bar Bistro Lounge", "opening_hours": {"open_now": true}, "photos": [{"height": 852, "html_attributions": ["<a href=\"https://maps.google.com/maps/contrib/111549925260976873665\">Ruben\u2019s</a>"], "photo_reference": "AUGGfZlG0BRvHyPseyf4b6irUOkZR715kvKDOJN2Y-s8wR12OOodOyFRBZubhC9krhblJGLHOFlHpipcmCYssMb_x65r-rZl044PPbtoTlvoYJ0pq1NQFO_wIPfKmxmgudQ2HhO0ZcVidG2_hGT6cU02f-kI82PV11y1wE0nqjVn0AwPU-Y", "width": 640}], "place_id": "ChIJXSbwukvbmUcRK1EB2xYurbM", "plus_code": {"compound_code": "Q5FG+9W Stuttgart, Germany", "global_code": "8FWFQ5FG+9W"}, "price_level": 2, "rating": 4.5, "reference": "ChIJXSbwukvbmUcRK1EB2xYurbM", "scope": "GOOGLE", "types": ["restaurant", "food", "point_of_interest", "establishment"], "user_ratings_total": 393, "vicinity": "Gei\u00dfstra\u00dfe 13, Stuttgart"}, {"business_status": "OPERATIONAL", "geometry": {"location": {"lat": 48.777302, "lng": 9.1736812}, "viewport": {"northeast": {"lat": 48.77861257989272, "lng": 9.17511782989272}, "southwest": {"lat": 48.77591292010727, "lng": 9.172418170107276}}}, "icon": "https://maps.gstatic.com/mapfiles/place_api/icons/v1/png_71/restaurant-71.png", "icon_background_color": "#FF9E67", "icon_mask_base_uri": "https://maps.gstatic.com/mapfiles/place_api/icons/v2/restaurant_pinlet", "name": "SAUSALITOS", "opening_hours": {"open_now": true}, "photos": [{"height": 3024, "html_attributions": ["<a href=\"https://maps.google.com/maps/contrib/116172229920599047025\">Stephan Scheiderer</a>"], "photo_reference": "AUGGfZkGZEATVv0FCboc2t8pf1PAeVWF6b4EZDxZlHtK4FXKrsiJULdmzHwSmrwz0CfJh17PmG3OlO7nF-sRW7CzoH1nx3rDiWdtTMJ7nnGCxE-S4-MLPhCfphAoMam2V8ph7KNMTLzyxaBQZ4yTd4TCOFM9p9th8ychs6ip5eIkWPdttp4k", "width": 4032}], "place_id": "ChIJ7XYyKTbbmUcR-udCq4oCIQU", "plus_code": {"compound_code": "Q5GF+WF Stuttgart, Germany", "global_code": "8FWFQ5GF+WF"}, "price_level": 2, "rating": 4.2, "reference": "ChIJ7XYyKTbbmUcR-udCq4oCIQU", "scope": "GOOGLE", "types": ["restaurant", "bar", "food", "point_of_interest", "establishment"], "user_ratings_total": 3930, "vicinity": "Theodor-Heuss-Stra\u00dfe 10, Stuttgart"}, {"business_status": "OPERATIONAL", "geometry": {"location": {"lat": 48.7610798, "lng": 9.1572705}, "viewport": {"northeast": {"lat": 48.76240717989272, "lng": 9.158636829892721}, "southwest": {"lat": 48.75970752010728, "lng": 9.155937170107277}}}, "icon": "https://maps.gstatic.com/mapfiles/place_api/icons/v1/png_71/bar-71.png", "icon_background_color": "#FF9E67", "icon_mask_base_uri": "https://maps.gstatic.com/mapfiles/place_api/icons/v2/bar_pinlet", "name": "Taubenst\u00fcble", "opening_hours": {"open_now": true}, "photos": [{"height": 2268, "html_attributions": ["<a href=\"https://maps.google.com/maps/contrib/113727587739576131321\">Taubenst\u00fcble (Bei Kristina)</a>"], "photo_reference": "AUGGfZkDohCyLdP2BcVUb_WJ8QrhCOZW0_5r8W_clDnK2A4szDADQW6cn360c1FT5P17F3Szi90WBCIHz2e---bDBb9V1L48eFSWaNUkKxcFd7_94oLHekno80B2E96IfyeCvykWlkuQtcUzYwd6_W2Qpex10ut84RkoWc3SgM3c-nQAPJ4V", "width": 4032}], "place_id": "ChIJwepc2l7bmUcRLTzMBrEOwxM", "plus_code": {"compound_code": "Q564+CV Stuttgart, Germany", "global_code": "8FWFQ564+CV"}, "price_level": 1, "rating": 4.3, "reference": "ChIJwepc2l7bmUcRLTzMBrEOwxM", "scope": "GOOGLE", "types": ["cafe", "bar", "restaurant", "food", "point_of_interest", "establishment"], "user_ratings_total": 32, "vicinity": "Taubenstra\u00dfe 7, Stuttgart"}, {"business_status": "OPERATIONAL", "geometry": {"location": {"lat": 48.78128, "lng": 9.2076307}, "viewport": {"northeast": {"lat": 48.78255557989272, "lng": 9.209043529892723}, "southwest": {"lat": 48.77985592010728, "lng": 9.206343870107279}}}, "icon": "https://maps.gstatic.com/mapfiles/place_api/icons/v1/png_71/restaurant-71.png", "icon_background_color": "#FF9E67", "icon_mask_base_uri": "https://maps.gstatic.com/mapfiles/place_api/icons/v2/restaurant_pinlet", "name": "Schlampazius", "opening_hours": {"open_now": true}, "photos": [{"height": 3024, "html_attributions": ["<a href=\"https://maps.google.com/maps/contrib/100704237877092806107\">A Google User</a>"], "photo_reference": "AUGGfZl1yp4geBPcfztbdSDzUCWoBtsehA-q6j6HeDO7JCW1c9mfB17qxVd84z3L-fpTbm19lYBbxrUG0kV5pHUZY3Q4cC6gl5c0ay6V0hJXEy8RmIPXbjLvNo-kouykpFM2NCCkDK5TRVTXJ6QLsKxVxTf4gHrT3xuuPgFP8dC2TBTj9DP_", "width": 4032}], "place_id": "ChIJjU2eQ8LEmUcRZ16X0jsOntk", "plus_code": {"compound_code": "Q6J5+G3 Stuttgart, Germany", "global_code": "8FWFQ6J5+G3"}, "price_level": 1, "rating": 4.4, "reference": "ChIJjU2eQ8LEmUcRZ16X0jsOntk", "scope": "GOOGLE", "types": ["restaurant", "bar", "food", "point_of_interest", "establishment"], "user_ratings_total": 496, "vicinity": "Wagenburgstra\u00dfe 147, Stuttgart"}, {"business_status": "OPERATIONAL", "geometry": {"location": {"lat": 48.7767235, "lng": 9.182827099999999}, "viewport": {"northeast": {"lat": 48.77807332989272, "lng": 9.184176929892722}, "southwest": {"lat": 48.77537367010727, "lng": 9.181477270107278}}}, "icon": "https://maps.gstatic.com/mapfiles/place_api/icons/v1/png_71/bar-71.png", "icon_background_color": "#FF9E67", "icon_mask_base_uri": "https://maps.gstatic.com/mapfiles/place_api/icons/v2/bar_pinlet", "name": "Goldmarks", "opening_hours": {"open_now": false}, "photos": [{"height": 1277, "html_attributions": ["<a href=\"https://maps.google.com/maps/contrib/104590994247395522623\">A Google User</a>"], "photo_reference": "AUGGfZny8oZOYyvw1WA4EKkpY6I4QBEnd7Aw0ap3S7rL1XZ2gWKXifuNcxxDl2Ac--z8XBbfZFI2Wv8rRiy-2uTX9QGvccS27ByngdvLLaooSyRubDZvWi5Ijc1MW-mjqgPrJWgGYlu-85faxfXtp2jOzGqy1OlpHRapo5fJ_BJyCyCzsSQ", "width": 1920}], "place_id": "ChIJkw2RRbXEmUcRCxbUhk5pHIw", "plus_code": {"compound_code": "Q5GM+M4 Stuttgart, Germany", "global_code": "8FWFQ5GM+M4"}, "price_level": 2, "rating": 4.5, "reference": "ChIJkw2RRbXEmUcRCxbUhk5pHIw", "scope": "GOOGLE", "types": ["bar", "restaurant", "food", "point_of_interest", "establishment"], "user_ratings_total": 309, "vicinity": "Leopoldo-Retti-Weg, Stuttgart"}, {"business_status": "OPERATIONAL", "geometry": {"location": {"lat": 48.7719318, "lng": 9.155396999999999}, "viewport": {"northeast": {"lat": 48.77325392989273, "lng": 9.15665427989272}, "southwest": {"lat": 48.77055427010728, "lng": 9.153954620107276}}}, "icon": "https://maps.gstatic.com/mapfiles/place_api/icons/v1/png_71/restaurant-71.png", "icon_background_color": "#FF9E67", "icon_mask_base_uri": "https://maps.gstatic.com/mapfiles/place_api/icons/v2/restaurant_pinlet", "name": "Piano Restaurant & Cocktail Bar \"LYSDORSS\"", "opening_hours": {"open_now": true}, "photos": [{"height": 3024, "html_attributions": ["<a href=\"https://maps.google.com/maps/contrib/103291520624331635288\">A Google User</a>"], "photo_reference": "AUGGfZkeKy1inxy4rKuKD73DRP_5vWWtYil3bv96mE2bI03Cm9CUiUEpLziSJN9AtiEmC6Fwh6OoC12leLGCYfEbnQwZ5qMJhpEtAjaBusnGhc0Ee4S-i55y1-pubBYy_45fYZhAIVQusTXJIZ87a3f-7KNw9GvbWKoneFZsf0De2z9yNYYC", "width": 4032}], "place_id": "ChIJk6nVKjTbmUcRZn7r_1Tq1NI", "plus_code": {"compound_code": "Q5C4+Q5 Stuttgart, Germany", "global_code": "8FWFQ5C4+Q5"}, "rating": 4.6, "reference": "ChIJk6nVKjTbmUcRZn7r_1Tq1NI", "scope": "GOOGLE", "types": ["cafe", "bar", "restaurant", "food", "point_of_interest", "establishment"], "user_ratings_total": 148, "vicinity": "R\u00f6testra\u00dfe 44, Stuttgart"}, {"business_status": "OPERATIONAL", "geometry": {"location": {"lat": 48.7651694, "lng": 9.1684433}, "viewport": {"northeast": {"lat": 48.76650987989272, "lng": 9.16982167989272}, "southwest": {"lat": 48.76381022010728, "lng": 9.167122020107277}}}, "icon": "https://maps.gstatic.com/mapfiles/place_api/icons/v1/png_71/restaurant-71.png", "icon_background_color": "#FF9E67", "icon_mask_base_uri": "https://maps.gstatic.com/mapfiles/place_api/icons/v2/restaurant_pinlet", "name": "Bistro Golf Bar", "opening_hours": {"open_now": true}, "photos": [{"height": 5952, "html_attributions": ["<a href=\"https://maps.google.com/maps/contrib/111810626997561589154\">Alexander Bachor</a>"], "photo_reference": "AUGGfZlFDawRSUTr9dBmeWQK9zkEgF3OrjMh7crYnU_OCI79gjj3el6JRWCorXHF5TwZU2v33_0k4kKUe9EfCYP2mQwZKJOrgj5B4YDCndlJcZuBTv93KZq3Q9z-fmIjesjGbq54Rz1yoLo9nNdvX9zng9gFT-uN_OZS9qkLnxC2LVj8uZs", "width": 3348}], "place_id": "ChIJjYxq9lDbmUcR2pF8qwW3_uE", "plus_code": {"compound_code": "Q589+39 Stuttgart, Germany", "global_code": "8FWFQ589+39"}, "rating": 4.1, "reference": "ChIJjYxq9lDbmUcR2pF8qwW3_uE", "scope": "GOOGLE", "types": ["bar", "restaurant", "food", "point_of_interest", "establishment"], "user_ratings_total": 16, "vicinity": "T\u00fcbinger Stra\u00dfe 90, Haupteingang Hohenstauffenstra\u00dfe 25, Stuttgart"}, {"business_status": "OPERATIONAL", "geometry": {"location": {"lat": 48.7760766, "lng": 9.1802283}, "viewport": {"northeast": {"lat": 48.77748127989272, "lng": 9.181617429892722}, "southwest": {"lat": 48.77478162010728, "lng": 9.178917770107278}}}, "icon": "https://maps.gstatic.com/mapfiles/place_api/icons/v1/png_71/restaurant-71.png", "icon_background_color": "#FF9E67", "icon_mask_base_uri": "https://maps.gstatic.com/mapfiles/place_api/icons/v2/restaurant_pinlet", "name": "Nesenbach Brauhaus & Eventlocation - Stuttgart", "opening_hours": {"open_now": true}, "photos": [{"height": 1080, "html_attributions": ["<a href=\"https://maps.google.com/maps/contrib/105393887182789459868\">A Google User</a>"], "photo_reference": "AUGGfZlOelO0xFVeqSNfOYAcnczEf7GnkQRWK8HKMh4flba9Zj8jcZqWj_hJ0w3DFqYUuKkLAsGUGoAvX4wcACUbkpwaI7PXWIDsqMVEtj8puGQL9nV4kHWqnWtCXuZn04R-THhZQEN0db5tniCFctBREaMuhVROKryCVqJBBtDeUDxcG8ab", "width": 1920}], "place_id": "ChIJMclPvkrbmUcRdYp92RbiPsI", "plus_code": {"compound_code": "Q5GJ+C3 Stuttgart, Germany", "global_code": "8FWFQ5GJ+C3"}, "price_level": 2, "rating": 4.2, "reference": "ChIJMclPvkrbmUcRdYp92RbiPsI", "scope": "GOOGLE", "types": ["restaurant", "bar", "food", "point_of_interest", "establishment"], "user_ratings_total": 938, "vicinity": "Dorotheenstra\u00dfe 6, Stuttgart"}]