[{"business_status": "OPERATIONAL", "geometry": {"location": {"lat": 43.2197022, "lng": 27.9190693}, "viewport": {"northeast": {"lat": 43.22105292989272, "lng": 27.92031412989272}, "southwest": {"lat": 43.21835327010728, "lng": 27.91761447010728}}}, "icon": "https://maps.gstatic.com/mapfiles/place_api/icons/v1/png_71/bar-71.png", "icon_background_color": "#FF9E67", "icon_mask_base_uri": "https://maps.gstatic.com/mapfiles/place_api/icons/v2/bar_pinlet", "name": "Amsterdam Rock", "opening_hours": {"open_now": true}, "photos": [{"height": 3456, "html_attributions": ["<a href=\"https://maps.google.com/maps/contrib/100572016617658890330\">A Google User</a>"], "photo_reference": "AUGGfZmQgaV_kclhWbgbryDwwGXv_TF0KwvdFL8ub6nDI9TWVe0PDfQBQfB0CWdRIUWC9rLuycndcvSPDU6xaGG7SlNnFXiiFZ0MC-fAecaVFybAvK8_bPcOxhV2q9992BzTiX8kzr_TTJNa-wewvRTdJAKeJLoh6tGb0r7BYrqWd0YEQCnj", "width": 4608}], "place_id": "ChIJX0F5CWxUpEARBqEZQkTXvys", "plus_code": {"compound_code": "6W99+VJ Varna, Bulgaria", "global_code": "8GM96W99+VJ"}, "rating": 4.6, "reference": "ChIJX0F5CWxUpEARBqEZQkTXvys", "scope": "GOOGLE", "types": ["bar", "night_club", "cafe", "restaurant", "food", "point_of_interest", "establishment"], "user_ratings_total": 218, "vicinity": "ul. \"Bratja Bakston\" 30, Varna"}, {"business_status": "OPERATIONAL", "geometry": {"location": {"lat": 43.2034551, "lng": 27.9173624}, "viewport": {"northeast": {"lat": 43.20463907989272, "lng": 27.91845637989272}, "southwest": {"lat": 43.20193942010728, "lng": 27.91575672010727}}}, "icon": "https://maps.gstatic.com/mapfiles/place_api/icons/v1/png_71/bar-71.png", "icon_background_color": "#FF9E67", "icon_mask_base_uri": "https://maps.gstatic.com/mapfiles/place_api/icons/v2/bar_pinlet", "name": "Sundogs", "opening_hours": {"open_now": true}, "photos": [{"height": 3024, "html_attributions": ["<a href=\"https://maps.google.com/maps/contrib/116992109055986796709\">Inside View</a>"], "photo_reference": "AUGGfZkHVQutLkI0YfpGsKDdzNUHGSvsYeC7S_hpNovMc_O02VsUAI_7hV7wvRqphbz1XI2EWIehKy-qWttKGCB-iPVNKI52uwBIwEB_Iry4zAhoEAOImtGCh2ArsljSffhkK74hT3KlrXkHM3KvtQZhA8qylcoFpE1rSiEnhjTKHyLplWkb", "width": 4032}], "place_id": "ChIJwQjrY_ZTpEARIc3f0oGs-RM", "plus_code": {"compound_code": "6W38+9W Varna, Bulgaria", "global_code": "8GM96W38+9W"}, "price_level": 2, "rating": 4.4, "reference": "ChIJwQjrY_ZTpEARIc3f0oGs-RM", "scope": "GOOGLE", "types": ["bar", "restaurant", "food", "point_of_interest", "establishment"], "user_ratings_total": 1791, "vicinity": "ul. \"Mihail Koloni\" 1, Varna"}, {"business_status": "OPERATIONAL", "geometry": {"location": {"lat": 43.2072334, "lng": 27.9053134}, "viewport": {"northeast": {"lat": 43.20860582989272, "lng": 27.90673632989272}, "southwest": {"lat": 43.20590617010728, "lng": 27.90403667010728}}}, "icon": "https://maps.gstatic.com/mapfiles/place_api/icons/v1/png_71/bar-71.png", "icon_background_color": "#FF9E67", "icon_mask_base_uri": "https://maps.gstatic.com/mapfiles/place_api/icons/v2/bar_pinlet", "name": "Cuban Bar", "opening_hours": {"open_now": true}, "photos": [{"height": 4032, "html_attributions": ["<a href=\"https://maps.google.com/maps/contrib/116680209529434424586\">\u0414\u043e\u043d\u0447\u043e \u041f\u0435\u0442\u0440\u043e\u0432</a>"], "photo_reference": "AUGGfZltnrBHDuIsOSW6DfmA-e4TotoIs9CYXZc0nzutgoXMQRdHfHq-nQDlps__Vxo5d_RludHr8-ZjsEUdWFmMRkJ9bl9c5Ey5hHDs7F05aST3eb4aNsQ-S7zI0vSXLsHR87ACYdOPrEpRErrhw6zHx-DKaQRpnXLD7i5KS4Vkzzqpb_GS", "width": 3024}], "place_id": "ChIJAQAyO4pTpEAR_w0KkTXGQ4s", "plus_code": {"compound_code": "6W44+V4 Varna, Bulgaria", "global_code": "8GM96W44+V4"}, "price_level": 2, "rating": 4.6, "reference": "ChIJAQAyO4pTpEAR_w0KkTXGQ4s", "scope": "GOOGLE", "types": ["bar", "restaurant", "food", "point_of_interest", "establishment"], "user_ratings_total": 149, "vicinity": "ul. \"Doctor Piskyuliev\" 17, Varna"}, {"business_status": "OPERATIONAL", "geometry": {"location": {"lat": 43.2039575, "lng": 27.905266}, "viewport": {"northeast": {"lat": 43.20537217989272, "lng": 27.90658702989272}, "southwest": {"lat": 43.20267252010728, "lng": 27.90388737010727}}}, "icon": "https://maps.gstatic.com/mapfiles/place_api/icons/v1/png_71/restaurant-71.png", "icon_background_color": "#FF9E67", "icon_mask_base_uri": "https://maps.gstatic.com/mapfiles/place_api/icons/v2/restaurant_pinlet", "name": "Bar & Dinner PivoVarna", "opening_hours": {"open_now": false}, "photos": [{"height": 3024, "html_attributions": ["<a href=\"https://maps.google.com/maps/contrib/107923179453461269371\">Nadya Stamatova</a>"], "photo_reference": "AUGGfZnBZaf6NYDRkvCAl8fYhkiPZA6hqXUDb0ZPGLsSBCOrkdjUbZ4zS5Trt7-TkgM1nwaUlDMlteIu5bkVkbwHPUQvMAEEaYAfpGR9T7n6wIQiBhlKvudPjnDqh6pqSFQfIoPmLoVuqSyp9q0rpQjvZ57IdDrIEkRv4R2a_q5A8fcYJ3aS", "width": 4032}], "place_id": "ChIJL0OCgYxTpEARF1v0FOCdfXk", "plus_code": {"compound_code": "6W34+H4 Varna, Bulgaria", "global_code": "8GM96W34+H4"}, "price_level": 2, "rating": 4.3, "reference": "ChIJL0OCgYxTpEARF1v0FOCdfXk", "scope": "GOOGLE", "types": ["restaurant", "bar", "food", "point_of_interest", "establishment"], "user_ratings_total": 132, "vicinity": "\u0431\u0443\u043b. \u201e\u0425\u0440\u0438\u0441\u0442\u043e \u0411\u043e\u0442\u0435\u0432\u201c 3\u0412, Varna"}, {"business_status": "OPERATIONAL", "geometry": {"location": {"lat": 43.2113308, "lng": 27.9262922}, "viewport": {"northeast": {"lat": 43.21266752989273, "lng": 27.92755077989272}, "southwest": {"lat": 43.20996787010728, "lng": 27.92485112010728}}}, "icon": "https://maps.gstatic.com/mapfiles/place_api/icons/v1/png_71/bar-71.png", "icon_background_color": "#FF9E67", "icon_mask_base_uri": "https://maps.gstatic.com/mapfiles/place_api/icons/v2/bar_pinlet", "name": "The Martini Food & Cocktails", "opening_hours": {"open_now": true}, "photos": [{"height": 960, "html_attributions": ["<a href=\"https://maps.google.com/maps/contrib/116538937694019834234\">The Martini</a>"], "photo_reference": "AUGGfZkjJESzupUu4VtE7bQqas9Dit-lukf3ONeLj1G-PAee2ir0oUv_bxuLKgIuIXGk669bqMaWaAJhTpCUnO5Xk494icYM0IOjqbwUPwPWZ5ADza3XwggLvBHt0fZyZVBp7pTBnhjPjzsniEHeGbucUbrWdadGxGxewOp9IZu4JoLHUkCV", "width": 1440}], "place_id": "ChIJ_-zPaQ5UpEARkXi1rXGDSw4", "plus_code": {"compound_code": "6W6G+GG Varna, Bulgaria", "global_code": "8GM96W6G+GG"}, "price_level": 2, "rating": 4.5, "reference": "ChIJ_-zPaQ5UpEARkXi1rXGDSw4", "scope": "GOOGLE", "types": ["bar", "cafe", "restaurant", "food", "point_of_interest", "establishment"], "user_ratings_total": 2355, "vicinity": "ul. \"Nikola Mihaylovski\" 24, Varna"}, {"business_status": "OPERATIONAL", "geometry": {"location": {"lat": 43.2097851, "lng": 27.9240519}, "viewport": {"northeast": {"lat": 43.21115417989272, "lng": 27.92537932989272}, "southwest": {"lat": 43.20845452010727, "lng": 27.92267967010727}}}, "icon": "https://maps.gstatic.com/mapfiles/place_api/icons/v1/png_71/bar-71.png", "icon_background_color": "#FF9E67", "icon_mask_base_uri": "https://maps.gstatic.com/mapfiles/place_api/icons/v2/bar_pinlet", "name": "PUB RUB", "opening_hours": {"open_now": true}, "photos": [{"height": 4032, "html_attributions": ["<a href=\"https://maps.google.com/maps/contrib/105884368223453052083\">A Google User</a>"], "photo_reference": "AUGGfZlN3mkX_tXFmDeSIVgV8SWmkyGOfQmkX3buWsHT9bc_avetbedhKPQgGaHCD30GUw8AFcSqcsOwXgnXFlFEuwFmATfxkVOSHlaB0VR-kJ2ANqKNwIgelWxiXQ7nE6wcP9WI2TbBAQzSWR1krNVvKbhCPPR0MC9HuRSVcYc-U5-A0cOx", "width": 3024}], "place_id": "ChIJccV0sF5VpEARpMMsRVDJ3pw", "plus_code": {"compound_code": "6W5F+WM Varna, Bulgaria", "global_code": "8GM96W5F+WM"}, "rating": 4.8, "reference": "ChIJccV0sF5VpEARpMMsRVDJ3pw", "scope": "GOOGLE", "types": ["bar", "cafe", "restaurant", "food", "store", "point_of_interest", "establishment"], "user_ratings_total": 93, "vicinity": "ul. \"Dobri Chintulov\" 18, Varna"}, {"business_status": "OPERATIONAL", "geometry": {"location": {"lat": 43.1962585, "lng": 27.9190948}, "viewport": {"northeast": {"lat": 43.19778067989272, "lng": 27.92046022989272}, "southwest": {"lat": 43.19508102010727, "lng": 27.91776057010727}}}, "icon": "https://maps.gstatic.com/mapfiles/place_api/icons/v1/png_71/bar-71.png", "icon_background_color": "#FF9E67", "icon_mask_base_uri": "https://maps.gstatic.com/mapfiles/place_api/icons/v2/bar_pinlet", "name": "Craft Beer & Meat", "opening_hours": {"open_now": true}, "photos": [{"height": 2592, "html_attributions": ["<a href=\"https://maps.google.com/maps/contrib/101204655884581041082\">aleksandur aleksandrov</a>"], "photo_reference": "AUGGfZnfrXkmYYAsowSo4X6Zs4Xpyl-pE5VOtdWZWSwU96Xuu6fU-n2s6GLmJHTg37s5RgqskU4Zzqlw_lGG8orYfzWhorwv0WbsElbIa_QWUUG1190qBUtnLC-o0aC4SqZ8aWGy_4N3FKA-H6IAEg2az7fAGTAOw4y9-EnnpSfpzKq2jjze", "width": 4608}], "place_id": "ChIJV3K4wgpTpEAROflue1IITEk", "plus_code": {"compound_code": "5WW9+FJ Varna, Bulgaria", "global_code": "8GM95WW9+FJ"}, "price_level": 2, "rating": 4.5, "reference": "ChIJV3K4wgpTpEAROflue1IITEk", "scope": "GOOGLE", "types": ["bar", "restaurant", "food", "point_of_interest", "establishment"], "user_ratings_total": 1909, "vicinity": "\u041c\u043e\u0440\u0441\u043a\u0430 \u0433\u0430\u0440\u0430, 9000, Varna"}, {"business_status": "OPERATIONAL", "geometry": {"location": {"lat": 43.19988, "lng": 27.91318}, "viewport": {"northeast": {"lat": 43.20123317989272, "lng": 27.91447002989272}, "southwest": {"lat": 43.19853352010728, "lng": 27.91177037010728}}}, "icon": "https://maps.gstatic.com/mapfiles/place_api/icons/v1/png_71/restaurant-71.png", "icon_background_color": "#FF9E67", "icon_mask_base_uri": "https://maps.gstatic.com/mapfiles/place_api/icons/v2/restaurant_pinlet", "name": "The Golden Sheep Brewhouse", "opening_hours": {"open_now": true}, "photos": [{"height": 1200, "html_attributions": ["<a href=\"https://maps.google.com/maps/contrib/114761977593801669508\">Donka Mircheva</a>"], "photo_reference": "AUGGfZmSmAq2NqdwS1-JMplpy9rmSer6xHTalQuhlLsgLXmnmMq42_J0rhLoIe6nYDVhgCNExF_k7roCzMv7iVq8_XqQs8RFfTukpsgt2A09CyZFX3op5ncZ2Cj8FPAgQp2chtp6W5S2SQJsPasS3eqXdQkBAFFdjMBRCUM5_QsbUdglR7xT", "width": 1600}], "place_id": "ChIJBXx7evFTpEARGcI4PhG0Jm0", "plus_code": {"compound_code": "5WX7+X7 Varna, Bulgaria", "global_code": "8GM95WX7+X7"}, "price_level": 2, "rating": 4.4, "reference": "ChIJBXx7evFTpEARGcI4PhG0Jm0", "scope": "GOOGLE", "types": ["restaurant", "food", "point_of_interest", "establishment"], "user_ratings_total": 1199, "vicinity": "ul. \"Tsar Simeon I\" 27, Varna"}, {"business_status": "OPERATIONAL", "geometry": {"location": {"lat": 43.2016005, "lng": 27.9234093}, "viewport": {"northeast": {"lat": 43.20298417989272, "lng": 27.92468387989272}, "southwest": {"lat": 43.20028452010728, "lng": 27.92198422010727}}}, "icon": "https://maps.gstatic.com/mapfiles/place_api/icons/v1/png_71/bar-71.png", "icon_background_color": "#FF9E67", "icon_mask_base_uri": "https://maps.gstatic.com/mapfiles/place_api/icons/v2/bar_pinlet", "name": "Moonlight", "opening_hours": {"open_now": true}, "photos": [{"height": 3000, "html_attributions": ["<a href=\"https://maps.google.com/maps/contrib/104345436076863136123\">Elka Korovesova</a>"], "photo_reference": "AUGGfZkSTX9S18vTy9_aE9MjQwCwL-GmwcH_zP2zFKC1nBDdVs4ncY6Hvi1v6WZnlLPKXDTkH9jWXi3azHYn2oBqjuEWKX8F2QRcsfv-yCVqkONA7a_82GUfjIHFbNxyRHv60htXj8v2wf-U-_dNVo6-w3IOfQQIcL5qH2DFXydG6mMjNiwX", "width": 4000}], "place_id": "ChIJo0818HdTpEARFw41ZN5FH8w", "plus_code": {"compound_code": "6W2F+J9 Varna, Bulgaria", "global_code": "8GM96W2F+J9"}, "price_level": 2, "rating": 4.1, "reference": "ChIJo0818HdTpEARFw41ZN5FH8w", "scope": "GOOGLE", "types": ["bar", "restaurant", "food", "point_of_interest", "establishment"], "user_ratings_total": 1222, "vicinity": "ul. \"Kapitan Georgi Georgiev\" 9000, Varna"}, {"business_status": "OPERATIONAL", "geometry": {"location": {"lat": 43.2032951, "lng": 27.9124742}, "viewport": {"northeast": {"lat": 43.20464492989272, "lng": 27.91382402989272}, "southwest": {"lat": 43.20194527010727, "lng": 27.91112437010728}}}, "icon": "https://maps.gstatic.com/mapfiles/place_api/icons/v1/png_71/restaurant-71.png", "icon_background_color": "#FF9E67", "icon_mask_base_uri": "https://maps.gstatic.com/mapfiles/place_api/icons/v2/restaurant_pinlet", "name": "Grande Bar & Dinner", "opening_hours": {"open_now": true}, "photos": [{"height": 2016, "html_attributions": ["<a href=\"https://maps.google.com/maps/contrib/117877603954647259336\">A Google User</a>"], "photo_reference": "AUGGfZlvr7xjxSH3iHe8wEUYVxm4hx34Uw5VjQlP-VUvUC2Yvap6z66OrZ3vwdp0OEmrvk0C6zjvJDooF9sUv1_2kg4SIiXUUmoL0Vx-jZi39Ri64DK_rROvXPf5IDodYN6OW-kdSDk8F-iIsxqw1_2T5Hz6v0Y_xdooApFU9D7dF9RArnrz", "width": 1512}], "place_id": "ChIJDbEKaEhTpEARZf2awbYhc-4", "plus_code": {"compound_code": "6W36+8X Varna, Bulgaria", "global_code": "8GM96W36+8X"}, "price_level": 2, "rating": 3.5, "reference": "ChIJDbEKaEhTpEARZf2awbYhc-4", "scope": "GOOGLE", "types": ["restaurant", "food", "point_of_interest", "establishment"], "user_ratings_total": 159, "vicinity": "ul. \"Ruse\" 5, Varna"}, {"business_status": "OPERATIONAL", "geometry": {"location": {"lat": 43.2026957, "lng": 27.9155279}, "viewport": {"northeast": {"lat": 43.20407807989272, "lng": 27.91697067989272}, "southwest": {"lat": 43.20137842010728, "lng": 27.91427102010728}}}, "icon": "https://maps.gstatic.com/mapfiles/place_api/icons/v1/png_71/restaurant-71.png", "icon_background_color": "#FF9E67", "icon_mask_base_uri": "https://maps.gstatic.com/mapfiles/place_api/icons/v2/restaurant_pinlet", "name": "Alba", "opening_hours": {"open_now": true}, "photos": [{"height": 3096, "html_attributions": ["<a href=\"https://maps.google.com/maps/contrib/108895073158733263869\">\u0418\u0433\u043e\u0440\u044c \u0411\u0435\u043b\u044f\u0435\u0432</a>"], "photo_reference": "AUGGfZl4nqYlh9gaT1xqTHObzXfeUjDoCGDV4NF0Buy2L3NKfVwC-x4-pnUKs9IVM7bSN6ZqBAbrYK6ZAsCUc7cNk9hwZwZ_Mi0cNJCI4LD2Hnro87870SpdV_8jFpQpczlR46D0QcmNc7E0AZWAQTYW6GbL7cfoUtI4cvIJ3N0HqS2R0qzo", "width": 4128}], "place_id": "ChIJj8a9nvZTpEARIfE6Hus0WN8", "plus_code": {"compound_code": "6W38+36 Varna, Bulgaria", "global_code": "8GM96W38+36"}, "price_level": 2, "rating": 4.3, "reference": "ChIJj8a9nvZTpEARIfE6Hus0WN8", "scope": "GOOGLE", "types": ["restaurant", "food", "point_of_interest", "establishment"], "user_ratings_total": 3380, "vicinity": "ul. \"Knyaz Aleksander Batenberg\" 6, Varna"}, {"business_status": "OPERATIONAL", "geometry": {"location": {"lat": 43.2109003, "lng": 27.9200855}, "viewport": {"northeast": {"lat": 43.21227957989272, "lng": 27.92147462989272}, "southwest": {"lat": 43.20957992010727, "lng": 27.91877497010728}}}, "icon": "https://maps.gstatic.com/mapfiles/place_api/icons/v1/png_71/restaurant-71.png", "icon_background_color": "#FF9E67", "icon_mask_base_uri": "https://maps.gstatic.com/mapfiles/place_api/icons/v2/restaurant_pinlet", "name": "Nida", "opening_hours": {"open_now": true}, "photos": [{"height": 1848, "html_attributions": ["<a href=\"https://maps.google.com/maps/contrib/107860067504695422526\">Helena Vesterlund</a>"], "photo_reference": "AUGGfZnygseaWveT3jB5Efb2KHd76nsisy69JOGDaPuFRTFTW0RLCJ0lzi-WGnEE_HDRvE4zmX2WrmSZvLsPUeEHBzii0fhkM_m-78btKa8t4anp3PcU8dxhvDbCsGo1Sz0a70ICoecQA5nHBnOE77_hnrp2QVDJFy8fxkX-rQEAYCUv-Aqp", "width": 4000}], "place_id": "ChIJHaxAYAxUpEARawdzgnFhw4k", "plus_code": {"compound_code": "6W6C+92 Varna, Bulgaria", "global_code": "8GM96W6C+92"}, "price_level": 2, "rating": 4.8, "reference": "ChIJHaxAYAxUpEARawdzgnFhw4k", "scope": "GOOGLE", "types": ["restaurant", "food", "point_of_interest", "establishment"], "user_ratings_total": 143, "vicinity": "ul. \"General Stolipin\" 17, Varna"}, {"business_status": "OPERATIONAL", "geometry": {"location": {"lat": 43.21630589999999, "lng": 27.9033781}, "viewport": {"northeast": {"lat": 43.21763032989272, "lng": 27.90474627989272}, "southwest": {"lat": 43.21493067010728, "lng": 27.90204662010727}}}, "icon": "https://maps.gstatic.com/mapfiles/place_api/icons/v1/png_71/restaurant-71.png", "icon_background_color": "#FF9E67", "icon_mask_base_uri": "https://maps.gstatic.com/mapfiles/place_api/icons/v2/restaurant_pinlet", "name": "Fratelli Food & Bar", "opening_hours": {"open_now": true}, "photos": [{"height": 3024, "html_attributions": ["<a href=\"https://maps.google.com/maps/contrib/114761977593801669508\">Donka Mircheva</a>"], "photo_reference": "AUGGfZkZ5oVk1ZaWsmiAUpJWyIaE5CYbvjEGyl0u8pYfJWvlfZC1CZW-Wt2zF2OaW_WvkSkpS-2sGjQmkODLnmqPH8kBdTAVu7g8I0taDN7sVT26yrabXSYjfSa5dFg8gGyDohsIEKwqA_UGV9NiGEuCf7sop9q_fDhddkdICvHnNZGKY_ei", "width": 4032}], "place_id": "ChIJKek-sa5VpEARTBzmxTHCNIM", "plus_code": {"compound_code": "6W83+G9 Varna, Bulgaria", "global_code": "8GM96W83+G9"}, "price_level": 2, "rating": 4.4, "reference": "ChIJKek-sa5VpEARTBzmxTHCNIM", "scope": "GOOGLE", "types": ["meal_delivery", "bar", "meal_takeaway", "restaurant", "food", "point_of_interest", "establishment"], "user_ratings_total": 1616, "vicinity": "ul. \"Konstantin Velichkov\" 55, Varna"}, {"business_status": "OPERATIONAL", "geometry": {"location": {"lat": 43.2036554, "lng": 27.9097921}, "viewport": {"northeast": {"lat": 43.20503142989273, "lng": 27.91115587989272}, "southwest": {"lat": 43.20233177010729, "lng": 27.90845622010728}}}, "icon": "https://maps.gstatic.com/mapfiles/place_api/icons/v1/png_71/bar-71.png", "icon_background_color": "#FF9E67", "icon_mask_base_uri": "https://maps.gstatic.com/mapfiles/place_api/icons/v2/bar_pinlet", "name": "The Key Beer Bar", "opening_hours": {"open_now": true}, "photos": [{"height": 567, "html_attributions": ["<a href=\"https://maps.google.com/maps/contrib/106816994493266823221\">A Google User</a>"], "photo_reference": "AUGGfZnkqZskobClTYSZxo8jyv_IP_0Qa7QXcNucCGcJLoRISh1L_h8Pk0uq6S76gUxrdhQVG57dHkCblBu3S0F5CPBMQS6SWFD-4M8lfQkKuXlEa4HpaI02xxM0n7EmXXw3ZpmFQOI5WpOrUJhskoJ4HQaB8R-asWOFDLo7H1voIkFCAFld", "width": 850}], "place_id": "ChIJQ6PbPUhTpEARKn9tpzEMqWo", "plus_code": {"compound_code": "6W35+FW Varna, Bulgaria", "global_code": "8GM96W35+FW"}, "price_level": 2, "rating": 4.6, "reference": "ChIJQ6PbPUhTpEARKn9tpzEMqWo", "scope": "GOOGLE", "types": ["bar", "restaurant", "food", "point_of_interest", "establishment"], "user_ratings_total": 1218, "vicinity": "ul. \"Ruse\" 27\u0410, Varna"}, {"business_status": "OPERATIONAL", "geometry": {"location": {"lat": 43.1976329, "lng": 27.9203221}, "viewport": {"northeast": {"lat": 43.19896927989272, "lng": 27.92157207989272}, "southwest": {"lat": 43.19626962010728, "lng": 27.91887242010728}}}, "icon": "https://maps.gstatic.com/mapfiles/place_api/icons/v1/png_71/restaurant-71.png", "icon_background_color": "#FF9E67", "icon_mask_base_uri": "https://maps.gstatic.com/mapfiles/place_api/icons/v2/restaurant_pinlet", "name": "BM Gulf", "opening_hours": {"open_now": true}, "photos": [{"height": 639, "html_attributions": ["<a href=\"https://maps.google.com/maps/contrib/107963809246885326414\">\u0420\u0415\u0421\u0422\u041e\u0420\u0410\u041d\u0422 \u0411\u041c \u0417\u0410\u041b\u0418\u0412\u0410</a>"], "photo_reference": "AUGGfZk1LPc1KOtZrDoetLs91DCCqmrIlrkXQ97QbkHPNnuc_sWun1drjUOS3SJG2_aEqS52YfslmY9JzK6cqYXsXdwwIm-xj6vRvOF7NdXica-1xft8tkweRdehTMKdF5xejlpw1WRnFv4PdPnslP7pcKx8zD7SgMOae1Ujdk-e2Cq0KZx9", "width": 960}], "place_id": "ChIJZ5OLQfRTpEARnmigJ6FVwB4", "plus_code": {"compound_code": "5WXC+34 Varna, Bulgaria", "global_code": "8GM95WXC+34"}, "price_level": 2, "rating": 4.3, "reference": "ChIJZ5OLQfRTpEARnmigJ6FVwB4", "scope": "GOOGLE", "types": ["restaurant", "food", "point_of_interest", "establishment"], "user_ratings_total": 2168, "vicinity": "\u0412\u0430\u0440\u043d\u0430, \u042e\u0436\u0435\u043d \u041f\u043b\u0430\u0436,\u0431\u0430\u0441\u0435\u0439\u043d, Varna"}, {"business_status": "OPERATIONAL", "geometry": {"location": {"lat": 43.2092605, "lng": 27.93881}, "viewport": {"northeast": {"lat": 43.21063592989272, "lng": 27.94015242989272}, "southwest": {"lat": 43.20793627010728, "lng": 27.93745277010727}}}, "icon": "https://maps.gstatic.com/mapfiles/place_api/icons/v1/png_71/restaurant-71.png", "icon_background_color": "#FF9E67", "icon_mask_base_uri": "https://maps.gstatic.com/mapfiles/place_api/icons/v2/restaurant_pinlet", "name": "Veranda Pizza&Barbeque", "opening_hours": {"open_now": true}, "photos": [{"height": 2268, "html_attributions": ["<a href=\"https://maps.google.com/maps/contrib/114238652217538212649\">Stoyan Marinov</a>"], "photo_reference": "AUGGfZkKpLQgQvi9IqUBmZwAHmeNMVTfiTaThS62-s3sOUjyOB3Zu1T-kiMJJc_OtyiUxuoqWRSM51CzDugIba3Tw0wTP3_xIf6P6Qr18WLCftfyRTDoJbGoQaG7zTOCTVGjgtKsPPok5OO0k5Tn_Kh9DaAxnaXUBATCHexHP7QuRsualxyh", "width": 4032}], "place_id": "ChIJWRCtaX1RpEAROA7X379g5VI", "plus_code": {"compound_code": "6W5Q+MG Varna, Bulgaria", "global_code": "8GM96W5Q+MG"}, "price_level": 2, "rating": 3.9, "reference": "ChIJWRCtaX1RpEAROA7X379g5VI", "scope": "GOOGLE", "types": ["restaurant", "food", "point_of_interest", "establishment"], "user_ratings_total": 1187, "vicinity": "\u041a\u0440\u0430\u0439\u0431\u0440\u0435\u0436\u043d\u0430 \u0430\u043b\u0435\u044f, \u041e\u0444\u0438\u0446\u0435\u0440\u0441\u043a\u0438 \u043f\u043b\u0430\u0436, Varna"}, {"business_status": "OPERATIONAL", "geometry": {"location": {"lat": 43.224446, "lng": 27.9249997}, "viewport": {"northeast": {"lat": 43.22579592989272, "lng": 27.92639747989272}, "southwest": {"lat": 43.22309627010728, "lng": 27.92369782010728}}}, "icon": "https://maps.gstatic.com/mapfiles/place_api/icons/v1/png_71/restaurant-71.png", "icon_background_color": "#FF9E67", "icon_mask_base_uri": "https://maps.gstatic.com/mapfiles/place_api/icons/v2/restaurant_pinlet", "name": "Nutrio Bar - Dubrovnik 54 Str., Varna", "opening_hours": {"open_now": true}, "photos": [{"height": 2250, "html_attributions": ["<a href=\"https://maps.google.com/maps/contrib/107532792784044913108\">Sibin Atanasov</a>"], "photo_reference": "AUGGfZln_SbarFJcqhhVX25WngNUUsMBlyJBOzlm4TtEdZah8PhTrl7MSz9xcnnMmX_MqLarl0xsIbnw6hOEhMGIeEBBhLTBSphe5_ERkgJ3UnrIArQFa3qD9n279pCUFH9GyCRLCuc3Wt7GTtRUNePj_ZtaYmpOvWgpeOE8t58v9y9nY_KA", "width": 4000}], "place_id": "ChIJz_zBvkFUpEARwl0eXjuqpkw", "plus_code": {"compound_code": "6WFF+QX Varna, Bulgaria", "global_code": "8GM96WFF+QX"}, "price_level": 2, "rating": 4.5, "reference": "ChIJz_zBvkFUpEARwl0eXjuqpkw", "scope": "GOOGLE", "types": ["restaurant", "food", "point_of_interest", "establishment"], "user_ratings_total": 548, "vicinity": "near ul. \"Dubrovnik\" 10A, Varna"}, {"business_status": "OPERATIONAL", "geometry": {"location": {"lat": 43.2118004, "lng": 27.9368927}, "viewport": {"northeast": {"lat": 43.21313142989272, "lng": 27.93819922989272}, "southwest": {"lat": 43.21043177010728, "lng": 27.93549957010728}}}, "icon": "https://maps.gstatic.com/mapfiles/place_api/icons/v1/png_71/restaurant-71.png", "icon_background_color": "#FF9E67", "icon_mask_base_uri": "https://maps.gstatic.com/mapfiles/place_api/icons/v2/restaurant_pinlet", "name": "Dolce Amaro Garden", "opening_hours": {"open_now": true}, "photos": [{"height": 1816, "html_attributions": ["<a href=\"https://maps.google.com/maps/contrib/114606333189677571509\">Jan Vaithilingam</a>"], "photo_reference": "AUGGfZlwkpHHMtbc7PIGMj_Nu80h4h2pa1OJrBEU6aPg4tWqAv_tOn9nVB_gg4Z1Z6dbw4YR_0Pb2wmv7-PIx0u59anfkHVFAoMZMf0krF_TUzulNlj7LIcxeko-C_e3mMJC_qlfY9AqjaWQWORMjm_9ucHsN2mGBXXsjZjC-sXiG_xh1u-9", "width": 4032}], "place_id": "ChIJYZLMLMBVpEARjvb7qRhVhAg", "plus_code": {"compound_code": "6W6P+PQ Varna, Bulgaria", "global_code": "8GM96W6P+PQ"}, "rating": 4.2, "reference": "ChIJYZLMLMBVpEARjvb7qRhVhAg", "scope": "GOOGLE", "types": ["restaurant", "food", "point_of_interest", "establishment"], "user_ratings_total": 841, "vicinity": "\u0440\u0430\u0439\u043e\u043d \u041f\u0440\u0438\u043c\u043e\u0440\u0441\u043a\u0438, \u043c\u0435\u0441\u0442\u043d\u043e\u0441\u0442 \u0421\u0430\u043b\u0442\u0430\u043d\u0430\u0442 81, Varna"}, {"business_status": "OPERATIONAL", "geometry": {"location": {"lat": 43.203538, "lng": 27.925023}, "viewport": {"northeast": {"lat": 43.20493737989272, "lng": 27.92629732989272}, "southwest": {"lat": 43.20223772010728, "lng": 27.92359767010728}}}, "icon": "https://maps.gstatic.com/mapfiles/place_api/icons/v1/png_71/restaurant-71.png", "icon_background_color": "#FF9E67", "icon_mask_base_uri": "https://maps.gstatic.com/mapfiles/place_api/icons/v2/restaurant_pinlet", "name": "El Kapan", "opening_hours": {"open_now": true}, "photos": [{"height": 4024, "html_attributions": ["<a href=\"https://maps.google.com/maps/contrib/109830219504063956865\">\u0415\u043b \u041a\u0430\u043f\u0430\u043d</a>"], "photo_reference": "AUGGfZnwOlI6OGYgpB379oKluqD0f5ZBACdwSYgWzZqKzlsMDziajouzxMdS_47NDY3oceLd59Sy-C1vVEFhZZ17fu9mVW1o3KnPf7bLxmX6kSMx1BMEvYCCoGUlakKsHdOSPxpF2oA4AwRZrOHi9H2L10yx4UIciNtEfbAw5PPY6Mvqspol", "width": 6048}], "place_id": "ChIJAdf1CPhTpEARuP0N1hPjeJs", "plus_code": {"compound_code": "6W3G+C2 Varna, Bulgaria", "global_code": "8GM96W3G+C2"}, "price_level": 2, "rating": 4.5, "reference": "ChIJAdf1CPhTpEARuP0N1hPjeJs", "scope": "GOOGLE", "types": ["restaurant", "food", "point_of_interest", "establishment"], "user_ratings_total": 3950, "vicinity": "\u043a\u0430\u043f. \"\u0413\u0435\u043e\u0440\u0433\u0438 \u0413\u0435\u043e\u0440\u0433\u0438\u0435\u0432\", K\u0440\u0430\u0439\u0431\u0440\u0435\u0436\u043d\u0430 \u0410\u043b\u0435\u044f , \u0421\u0435\u0432\u0435\u0440\u043d\u0438 \u041c\u043e\u0440\u0441\u043a\u0438 \u0411\u0430\u043d\u0438, Varna"}, {"business_status": "OPERATIONAL", "geometry": {"location": {"lat": 43.2051058, "lng": 27.9207285}, "viewport": {"northeast": {"lat": 43.20639252989273, "lng": 27.92222332989272}, "southwest": {"lat": 43.20369287010729, "lng": 27.91952367010728}}}, "icon": "https://maps.gstatic.com/mapfiles/place_api/icons/v1/png_71/restaurant-71.png", "icon_background_color": "#FF9E67", "icon_mask_base_uri": "https://maps.gstatic.com/mapfiles/place_api/icons/v2/restaurant_pinlet", "name": "So Fresh Sevastopol", "opening_hours": {"open_now": true}, "photos": [{"height": 1000, "html_attributions": ["<a href=\"https://maps.google.com/maps/contrib/106359082023693129979\">So Fresh</a>"], "photo_reference": "AUGGfZnFkJ2gcnZjogpEVdpbwkfE0Pn6zqsWofEl9W2nPywjb3Y0ia5bBR1WITOv1OBz8D2uWe8PnnJih9iJiDVFmba84jz85xpYLlepiHurYHxUGS-bXnDpvXsHs-yxnoask-8MCba-GY5VTXmOSeXcc1W80OBcJqDreJH1iTIjC0fpR7WI", "width": 1500}], "place_id": "ChIJaSRYI_ZTpEARbabrl9GX7ro", "plus_code": {"compound_code": "6W4C+27 Varna, Bulgaria", "global_code": "8GM96W4C+27"}, "price_level": 2, "rating": 4.5, "reference": "ChIJaSRYI_ZTpEARbabrl9GX7ro", "scope": "GOOGLE", "types": ["restaurant", "food", "point_of_interest", "establishment"], "user_ratings_total": 562, "vicinity": "bul. \"Slivnitsa\" 16, Varna"}]