[{"business_status": "OPERATIONAL", "geometry": {"location": {"lat": 50.9367183, "lng": 6.959741999999999}, "viewport": {"northeast": {"lat": 50.93801117989273, "lng": 6.961366529892722}, "southwest": {"lat": 50.93531152010728, "lng": 6.958666870107278}}}, "icon": "https://maps.gstatic.com/mapfiles/place_api/icons/v1/png_71/bar-71.png", "icon_background_color": "#FF9E67", "icon_mask_base_uri": "https://maps.gstatic.com/mapfiles/place_api/icons/v2/bar_pinlet", "name": "The Copper Pot - K\u00f6ln", "opening_hours": {"open_now": true}, "photos": [{"height": 3456, "html_attributions": ["<a href=\"https://maps.google.com/maps/contrib/112882371604953638895\">Fabricio Scaff</a>"], "photo_reference": "AUGGfZlLpRmFEGNZ3Txww5alat9zfLmP8CWTiRKvYw39JTUWp7tcyEJMtEkRmdwdFDOXdP6jCTgdnRKhUJO8puX4oHIj65tvCLEysCinposp8NmLZwZTw91e-YB0xal4cFpLmond6g2VDBBeW0pJii8QN6rLx-wVDhVxD9sN8WYj-FObpr6f", "width": 4608}], "place_id": "ChIJyXaOnrElv0cRTyoKHnAjYLU", "plus_code": {"compound_code": "WXP5+MV Cologne, Germany", "global_code": "9F28WXP5+MV"}, "price_level": 2, "rating": 4.6, "reference": "ChIJyXaOnrElv0cRTyoKHnAjYLU", "scope": "GOOGLE", "types": ["night_club", "bar", "restaurant", "food", "point_of_interest", "establishment"], "user_ratings_total": 866, "vicinity": "Bolzengasse 7, K\u00f6ln"}, {"business_status": "OPERATIONAL", "geometry": {"location": {"lat": 50.9389241, "lng": 6.959760699999999}, "viewport": {"northeast": {"lat": 50.94041097989273, "lng": 6.961236479892722}, "southwest": {"lat": 50.93771132010728, "lng": 6.958536820107278}}}, "icon": "https://maps.gstatic.com/mapfiles/place_api/icons/v1/png_71/bar-71.png", "icon_background_color": "#FF9E67", "icon_mask_base_uri": "https://maps.gstatic.com/mapfiles/place_api/icons/v2/bar_pinlet", "name": "The Corkonian Irish pub", "opening_hours": {"open_now": true}, "photos": [{"height": 3456, "html_attributions": ["<a href=\"https://maps.google.com/maps/contrib/109056930741066618147\">Vanalai</a>"], "photo_reference": "AUGGfZnJ7uLZdpFSbU9TRm-bkdq6rbRB11nwbocPwFl_psMfO8R_Z8iQepI_sPR40iIYDxR3XFvngHrHvbcXC_ApGr6xqUyjqrhB0KPJZDah3XzaTPvdUQQanY34SmYtBExR7uEVm5221mqK9fnTo6N1A8jLpQZArD4EvoTJrOB6QhMEK1t2", "width": 4608}], "place_id": "ChIJUdFpULAlv0cRFwvvJI41P9s", "plus_code": {"compound_code": "WXQ5+HW Cologne, Germany", "global_code": "9F28WXQ5+HW"}, "price_level": 2, "rating": 4.3, "reference": "ChIJUdFpULAlv0cRFwvvJI41P9s", "scope": "GOOGLE", "types": ["bar", "restaurant", "food", "point_of_interest", "establishment"], "user_ratings_total": 1902, "vicinity": "Alter Markt 51, K\u00f6ln"}, {"business_status": "OPERATIONAL", "geometry": {"location": {"lat": 50.9391861, "lng": 6.9588389}, "viewport": {"northeast": {"lat": 50.94051832989273, "lng": 6.960165829892722}, "southwest": {"lat": 50.93781867010728, "lng": 6.957466170107278}}}, "icon": "https://maps.gstatic.com/mapfiles/place_api/icons/v1/png_71/bar-71.png", "icon_background_color": "#FF9E67", "icon_mask_base_uri": "https://maps.gstatic.com/mapfiles/place_api/icons/v2/bar_pinlet", "name": "Barney Vallely's", "opening_hours": {"open_now": true}, "photos": [{"height": 1960, "html_attributions": ["<a href=\"https://maps.google.com/maps/contrib/105838149963245734553\">Axel Bunkowski</a>"], "photo_reference": "AUGGfZnKCmTR5CdXUAXP61ftFZyvMVM6vqamwVJBjLB4nRSJXvzMdTLMxVV6zaKmDAg9QjSgMdkek3A9t63zYbjQ35G2JETn1lYmxuUBGJcp1D2ipsfFy3YXZcgJb10hszdbLbh16y2wemkPoxZ17xRUCgrVrh55jf_7qvlXlnw8pLbERpAI", "width": 4032}], "place_id": "ChIJjRFwOLAlv0cRfFaxZDa45Ns", "plus_code": {"compound_code": "WXQ5+MG Cologne, Germany", "global_code": "9F28WXQ5+MG"}, "price_level": 2, "rating": 4.6, "reference": "ChIJjRFwOLAlv0cRfFaxZDa45Ns", "scope": "GOOGLE", "types": ["bar", "restaurant", "food", "point_of_interest", "establishment"], "user_ratings_total": 1257, "vicinity": "Kleine Budengasse 7-11, K\u00f6ln"}, {"business_status": "OPERATIONAL", "geometry": {"location": {"lat": 50.940948, "lng": 6.943472}, "viewport": {"northeast": {"lat": 50.94221462989272, "lng": 6.944889129892722}, "southwest": {"lat": 50.93951497010728, "lng": 6.942189470107278}}}, "icon": "https://maps.gstatic.com/mapfiles/place_api/icons/v1/png_71/bar-71.png", "icon_background_color": "#FF9E67", "icon_mask_base_uri": "https://maps.gstatic.com/mapfiles/place_api/icons/v2/bar_pinlet", "name": "Jameson Pub Cologne", "opening_hours": {"open_now": true}, "photos": [{"height": 1868, "html_attributions": ["<a href=\"https://maps.google.com/maps/contrib/107645648540363071035\">dan george</a>"], "photo_reference": "AUGGfZkNvkeATsOYLrS0oC6GPdPN-h58QzQbXcBl93jHszj-qTJk8eTzuwsz0OZtqpm3UtlGDzrzBaQ9GVPYgt6_zXaf5q2U1PW_ayYJlXMAiw4liKGmGCLrLzda7CaCRQs3hPnlT3AeRRl2KfADgnwc2pFS-NTbdWxym21IId90-3ShakyS", "width": 4000}], "place_id": "ChIJiwqK8Qclv0cR59aDTraHy9E", "plus_code": {"compound_code": "WWRV+99 Cologne, Germany", "global_code": "9F28WWRV+99"}, "price_level": 2, "rating": 4.6, "reference": "ChIJiwqK8Qclv0cR59aDTraHy9E", "scope": "GOOGLE", "types": ["night_club", "bar", "restaurant", "food", "point_of_interest", "establishment"], "user_ratings_total": 3969, "vicinity": "Friesenstra\u00dfe 30, K\u00f6ln"}, {"business_status": "OPERATIONAL", "geometry": {"location": {"lat": 50.947714, "lng": 6.9519449}, "viewport": {"northeast": {"lat": 50.94910907989271, "lng": 6.953234329892721}, "southwest": {"lat": 50.94640942010727, "lng": 6.950534670107277}}}, "icon": "https://maps.gstatic.com/mapfiles/place_api/icons/v1/png_71/bar-71.png", "icon_background_color": "#FF9E67", "icon_mask_base_uri": "https://maps.gstatic.com/mapfiles/place_api/icons/v2/bar_pinlet", "name": "Sadie's Irish Pub", "opening_hours": {"open_now": true}, "photos": [{"height": 3456, "html_attributions": ["<a href=\"https://maps.google.com/maps/contrib/109993841342370871517\">A Google User</a>"], "photo_reference": "AUGGfZkEZPkqq9yhGOYzJS1Mdi9-aCxQ6VVAiKhOlHvkplKugJv0FN9xizA-a2F2SCzcqQz5rbPsmGVw9kWbfnVB3wuU7vmLLPaRSfCW_CkLRuGZIyIfOsWynJhh2gGSNw1oKPtvplYvKu1NuppRu3PbnTCZ96ssu085egOiA5gQ-wJRGfH5", "width": 4608}], "place_id": "ChIJS6I_Q6Elv0cRlOLkhe6EUEQ", "plus_code": {"compound_code": "WXX2+3Q Cologne, Germany", "global_code": "9F28WXX2+3Q"}, "price_level": 2, "rating": 4.7, "reference": "ChIJS6I_Q6Elv0cRlOLkhe6EUEQ", "scope": "GOOGLE", "types": ["bar", "restaurant", "food", "point_of_interest", "establishment"], "user_ratings_total": 338, "vicinity": "Gereonswall 45, K\u00f6ln"}, {"business_status": "OPERATIONAL", "geometry": {"location": {"lat": 50.9394109, "lng": 6.975693499999999}, "viewport": {"northeast": {"lat": 50.94076342989271, "lng": 6.977052779892721}, "southwest": {"lat": 50.93806377010727, "lng": 6.974353120107277}}}, "icon": "https://maps.gstatic.com/mapfiles/place_api/icons/v1/png_71/bar-71.png", "icon_background_color": "#FF9E67", "icon_mask_base_uri": "https://maps.gstatic.com/mapfiles/place_api/icons/v2/bar_pinlet", "name": "Constantin Pub", "opening_hours": {"open_now": true}, "photos": [{"height": 3968, "html_attributions": ["<a href=\"https://maps.google.com/maps/contrib/116494615556368610093\">Thomas Crumbach</a>"], "photo_reference": "AUGGfZkeIP65udp5Jx3Hsg2vOHXqj9dQyxXLflgqfNOlw-REes63381O93iV1xrS_JFt1E3Ei5-a7WTY_I9-lUPyTqLoIYA-Vhv9_7SFxoPINAAoR3ypFCLHt459OZiIqaNN1sOGwscc3JyBi-4s60qpfjPjx5D0ltTTr87LTmts-9-8fzBp", "width": 2976}], "place_id": "ChIJ6-xqlEUlv0cRR2aMev_ZbRM", "plus_code": {"compound_code": "WXQG+P7 Cologne, Germany", "global_code": "9F28WXQG+P7"}, "rating": 4.6, "reference": "ChIJ6-xqlEUlv0cRR2aMev_ZbRM", "scope": "GOOGLE", "types": ["bar", "point_of_interest", "establishment"], "user_ratings_total": 44, "vicinity": "Constantinstra\u00dfe 78, K\u00f6ln"}, {"business_status": "OPERATIONAL", "geometry": {"location": {"lat": 50.9367257, "lng": 6.9591554}, "viewport": {"northeast": {"lat": 50.93803667989273, "lng": 6.960517329892721}, "southwest": {"lat": 50.93533702010728, "lng": 6.957817670107277}}}, "icon": "https://maps.gstatic.com/mapfiles/place_api/icons/v1/png_71/bar-71.png", "icon_background_color": "#FF9E67", "icon_mask_base_uri": "https://maps.gstatic.com/mapfiles/place_api/icons/v2/bar_pinlet", "name": "K\u00f6lner\u2019s", "opening_hours": {"open_now": true}, "photos": [{"height": 1960, "html_attributions": ["<a href=\"https://maps.google.com/maps/contrib/114464752933730764393\">J\u00fcrgen Kummer</a>"], "photo_reference": "AUGGfZmEAz4Ont-ptX2ppNwum2RuAEiT8yxpSMLau82XHVo1xVKKq6XwRy10so9s2AaeLXlTkVW_c_gObMA37xmzmrkPB8NfX9IQOKyNv4RCrZilMqW-3XqPzj1Th6Z_mQ_leSeoKGF8-vJOaaq-FxHjUwXrgm3gOwUlitll8Pav8fEqvUgg", "width": 4032}], "place_id": "ChIJoSisqLElv0cRdYEHafCSe3I", "plus_code": {"compound_code": "WXP5+MM Cologne, Germany", "global_code": "9F28WXP5+MM"}, "price_level": 1, "rating": 4.5, "reference": "ChIJoSisqLElv0cRdYEHafCSe3I", "scope": "GOOGLE", "types": ["bar", "point_of_interest", "establishment"], "user_ratings_total": 528, "vicinity": "Bolzengasse 3, K\u00f6ln"}, {"business_status": "OPERATIONAL", "geometry": {"location": {"lat": 50.9287654, "lng": 6.9389522}, "viewport": {"northeast": {"lat": 50.93013182989272, "lng": 6.940297479892722}, "southwest": {"lat": 50.92743217010728, "lng": 6.937597820107278}}}, "icon": "https://maps.gstatic.com/mapfiles/place_api/icons/v1/png_71/bar-71.png", "icon_background_color": "#FF9E67", "icon_mask_base_uri": "https://maps.gstatic.com/mapfiles/place_api/icons/v2/bar_pinlet", "name": "The Black Sheep", "opening_hours": {"open_now": true}, "photos": [{"height": 3264, "html_attributions": ["<a href=\"https://maps.google.com/maps/contrib/101198391665017773870\">A Google User</a>"], "photo_reference": "AUGGfZkYybfqkI4ydAnDoB-i_Agzx1bvgCOLzQRC19zjh6K32UQVn7Oywq5dM2Ov5wiPeXkrcuUzAn27x5x1Yu1e3xaIgIo0LokVKvJMxIOh6rIzj9zENwa2NhRohaf4feLy4eq18hum4EWlkkO8vJtUiUpcVjaeGrSBJcNarD7tILoHUc5q", "width": 4928}], "place_id": "ChIJ7x3wBf8kv0cRrON7WSDL1wA", "plus_code": {"compound_code": "WWHQ+GH Cologne, Germany", "global_code": "9F28WWHQ+GH"}, "price_level": 1, "rating": 4.4, "reference": "ChIJ7x3wBf8kv0cRrON7WSDL1wA", "scope": "GOOGLE", "types": ["bar", "point_of_interest", "establishment"], "user_ratings_total": 321, "vicinity": "Kyffh\u00e4userstra\u00dfe 25, K\u00f6ln"}, {"business_status": "OPERATIONAL", "geometry": {"location": {"lat": 50.9186233, "lng": 6.960540099999999}, "viewport": {"northeast": {"lat": 50.91995067989272, "lng": 6.961825779892721}, "southwest": {"lat": 50.91725102010728, "lng": 6.959126120107277}}}, "icon": "https://maps.gstatic.com/mapfiles/place_api/icons/v1/png_71/bar-71.png", "icon_background_color": "#FF9E67", "icon_mask_base_uri": "https://maps.gstatic.com/mapfiles/place_api/icons/v2/bar_pinlet", "name": "James Joyce Irish Pub", "opening_hours": {"open_now": true}, "photos": [{"height": 2736, "html_attributions": ["<a href=\"https://maps.google.com/maps/contrib/101099438819313438350\">Denis Bemiel</a>"], "photo_reference": "AUGGfZkWOEGRQKyjagqcEcl7irRx7FoM882BCP-1lZsXT0Cfa_tC4tvEbOP2xPDr0lhUJKQkH979GChD60tWLWIZlq8ICX9tyNcwnG4AAMOA22EaasdTT4Pj98L7nGi4vRGUINSdh9MjsxGjq9oSiv2QR7A8Ibbhc8l7nvRfsX-m7X5PKtxR", "width": 3648}], "place_id": "ChIJYyCNP0Ykv0cR4nQLs6lYJoU", "plus_code": {"compound_code": "WX96+C6 Cologne, Germany", "global_code": "9F28WX96+C6"}, "price_level": 2, "rating": 4.5, "reference": "ChIJYyCNP0Ykv0cR4nQLs6lYJoU", "scope": "GOOGLE", "types": ["bar", "restaurant", "food", "point_of_interest", "establishment"], "user_ratings_total": 388, "vicinity": "Bonner Str. 39, K\u00f6ln"}, {"business_status": "OPERATIONAL", "geometry": {"location": {"lat": 50.9321283, "lng": 6.938312}, "viewport": {"northeast": {"lat": 50.93354537989272, "lng": 6.939675679892722}, "southwest": {"lat": 50.93084572010728, "lng": 6.936976020107278}}}, "icon": "https://maps.gstatic.com/mapfiles/place_api/icons/v1/png_71/bar-71.png", "icon_background_color": "#FF9E67", "icon_mask_base_uri": "https://maps.gstatic.com/mapfiles/place_api/icons/v2/bar_pinlet", "name": "BUSKER'S Irish Pub", "opening_hours": {"open_now": true}, "photos": [{"height": 3024, "html_attributions": ["<a href=\"https://maps.google.com/maps/contrib/112762089000205978182\">J\u00fcrgen Klee</a>"], "photo_reference": "AUGGfZlXiZFo_lWtH2KvwjrZrtKyi36Rwz2Lqsx0cIoFXoQerZ4Yv0JywBQgQFOvnEc4dtYtroeY6qu_NMs9U3jshHJDNnlfoZLCUTTWk8Wy-f24_3_hovDeIHu2xsb4kD0POJrVE_57j4BB2srkY3Yl86xgxfI16yxoSUS87Y1elTjka88f", "width": 4032}], "place_id": "ChIJc9-C0AElv0cRrMDxFS70krM", "plus_code": {"compound_code": "WWJQ+V8 Cologne, Germany", "global_code": "9F28WWJQ+V8"}, "price_level": 2, "rating": 4.5, "reference": "ChIJc9-C0AElv0cRrMDxFS70krM", "scope": "GOOGLE", "types": ["bar", "point_of_interest", "establishment"], "user_ratings_total": 213, "vicinity": "Beethovenstra\u00dfe 17, K\u00f6ln"}, {"business_status": "OPERATIONAL", "geometry": {"location": {"lat": 50.9314443, "lng": 6.9566759}, "viewport": {"northeast": {"lat": 50.93279587989272, "lng": 6.957977979892722}, "southwest": {"lat": 50.93009622010727, "lng": 6.955278320107278}}}, "icon": "https://maps.gstatic.com/mapfiles/place_api/icons/v1/png_71/bar-71.png", "icon_background_color": "#FF9E67", "icon_mask_base_uri": "https://maps.gstatic.com/mapfiles/place_api/icons/v2/bar_pinlet", "name": "Papa Rudis - K\u00f6ln", "opening_hours": {"open_now": true}, "photos": [{"height": 1960, "html_attributions": ["<a href=\"https://maps.google.com/maps/contrib/107592959854999136392\">HEONSEOB LEE</a>"], "photo_reference": "AUGGfZmg6uObeHRMawF5DOxkpyCMhe21rg1hRNUCPj58mBrsQOtDLIov4-iZ2nKpqfZWqOfXsy8ZCKKQZprZ7IvdvG1m0q9H3LUbPWk0QodtZwAmlG3c_moqnwdjCpxM2-Z9u1MpwcTk_m2dq7A6qR9TXZzy4G8eW38CNrDoV9VTeK5i0Dl8", "width": 4032}], "place_id": "ChIJ54QLubIlv0cR6hbM5h7ximA", "plus_code": {"compound_code": "WXJ4+HM Cologne, Germany", "global_code": "9F28WXJ4+HM"}, "price_level": 1, "rating": 4.5, "reference": "ChIJ54QLubIlv0cR6hbM5h7ximA", "scope": "GOOGLE", "types": ["bar", "point_of_interest", "establishment"], "user_ratings_total": 176, "vicinity": "Waidmarkt 2, K\u00f6ln"}, {"business_status": "OPERATIONAL", "geometry": {"location": {"lat": 50.9378982, "lng": 6.9604746}, "viewport": {"northeast": {"lat": 50.93924142989272, "lng": 6.961716629892721}, "southwest": {"lat": 50.93654177010728, "lng": 6.959016970107277}}}, "icon": "https://maps.gstatic.com/mapfiles/place_api/icons/v1/png_71/bar-71.png", "icon_background_color": "#FF9E67", "icon_mask_base_uri": "https://maps.gstatic.com/mapfiles/place_api/icons/v2/bar_pinlet", "name": "Die Kulisse K\u00f6ln Altstadt", "opening_hours": {"open_now": true}, "photos": [{"height": 2935, "html_attributions": ["<a href=\"https://maps.google.com/maps/contrib/100731019903832633975\">Die Kulisse GmbH</a>"], "photo_reference": "AUGGfZnXyzHayavBDAgzqAE243ZPLm3i7LFHXXKF9fGWPJXClXpCe6Plc68M_j4352P8RigCSzxm-XjWpX-g_J67VThbHTGYVeRW1-Mzc1acAmRDi8iWr2c6vosHtNoITAtFyuAVe6U5RT56f7S5vXDfHrZ_YYIKRSe4mEV8pZ5HIfKvsjsK", "width": 5217}], "place_id": "ChIJ6YKzALElv0cRhKvzuckzLB0", "plus_code": {"compound_code": "WXQ6+55 Cologne, Germany", "global_code": "9F28WXQ6+55"}, "price_level": 2, "rating": 4.2, "reference": "ChIJ6YKzALElv0cRhKvzuckzLB0", "scope": "GOOGLE", "types": ["bar", "point_of_interest", "establishment"], "user_ratings_total": 1689, "vicinity": "Unter K\u00e4ster 14-16, K\u00f6ln"}, {"business_status": "OPERATIONAL", "geometry": {"location": {"lat": 50.9305981, "lng": 6.9391053}, "viewport": {"northeast": {"lat": 50.93190502989272, "lng": 6.940522029892722}, "southwest": {"lat": 50.92920537010728, "lng": 6.937822370107278}}}, "icon": "https://maps.gstatic.com/mapfiles/place_api/icons/v1/png_71/bar-71.png", "icon_background_color": "#FF9E67", "icon_mask_base_uri": "https://maps.gstatic.com/mapfiles/place_api/icons/v2/bar_pinlet", "name": "Gilbert's Pinte", "opening_hours": {"open_now": true}, "photos": [{"height": 2268, "html_attributions": ["<a href=\"https://maps.google.com/maps/contrib/102667242026910281073\">Thorsten Mohr</a>"], "photo_reference": "AUGGfZlfXXPlJmnBqZ7j2Q8EKG1v3QJosPstS0t5EVcaEPNy4G3F-kz6jroplTGTzCA4VJ50tseSCUilXmgTHbMmwZoODa7LqTaGaPUgyFHeRn3iXEO93Dm-MxS5SPORXCHOjY5v3l_cxe38LLG-DwvnBWMs6vAuqRO7EB8m4wMNT0W-SwC7", "width": 4032}], "place_id": "ChIJ2_-ey_8kv0cRsTPne0UfIUg", "plus_code": {"compound_code": "WWJQ+6J Cologne, Germany", "global_code": "9F28WWJQ+6J"}, "price_level": 2, "rating": 4.4, "reference": "ChIJ2_-ey_8kv0cRsTPne0UfIUg", "scope": "GOOGLE", "types": ["bar", "point_of_interest", "establishment"], "user_ratings_total": 562, "vicinity": "Engelbertstra\u00dfe 1, K\u00f6ln"}, {"business_status": "OPERATIONAL", "geometry": {"location": {"lat": 50.9347137, "lng": 6.9365492}, "viewport": {"northeast": {"lat": 50.93608112989272, "lng": 6.937921179892722}, "southwest": {"lat": 50.93338147010728, "lng": 6.935221520107278}}}, "icon": "https://maps.gstatic.com/mapfiles/place_api/icons/v1/png_71/bar-71.png", "icon_background_color": "#FF9E67", "icon_mask_base_uri": "https://maps.gstatic.com/mapfiles/place_api/icons/v2/bar_pinlet", "name": "Kneipe \" Die Oper \"", "opening_hours": {"open_now": true}, "photos": [{"height": 3024, "html_attributions": ["<a href=\"https://maps.google.com/maps/contrib/104147931987896417919\">Jonny Zasella</a>"], "photo_reference": "AUGGfZmlV98U_MSP6e8heAoxqFcwy_5t1IqMhFTlKivJ9lMf3T4xmprqaw5dDTIZT2xFQCXuYLqQDIoO4dOFJEln18-wmUElYV5n1KY1WX8tFmbJy1InH2mtzHshb4u6SNhpYv0sGbVGuaWUq2_NWZnpmnmQDxVV_YoPGUIEVIsdsRCZl_KZ", "width": 4032}], "place_id": "ChIJnc9l1QMlv0cRs6cGvE-lMYg", "plus_code": {"compound_code": "WWMP+VM Cologne, Germany", "global_code": "9F28WWMP+VM"}, "price_level": 1, "rating": 4.7, "reference": "ChIJnc9l1QMlv0cRs6cGvE-lMYg", "scope": "GOOGLE", "types": ["bar", "restaurant", "food", "point_of_interest", "establishment"], "user_ratings_total": 97, "vicinity": "H\u00e4ndelstra\u00dfe 14, K\u00f6ln"}, {"business_status": "OPERATIONAL", "geometry": {"location": {"lat": 50.9383205, "lng": 6.935124}, "viewport": {"northeast": {"lat": 50.93970282989272, "lng": 6.936395079892723}, "southwest": {"lat": 50.93700317010727, "lng": 6.933695420107279}}}, "icon": "https://maps.gstatic.com/mapfiles/place_api/icons/v1/png_71/bar-71.png", "icon_background_color": "#FF9E67", "icon_mask_base_uri": "https://maps.gstatic.com/mapfiles/place_api/icons/v2/bar_pinlet", "name": "Br\u00fcsseler", "opening_hours": {"open_now": true}, "photos": [{"height": 3024, "html_attributions": ["<a href=\"https://maps.google.com/maps/contrib/105112421982241250568\">Jodi Suguitan</a>"], "photo_reference": "AUGGfZk_nnuAsewNjiEc6lj_RgtOuJQYVKWQQtszzPEbE-5CYcyzZVF0mrnmiGtk8EydCZwFkFIHV20SFX6cCL-PystYpgZJzpapYsa3sagJ2tIOQmnRsuCVmU2XSkUFvQVzBmxGkQp60AZ5YpNBED2-3G1jvPO37UGfvXLjvw2zAngL9jZ_", "width": 4032}], "place_id": "ChIJiwKoaQQlv0cRasSb2zczpq4", "plus_code": {"compound_code": "WWQP+82 Cologne, Germany", "global_code": "9F28WWQP+82"}, "price_level": 2, "rating": 4.4, "reference": "ChIJiwKoaQQlv0cRasSb2zczpq4", "scope": "GOOGLE", "types": ["bar", "cafe", "food", "point_of_interest", "establishment"], "user_ratings_total": 518, "vicinity": "Br\u00fcsseler Pl. 1, K\u00f6ln"}, {"business_status": "OPERATIONAL", "geometry": {"location": {"lat": 50.9388167, "lng": 6.9603972}, "viewport": {"northeast": {"lat": 50.94034562989273, "lng": 6.961505579892721}, "southwest": {"lat": 50.93764597010728, "lng": 6.958805920107277}}}, "icon": "https://maps.gstatic.com/mapfiles/place_api/icons/v1/png_71/bar-71.png", "icon_background_color": "#FF9E67", "icon_mask_base_uri": "https://maps.gstatic.com/mapfiles/place_api/icons/v2/bar_pinlet", "name": "Papa Joe's Biersalon", "opening_hours": {"open_now": true}, "photos": [{"height": 4618, "html_attributions": ["<a href=\"https://maps.google.com/maps/contrib/107254992495863684867\">Mart\u00edn Balam Sp\u00edndola Arellano</a>"], "photo_reference": "AUGGfZmcDWjra0zoxnXN8JjYf7BmJeQyg9f1Ltu6_wYtsB0i7Svbc3XSw2XMxjslSj5VEP5yM6-_E1tmxEZVUQDBshrEOKHq6K7FRE9PDJU8ag4TM0xzzx_Y5SCwrYqVVyw_hYDgsfG9y1a3BJtnut_gBf7yNMQvGR5kTEG61mjwBEh6UjNR", "width": 3464}], "place_id": "ChIJ2dwbV7Alv0cRNszmQJizut4", "plus_code": {"compound_code": "WXQ6+G5 Cologne, Germany", "global_code": "9F28WXQ6+G5"}, "price_level": 2, "rating": 4.1, "reference": "ChIJ2dwbV7Alv0cRNszmQJizut4", "scope": "GOOGLE", "types": ["bar", "point_of_interest", "establishment"], "user_ratings_total": 3169, "vicinity": "Alter Markt 50-52, K\u00f6ln"}, {"business_status": "OPERATIONAL", "geometry": {"location": {"lat": 50.939428, "lng": 6.9593234}, "viewport": {"northeast": {"lat": 50.94065817989272, "lng": 6.960750129892721}, "southwest": {"lat": 50.93795852010727, "lng": 6.958050470107278}}}, "icon": "https://maps.gstatic.com/mapfiles/place_api/icons/v1/png_71/bar-71.png", "icon_background_color": "#FF9E67", "icon_mask_base_uri": "https://maps.gstatic.com/mapfiles/place_api/icons/v2/bar_pinlet", "name": "Brauhaus Sion", "opening_hours": {"open_now": true}, "photos": [{"height": 3591, "html_attributions": ["<a href=\"https://maps.google.com/maps/contrib/113947662336612787983\">A Google User</a>"], "photo_reference": "AUGGfZm-8g0adPFokiLzXBvadiuwFyPTD6OyGub2OI3dYFtAR6garva1LSLwYp586E2K-5QiGAT_HhW-RJJzpqU5qk0VkXNu5Hla6CMZTLjIBROAOBLfEhPMCCh30jWgTfrQPAU5NOxbUHSWXgL1ruG3WB50UaSXGGVBJ8jLyBvR_qqV-PJF", "width": 5387}], "place_id": "ChIJca1DQbAlv0cRFZgc1jII3Bk", "plus_code": {"compound_code": "WXQ5+QP Cologne, Germany", "global_code": "9F28WXQ5+QP"}, "price_level": 2, "rating": 4, "reference": "ChIJca1DQbAlv0cRFZgc1jII3Bk", "scope": "GOOGLE", "types": ["bar", "restaurant", "food", "point_of_interest", "establishment"], "user_ratings_total": 6581, "vicinity": "Unter Taschenmacher 5-7, K\u00f6ln"}, {"business_status": "OPERATIONAL", "geometry": {"location": {"lat": 50.9212672, "lng": 6.961654299999999}, "viewport": {"northeast": {"lat": 50.92262147989273, "lng": 6.963052229892721}, "southwest": {"lat": 50.91992182010728, "lng": 6.960352570107277}}}, "icon": "https://maps.gstatic.com/mapfiles/place_api/icons/v1/png_71/bar-71.png", "icon_background_color": "#FF9E67", "icon_mask_base_uri": "https://maps.gstatic.com/mapfiles/place_api/icons/v2/bar_pinlet", "name": "Coellner Bar", "opening_hours": {"open_now": true}, "photos": [{"height": 959, "html_attributions": ["<a href=\"https://maps.google.com/maps/contrib/100284745277296149642\">Michael Tenner</a>"], "photo_reference": "AUGGfZnjajMa5Z8v9W328MXLaA_Lqi3ZzuD_xBImmaoF61bklWivADllcj8bPWoaDdxJganbJQFVekEPssScgl68vIy9Iv2gaL0xPK7DikcukO5P6uVQlSmGkURcBwa3MxhVFJbTbGzoxOtnisHR23wWUqeQkBQk7jwqba7fx7YFckRU3kZA", "width": 1080}], "place_id": "ChIJCV_H7Egkv0cR0ryGHb5h_Ug", "plus_code": {"compound_code": "WXC6+FM Cologne, Germany", "global_code": "9F28WXC6+FM"}, "price_level": 2, "rating": 4.2, "reference": "ChIJCV_H7Egkv0cR0ryGHb5h_Ug", "scope": "GOOGLE", "types": ["bar", "point_of_interest", "establishment"], "user_ratings_total": 539, "vicinity": "Ubierring 22, K\u00f6ln"}, {"business_status": "OPERATIONAL", "geometry": {"location": {"lat": 50.9284887, "lng": 6.9566143}, "viewport": {"northeast": {"lat": 50.92985182989272, "lng": 6.958152979892721}, "southwest": {"lat": 50.92715217010728, "lng": 6.955453320107277}}}, "icon": "https://maps.gstatic.com/mapfiles/place_api/icons/v1/png_71/bar-71.png", "icon_background_color": "#FF9E67", "icon_mask_base_uri": "https://maps.gstatic.com/mapfiles/place_api/icons/v2/bar_pinlet", "name": "Am Brunnen", "opening_hours": {"open_now": true}, "photos": [{"height": 1776, "html_attributions": ["<a href=\"https://maps.google.com/maps/contrib/109695280967831655823\">Torsten Gripp</a>"], "photo_reference": "AUGGfZnDBS126VOBlLZHnXyCKuY1jYU3u14VJ-AuXufRofg6_cFmA2_2pODCQOgNHjQJyTKAdt-WkBkW3OUzhsrlOswKeipUw6Sf-8CRRnddlUl6Cd8lUETkgwXN1a5iOSscYbLZlvgVXTa1eRdhWSaOlEGoEP8nekITJ1oID1tjSXlWOLVb", "width": 1184}], "place_id": "ChIJt2tJDE0kv0cRoP-KNtQqMEg", "plus_code": {"compound_code": "WXH4+9J Cologne, Germany", "global_code": "9F28WXH4+9J"}, "price_level": 1, "rating": 4.3, "reference": "ChIJt2tJDE0kv0cRoP-KNtQqMEg", "scope": "GOOGLE", "types": ["bar", "point_of_interest", "establishment"], "user_ratings_total": 165, "vicinity": "Karl-Berbuer-Platz 3, K\u00f6ln"}, {"business_status": "OPERATIONAL", "geometry": {"location": {"lat": 50.9176622, "lng": 6.960396599999999}, "viewport": {"northeast": {"lat": 50.91900927989272, "lng": 6.961857429892722}, "southwest": {"lat": 50.91630962010728, "lng": 6.959157770107279}}}, "icon": "https://maps.gstatic.com/mapfiles/place_api/icons/v1/png_71/bar-71.png", "icon_background_color": "#FF9E67", "icon_mask_base_uri": "https://maps.gstatic.com/mapfiles/place_api/icons/v2/bar_pinlet", "name": "Bonner St\u00fcbchen", "opening_hours": {"open_now": true}, "photos": [{"height": 2160, "html_attributions": ["<a href=\"https://maps.google.com/maps/contrib/113664909553172206650\">Martin Fuchs</a>"], "photo_reference": "AUGGfZlyTgyUtDNDL-nZ7WL0ukI3H_BrZaGi6M_1nWLNLdiP9Mb0ezFrUKXh1PWszAnp9_-y_OxirHH5habZCjAZM0eX-i3p7md6kIBMYkEkQB8_8c6mD19s7ZdDbAUdToYrGNc0H4U1npPTh6lGFefQpSRQ9utjmgNPvwf9NVirxTxNiSdB", "width": 3840}], "place_id": "ChIJ6bYBXEYkv0cRbHVVbCWmoT8", "plus_code": {"compound_code": "WX96+35 Cologne, Germany", "global_code": "9F28WX96+35"}, "price_level": 1, "rating": 4.4, "reference": "ChIJ6bYBXEYkv0cRbHVVbCWmoT8", "scope": "GOOGLE", "types": ["bar", "point_of_interest", "establishment"], "user_ratings_total": 84, "vicinity": "Bonner Str. 64, K\u00f6ln"}]