[{"business_status": "OPERATIONAL", "geometry": {"location": {"lat": 52.4869547, "lng": -1.9158385}, "viewport": {"northeast": {"lat": 52.48834562989272, "lng": -1.914461970107278}, "southwest": {"lat": 52.48564597010727, "lng": -1.917161629892722}}}, "icon": "https://maps.gstatic.com/mapfiles/place_api/icons/v1/png_71/bar-71.png", "icon_background_color": "#FF9E67", "icon_mask_base_uri": "https://maps.gstatic.com/mapfiles/place_api/icons/v2/bar_pinlet", "name": "The Red Lion", "opening_hours": {"open_now": true}, "photos": [{"height": 3024, "html_attributions": ["<a href=\"https://maps.google.com/maps/contrib/115217391491807149307\">Lee</a>"], "photo_reference": "AUc7tXU2r9MAb1X8nPHAOVRMYyHBrlDC7XltjVSnb8DqJtA6U_D3tH2oRTNuwMvt3wixaPveWqB6cMWbQI67sJgBBhEvzcWP6pETdhVNuqvkDff7HiXmH95gjq80XEEYC8oonXvhLGJf8B0WejNdL7wVIfWAZX6fR2ghlzKqv1ox5AeJFjcr", "width": 4032}], "place_id": "ChIJOdnhYO68cEgRKUQQ_9YHhzE", "plus_code": {"compound_code": "F3PM+QM Birmingham, United Kingdom", "global_code": "9C4WF3PM+QM"}, "price_level": 2, "rating": 4.4, "reference": "ChIJOdnhYO68cEgRKUQQ_9YHhzE", "scope": "GOOGLE", "types": ["bar", "restaurant", "food", "point_of_interest", "establishment"], "user_ratings_total": 946, "vicinity": "95 Warstone Ln, Birmingham"}, {"business_status": "OPERATIONAL", "geometry": {"location": {"lat": 52.4904764, "lng": -1.8994047}, "viewport": {"northeast": {"lat": 52.49184082989272, "lng": -1.898088170107278}, "southwest": {"lat": 52.48914117010727, "lng": -1.900787829892723}}}, "icon": "https://maps.gstatic.com/mapfiles/place_api/icons/v1/png_71/bar-71.png", "icon_background_color": "#FF9E67", "icon_mask_base_uri": "https://maps.gstatic.com/mapfiles/place_api/icons/v2/bar_pinlet", "name": "The Barrel Bar and Grill", "opening_hours": {"open_now": true}, "photos": [{"height": 2322, "html_attributions": ["<a href=\"https://maps.google.com/maps/contrib/117204830144525906025\">The Barrel Bar and Grill</a>"], "photo_reference": "AUc7tXVgZbBzY7VHpsMNpFmW-C9vOju9v1Zx0GucTyFt5Owr-YMFHXl2Z-Xd9ZLnRQ8r5V5iISy1H98NlFBSLX187yNeqITv31zHR3lmmSM16488T64FAK4HmXz4l1-lH_nb3BUOFtoF8AehMiQi_8p1TULfCUjod5pztiecIJyFdcNVtVkx", "width": 4128}], "place_id": "ChIJ0f9Orpa8cEgRzP85ryV3GVE", "plus_code": {"compound_code": "F4R2+56 Birmingham, United Kingdom", "global_code": "9C4WF4R2+56"}, "price_level": 1, "rating": 4.4, "reference": "ChIJ0f9Orpa8cEgRzP85ryV3GVE", "scope": "GOOGLE", "types": ["bar", "restaurant", "food", "point_of_interest", "establishment"], "user_ratings_total": 242, "vicinity": "The Barrel, Summer Ln, Birmingham"}, {"business_status": "OPERATIONAL", "geometry": {"location": {"lat": 52.4879548, "lng": -1.9089371}, "viewport": {"northeast": {"lat": 52.48924072989271, "lng": -1.907451870107278}, "southwest": {"lat": 52.48654107010727, "lng": -1.910151529892722}}}, "icon": "https://maps.gstatic.com/mapfiles/place_api/icons/v1/png_71/bar-71.png", "icon_background_color": "#FF9E67", "icon_mask_base_uri": "https://maps.gstatic.com/mapfiles/place_api/icons/v2/bar_pinlet", "name": "Rock & Roll Brewery.", "opening_hours": {"open_now": true}, "photos": [{"height": 2268, "html_attributions": ["<a href=\"https://maps.google.com/maps/contrib/114624226800766815689\">Dean Ryan</a>"], "photo_reference": "AUc7tXUWStPyJqpxru1jWUfRAd2MH29XbPYLxKm36980recgy_8Rk6x1f3qeVZXBX_jXMG92AhvIVYLF_oaeUptBtS9bvfoYF4FNyXidd8C_zpsQCc-bC62wdrjwdvdkNrnQTVBWNCddL-2h4FIZZmpWTkajsGz0R7Aqsczj_8areF3KKskW", "width": 4032}], "place_id": "ChIJoxpPDu28cEgRLFJRZ00Q7Uw", "plus_code": {"compound_code": "F3QR+5C Birmingham, United Kingdom", "global_code": "9C4WF3QR+5C"}, "price_level": 1, "rating": 4.7, "reference": "ChIJoxpPDu28cEgRLFJRZ00Q7Uw", "scope": "GOOGLE", "types": ["bar", "restaurant", "food", "point_of_interest", "establishment"], "user_ratings_total": 367, "vicinity": "19 Hall St, Birmingham"}, {"business_status": "OPERATIONAL", "geometry": {"location": {"lat": 52.4815954, "lng": -1.9019761}, "viewport": {"northeast": {"lat": 52.48292017989272, "lng": -1.900595220107278}, "southwest": {"lat": 52.48022052010727, "lng": -1.903294879892723}}}, "icon": "https://maps.gstatic.com/mapfiles/place_api/icons/v1/png_71/bar-71.png", "icon_background_color": "#FF9E67", "icon_mask_base_uri": "https://maps.gstatic.com/mapfiles/place_api/icons/v2/bar_pinlet", "name": "The Florence", "opening_hours": {"open_now": true}, "photos": [{"height": 2315, "html_attributions": ["<a href=\"https://maps.google.com/maps/contrib/115743810383109871633\">Edmund&#39;s</a>"], "photo_reference": "AUc7tXU4U_r5J_iSfw9rIFxDMWCl9zhEWn_LvWxiSXC0GX9fL1NjcciASpw2VsnoRANo5QQIj-3omfnG6ME8ZUtHvqnTYK-bqUtABO9aOHau_fpprBsiNJQQ_oyO2MpzvnZoyakL5vUT5HfIL4xjXWU60KFMFTpb7sJXhis0OijTSOnt4N5A", "width": 3513}], "place_id": "ChIJtwEtUoy8cEgRXB1SxpOlEQY", "plus_code": {"compound_code": "F3JX+J6 Birmingham, United Kingdom", "global_code": "9C4WF3JX+J6"}, "price_level": 2, "rating": 4, "reference": "ChIJtwEtUoy8cEgRXB1SxpOlEQY", "scope": "GOOGLE", "types": ["bar", "restaurant", "food", "point_of_interest", "establishment"], "user_ratings_total": 521, "vicinity": "106-110 Edmund St, Birmingham"}, {"business_status": "OPERATIONAL", "geometry": {"location": {"lat": 52.4871525, "lng": -1.9122427}, "viewport": {"northeast": {"lat": 52.48845987989272, "lng": -1.910909070107278}, "southwest": {"lat": 52.48576022010727, "lng": -1.913608729892722}}}, "icon": "https://maps.gstatic.com/mapfiles/place_api/icons/v1/png_71/bar-71.png", "icon_background_color": "#FF9E67", "icon_mask_base_uri": "https://maps.gstatic.com/mapfiles/place_api/icons/v2/bar_pinlet", "name": "The Rose Villa Tavern", "opening_hours": {"open_now": true}, "photos": [{"height": 3024, "html_attributions": ["<a href=\"https://maps.google.com/maps/contrib/102763373009975480215\">Ardi Melikian</a>"], "photo_reference": "AUc7tXVcInF9koIN_D8sBHEwzpxIKe7Equf7ARW5uVm1BM7BeYotyZoao0F67IzHLCv4e_JNUoqVHgJ78MypptuwnA1XImTZQUUTGjHkAeuSCqxYF4e1qjnOyo1UQfKVkw-bNi8ZNOm1GJjL85vTfA_lAcH17m00u1rg9S2LzWt98Y-AnZNC", "width": 4032}], "place_id": "ChIJW7hYK-y8cEgRtUamPXuE7uQ", "plus_code": {"compound_code": "F3PQ+V4 Birmingham, United Kingdom", "global_code": "9C4WF3PQ+V4"}, "price_level": 2, "rating": 4.3, "reference": "ChIJW7hYK-y8cEgRtUamPXuE7uQ", "scope": "GOOGLE", "types": ["bar", "restaurant", "food", "point_of_interest", "establishment"], "user_ratings_total": 1379, "vicinity": "172 Warstone Ln, Birmingham"}, {"business_status": "OPERATIONAL", "geometry": {"location": {"lat": 52.4771492, "lng": -1.9015423}, "viewport": {"northeast": {"lat": 52.47852162989273, "lng": -1.900101820107277}, "southwest": {"lat": 52.47582197010728, "lng": -1.902801479892722}}}, "icon": "https://maps.gstatic.com/mapfiles/place_api/icons/v1/png_71/bar-71.png", "icon_background_color": "#FF9E67", "icon_mask_base_uri": "https://maps.gstatic.com/mapfiles/place_api/icons/v2/bar_pinlet", "name": "BrewDog Birmingham", "opening_hours": {"open_now": true}, "photos": [{"height": 3468, "html_attributions": ["<a href=\"https://maps.google.com/maps/contrib/115481819844329207674\">Tim Tomlinson</a>"], "photo_reference": "AUc7tXUzG5fAGOGRcwnzN3Oawd61R6jJV1J9gQTKCF9nX947EVXORtWlHAeDicQGOoCdbFLHkuI25X-kAx9QvDwmS0AgRYhQxV8IVuMTxraKMDEtS8E-TDQha2C0TxCyQGo0P-rdHBjiVpGYGElJNT0ls51jxk_HaXE-4vWpKZMKpfADjwrc", "width": 4624}], "place_id": "ChIJVbNIsIu8cEgR0a-uTbuRP-E", "plus_code": {"compound_code": "F3GX+V9 Birmingham, United Kingdom", "global_code": "9C4WF3GX+V9"}, "price_level": 2, "rating": 4.4, "reference": "ChIJVbNIsIu8cEgR0a-uTbuRP-E", "scope": "GOOGLE", "types": ["bar", "restaurant", "food", "point_of_interest", "establishment"], "user_ratings_total": 2532, "vicinity": "81 John Bright St, Birmingham"}, {"business_status": "OPERATIONAL", "geometry": {"location": {"lat": 52.4798038, "lng": -1.9000737}, "viewport": {"northeast": {"lat": 52.48114492989272, "lng": -1.898834620107278}, "southwest": {"lat": 52.47844527010728, "lng": -1.901534279892723}}}, "icon": "https://maps.gstatic.com/mapfiles/place_api/icons/v1/png_71/bar-71.png", "icon_background_color": "#FF9E67", "icon_mask_base_uri": "https://maps.gstatic.com/mapfiles/place_api/icons/v2/bar_pinlet", "name": "The Sun On The Hill", "opening_hours": {"open_now": true}, "photos": [{"height": 1680, "html_attributions": ["<a href=\"https://maps.google.com/maps/contrib/104988251742692036064\">104988251742692036064</a>"], "photo_reference": "AUc7tXUfsbVPWFFFsGRgndd3oljfmGcj6ltBNQ3tCzf503vzUP7FutfoSrCUupOc9cvL3gMT-zX78L9E_5QHBaiW506COVw-c-5VnhAsp3PBbiMNRWKzIQKm-A8n32-q0gY8k9DP9WBkz1Z3EA4xTybTgMaw0BQi3SXnpo5gtadX065_yMON", "width": 3648}], "place_id": "ChIJw7LmBYy8cEgRNqJeCn2Ulpw", "plus_code": {"compound_code": "F3HX+WX Birmingham, United Kingdom", "global_code": "9C4WF3HX+WX"}, "price_level": 2, "rating": 4.2, "reference": "ChIJw7LmBYy8cEgRNqJeCn2Ulpw", "scope": "GOOGLE", "types": ["bar", "restaurant", "food", "point_of_interest", "establishment"], "user_ratings_total": 1485, "vicinity": "23 Bennetts Hill, Birmingham"}, {"business_status": "OPERATIONAL", "geometry": {"location": {"lat": 52.479991, "lng": -1.9017227}, "viewport": {"northeast": {"lat": 52.48129607989272, "lng": -1.900383320107277}, "southwest": {"lat": 52.47859642010727, "lng": -1.903082979892722}}}, "icon": "https://maps.gstatic.com/mapfiles/place_api/icons/v1/png_71/bar-71.png", "icon_background_color": "#FF9E67", "icon_mask_base_uri": "https://maps.gstatic.com/mapfiles/place_api/icons/v2/bar_pinlet", "name": "Purecraft Bar & Kitchen", "opening_hours": {"open_now": true}, "photos": [{"height": 2268, "html_attributions": ["<a href=\"https://maps.google.com/maps/contrib/116397172921561777926\">Steve bell</a>"], "photo_reference": "AUc7tXVdybm5tjxxV4YOJ8cAYquKH3fwByaU19Pr-vdoGW_mjmKYSq0HoGbgaz9SLf8cELCH4nGqbFgPByD9y4d9dNBTEKowPp6fX9IOSQk3RYdMQfRdG3a8SVMP7Zs7jsXGPyRX1X9p5r8lsnfGNvRmI855Qte_KsYt-cAgIfFwZNlJybX4", "width": 4032}], "place_id": "ChIJ-_0xbIy8cEgRU7S19YAntXY", "plus_code": {"compound_code": "F3HX+X8 Birmingham, United Kingdom", "global_code": "9C4WF3HX+X8"}, "price_level": 2, "rating": 4.4, "reference": "ChIJ-_0xbIy8cEgRU7S19YAntXY", "scope": "GOOGLE", "types": ["bar", "liquor_store", "restaurant", "food", "store", "point_of_interest", "establishment"], "user_ratings_total": 2084, "vicinity": "30 Waterloo St, Birmingham"}, {"business_status": "OPERATIONAL", "geometry": {"location": {"lat": 52.4794073, "lng": -1.9134051}, "viewport": {"northeast": {"lat": 52.48093622989272, "lng": -1.911868770107277}, "southwest": {"lat": 52.47823657010727, "lng": -1.914568429892722}}}, "icon": "https://maps.gstatic.com/mapfiles/place_api/icons/v1/png_71/bar-71.png", "icon_background_color": "#FF9E67", "icon_mask_base_uri": "https://maps.gstatic.com/mapfiles/place_api/icons/v2/bar_pinlet", "name": "Malt House", "opening_hours": {"open_now": true}, "photos": [{"height": 1840, "html_attributions": ["<a href=\"https://maps.google.com/maps/contrib/107052059235455805763\">Damien Chia</a>"], "photo_reference": "AUc7tXVY09QMg1Ctb8EzEjPDW32JAAqr0dHm8gS5pkzBtbUYlEpHxO0kTTOqtSkSjX9YhoZU6BUZH3reHPELZmC9Q6yVb5PAgqf54ZEJsytdf9FBXN_XhJ2AwprgNa_aBa00be3lkfdiibVcIKNrN88zQYHdVM5XUKSZPhQy6bTbO7Xxt1wP", "width": 3264}], "place_id": "ChIJW40nUfG8cEgRbCcsoYdVZUs", "plus_code": {"compound_code": "F3HP+QJ Birmingham, United Kingdom", "global_code": "9C4WF3HP+QJ"}, "price_level": 2, "rating": 4.2, "reference": "ChIJW40nUfG8cEgRbCcsoYdVZUs", "scope": "GOOGLE", "types": ["bar", "restaurant", "food", "point_of_interest", "establishment"], "user_ratings_total": 2821, "vicinity": "75 King Edwards Rd, Birmingham"}, {"business_status": "OPERATIONAL", "geometry": {"location": {"lat": 52.4789948, "lng": -1.9179424}, "viewport": {"northeast": {"lat": 52.48028712989272, "lng": -1.916323820107277}, "southwest": {"lat": 52.47758747010727, "lng": -1.919023479892722}}}, "icon": "https://maps.gstatic.com/mapfiles/place_api/icons/v1/png_71/bar-71.png", "icon_background_color": "#FF9E67", "icon_mask_base_uri": "https://maps.gstatic.com/mapfiles/place_api/icons/v2/bar_pinlet", "name": "The Distillery", "opening_hours": {"open_now": true}, "photos": [{"height": 3024, "html_attributions": ["<a href=\"https://maps.google.com/maps/contrib/100809894099380695260\">Sergey Trofimovsky</a>"], "photo_reference": "AUc7tXVxhVoX4px9M1Y2EN-EVLseVT1Tcpnzg7g6w4y0wFpj7HHd4Z9l7jdT5GbTApi-ptxlkPspn3-uUdPB1r_5nkWiR8mn2C5SLNxQnhKmVYcBWNdejXkAnY3d1yYFQXNLTA7u7GXBUHrEPtmuWhd4826v4IkKAbLQYuXoA7zqCP5lbkDt", "width": 4032}], "place_id": "ChIJy02trPC8cEgRW7G4m452vqo", "plus_code": {"compound_code": "F3HJ+JV Birmingham, United Kingdom", "global_code": "9C4WF3HJ+JV"}, "price_level": 2, "rating": 4.4, "reference": "ChIJy02trPC8cEgRW7G4m452vqo", "scope": "GOOGLE", "types": ["bar", "restaurant", "food", "point_of_interest", "establishment"], "user_ratings_total": 1296, "vicinity": "4 Sheepcote St, Birmingham"}, {"business_status": "OPERATIONAL", "geometry": {"location": {"lat": 52.4759948, "lng": -1.8849334}, "viewport": {"northeast": {"lat": 52.47731597989272, "lng": -1.883500770107278}, "southwest": {"lat": 52.47461632010728, "lng": -1.886200429892722}}}, "icon": "https://maps.gstatic.com/mapfiles/place_api/icons/v1/png_71/bar-71.png", "icon_background_color": "#FF9E67", "icon_mask_base_uri": "https://maps.gstatic.com/mapfiles/place_api/icons/v2/bar_pinlet", "name": "The Floodgate", "opening_hours": {"open_now": true}, "photos": [{"height": 3468, "html_attributions": ["<a href=\"https://maps.google.com/maps/contrib/115481819844329207674\">Tim Tomlinson</a>"], "photo_reference": "AUc7tXXEj1AkmeAvsaGA1y6kcT1ccNCNqGDoRQUQzLG3RbXp84iQC4QYFWdotLktOgIxmsHJE4nbqDBxKDR9bdA15PINybzhtpQZjMrwwZ0mJd0THBf91JfZxGQfxTjOlNBQsWI7vKWRsCVWy_kZifwxXh5kkLrLz7WTRCMoz96lTHJ3lo8M", "width": 4624}], "place_id": "ChIJT93jO1W9cEgRutQAWaSNx5w", "plus_code": {"compound_code": "F4G7+CX Birmingham, United Kingdom", "global_code": "9C4WF4G7+CX"}, "rating": 4.4, "reference": "ChIJT93jO1W9cEgRutQAWaSNx5w", "scope": "GOOGLE", "types": ["bar", "restaurant", "food", "point_of_interest", "establishment"], "user_ratings_total": 1139, "vicinity": "104 Floodgate St, Deritend, Birmingham"}, {"business_status": "OPERATIONAL", "geometry": {"location": {"lat": 52.4773937, "lng": -1.9088343}, "viewport": {"northeast": {"lat": 52.47904782989272, "lng": -1.907315420107278}, "southwest": {"lat": 52.47634817010728, "lng": -1.910015079892722}}}, "icon": "https://maps.gstatic.com/mapfiles/place_api/icons/v1/png_71/generic_business-71.png", "icon_background_color": "#13B5C7", "icon_mask_base_uri": "https://maps.gstatic.com/mapfiles/place_api/icons/v2/generic_pinlet", "name": "The Botanist Brindley Place", "opening_hours": {"open_now": true}, "photos": [{"height": 9000, "html_attributions": ["<a href=\"https://maps.google.com/maps/contrib/104742955116865488140\">delia izvoranu</a>"], "photo_reference": "AUc7tXUCgCQYxhbrqJzl74n-Prge4kqgXS8Dnh0ur6IVZT5NFO4OSbVobUEa430acu9orwlQJFb8K7FzO_ohluGahrQcv0m8LZn9XLXjoM8i_qXxyOgZRfFfDaf4gYeOYNt0jP7_tqTfA5kwajqqIgWflcYgxxQiv7r9LeoVnmZHQoQ4tl-9", "width": 12000}], "place_id": "ChIJD-_F-fS8cEgRrD3yhf7tQQI", "plus_code": {"compound_code": "F3GR+XF Birmingham, United Kingdom", "global_code": "9C4WF3GR+XF"}, "price_level": 2, "rating": 4.3, "reference": "ChIJD-_F-fS8cEgRrD3yhf7tQQI", "scope": "GOOGLE", "types": ["bar", "restaurant", "food", "point_of_interest", "establishment"], "user_ratings_total": 4301, "vicinity": "12 Bridge St, Birmingham"}, {"business_status": "OPERATIONAL", "geometry": {"location": {"lat": 52.4760813, "lng": -1.9007447}, "viewport": {"northeast": {"lat": 52.47744752989272, "lng": -1.899496170107277}, "southwest": {"lat": 52.47474787010727, "lng": -1.902195829892722}}}, "icon": "https://maps.gstatic.com/mapfiles/place_api/icons/v1/png_71/bar-71.png", "icon_background_color": "#FF9E67", "icon_mask_base_uri": "https://maps.gstatic.com/mapfiles/place_api/icons/v2/bar_pinlet", "name": "The Victoria, Birmingham", "opening_hours": {"open_now": true}, "photos": [{"height": 2532, "html_attributions": ["<a href=\"https://maps.google.com/maps/contrib/103586443043857978494\">The Victoria</a>"], "photo_reference": "AUc7tXV99v3vMBQHNF2Hfo8X74i2eFJO_5G8ul-bNtKhA4E9f3f2QrwajEgUMMPOd6SmdYk8WToh5771Lxl3euS15WiGsKly-8M1rT0mM_EkIYt6BLKV9lYh5FwCAaNNZ9a3LCMIfeb4twJ-cYRrZxCDbfe1x1S889vFouH3GnbSIPbiSxDf", "width": 3834}], "place_id": "ChIJh0nLOYq8cEgRu2YEnd6d-2c", "plus_code": {"compound_code": "F3GX+CP Birmingham, United Kingdom", "global_code": "9C4WF3GX+CP"}, "price_level": 2, "rating": 4.3, "reference": "ChIJh0nLOYq8cEgRu2YEnd6d-2c", "scope": "GOOGLE", "types": ["meal_takeaway", "bar", "restaurant", "food", "point_of_interest", "establishment"], "user_ratings_total": 1825, "vicinity": "48 John Bright St, Birmingham"}, {"business_status": "OPERATIONAL", "geometry": {"location": {"lat": 52.474775, "lng": -1.8835565}, "viewport": {"northeast": {"lat": 52.47605917989272, "lng": -1.882255620107278}, "southwest": {"lat": 52.47335952010728, "lng": -1.884955279892722}}}, "icon": "https://maps.gstatic.com/mapfiles/place_api/icons/v1/png_71/bar-71.png", "icon_background_color": "#FF9E67", "icon_mask_base_uri": "https://maps.gstatic.com/mapfiles/place_api/icons/v2/bar_pinlet", "name": "The Old Crown", "opening_hours": {"open_now": true}, "photos": [{"height": 3024, "html_attributions": ["<a href=\"https://maps.google.com/maps/contrib/107179489848576723407\">David Reynolds</a>"], "photo_reference": "AUc7tXUHdHp9VLoie16SZRDH7370rqE8p1Ut8J9tTxIW18oR1KnJuw6O7yZGXMyrVdwRpvVsxoxTHKcWA2IaoDCIr8MeMP-U97JMP-lg-kyWUfHc86dK3wLuO_kWIDcNbpb0Fkn6BiNKj9MJQxnNPr-L4N42pcS435wU0OFrc1O0BQLm6IxI", "width": 4032}], "place_id": "ChIJfa0_eoC8cEgR-aHYI6Nfidc", "plus_code": {"compound_code": "F4F8+WH Birmingham, United Kingdom", "global_code": "9C4WF4F8+WH"}, "price_level": 2, "rating": 4.5, "reference": "ChIJfa0_eoC8cEgR-aHYI6Nfidc", "scope": "GOOGLE", "types": ["bar", "restaurant", "food", "point_of_interest", "establishment"], "user_ratings_total": 2145, "vicinity": "188 High St, Deritend, Birmingham"}, {"business_status": "OPERATIONAL", "geometry": {"location": {"lat": 52.47627199999999, "lng": -1.9015648}, "viewport": {"northeast": {"lat": 52.47759402989273, "lng": -1.900269970107278}, "southwest": {"lat": 52.47489437010728, "lng": -1.902969629892722}}}, "icon": "https://maps.gstatic.com/mapfiles/place_api/icons/v1/png_71/bar-71.png", "icon_background_color": "#FF9E67", "icon_mask_base_uri": "https://maps.gstatic.com/mapfiles/place_api/icons/v2/bar_pinlet", "name": "Keg & Grill", "opening_hours": {"open_now": true}, "photos": [{"height": 3024, "html_attributions": ["<a href=\"https://maps.google.com/maps/contrib/106741921003476599081\">Dhruv Bhakta</a>"], "photo_reference": "AUc7tXVM0sniOjKRe5enXNbPtlfGyqOjE-ZPAuC312dX9-GWk54ZTmanAS5aCHKcOWQyg07B90D3Cv4-reyf-FFtUOjW_aT4bCLSfDrczzAIc2Q8gipZvrRTk7yQcELA-9afxB7FwcQm9r8NaCe_-gQvQzgsd2C_jbVKaT1f8-1Srvz0enZ-", "width": 4032}], "place_id": "ChIJ--szq4q8cEgRY1mHMXBEuKk", "plus_code": {"compound_code": "F3GX+G9 Birmingham, United Kingdom", "global_code": "9C4WF3GX+G9"}, "price_level": 2, "rating": 4.4, "reference": "ChIJ--szq4q8cEgRY1mHMXBEuKk", "scope": "GOOGLE", "types": ["bar", "restaurant", "food", "point_of_interest", "establishment"], "user_ratings_total": 519, "vicinity": "20 Suffolk St, Birmingham"}, {"business_status": "OPERATIONAL", "geometry": {"location": {"lat": 52.4778294, "lng": -1.9113644}, "viewport": {"northeast": {"lat": 52.47913722989271, "lng": -1.909834820107278}, "southwest": {"lat": 52.47643757010727, "lng": -1.912534479892722}}}, "icon": "https://maps.gstatic.com/mapfiles/place_api/icons/v1/png_71/bar-71.png", "icon_background_color": "#FF9E67", "icon_mask_base_uri": "https://maps.gstatic.com/mapfiles/place_api/icons/v2/bar_pinlet", "name": "The Brasshouse", "opening_hours": {"open_now": true}, "photos": [{"height": 3840, "html_attributions": ["<a href=\"https://maps.google.com/maps/contrib/109291420870828624614\">A Google User</a>"], "photo_reference": "AUc7tXUTNMPUUZJQgUx6yA4xgi0JR-Wh4gqNaROej2VqlE0U6rkfvZeBAIF7eZdM3LQuT6O5LxFn8lxMs25zdbNEFLleq7fvjAfhG566FK21NyDj0AA_es4GisF9R_whLu51H-NwC_IbBKfvJ1WT87NtNAXEwq1F6Scd3glFFBBbbf1tx165", "width": 5120}], "place_id": "ChIJHwYOnva8cEgRLQy4JLQ1KIE", "plus_code": {"compound_code": "F3HQ+4F Birmingham, United Kingdom", "global_code": "9C4WF3HQ+4F"}, "price_level": 2, "rating": 4.1, "reference": "ChIJHwYOnva8cEgRLQy4JLQ1KIE", "scope": "GOOGLE", "types": ["bar", "restaurant", "food", "point_of_interest", "establishment"], "user_ratings_total": 2627, "vicinity": "44 Broad St, Birmingham"}, {"business_status": "OPERATIONAL", "geometry": {"location": {"lat": 52.4707926, "lng": -1.8814528}, "viewport": {"northeast": {"lat": 52.47210907989272, "lng": -1.880156370107278}, "southwest": {"lat": 52.46940942010728, "lng": -1.882856029892722}}}, "icon": "https://maps.gstatic.com/mapfiles/place_api/icons/v1/png_71/bar-71.png", "icon_background_color": "#FF9E67", "icon_mask_base_uri": "https://maps.gstatic.com/mapfiles/place_api/icons/v2/bar_pinlet", "name": "The Moseley Arms", "opening_hours": {"open_now": true}, "photos": [{"height": 4032, "html_attributions": ["<a href=\"https://maps.google.com/maps/contrib/113919947024438528743\">Ainsley Wainwright</a>"], "photo_reference": "AUc7tXW3SUpViW8gHi0Yfie35U-0jZC566NXkELL-v5YbRRYDSJ6YD0H6hYPy5J3OITifWbD0r4huCOsxHP63kn1fihph0sxZsyzTQLu6W74LWMhrCYRYx67LRCave7fMJ90302N0PyyXChEZrLY1Jv3ZC1xvSwzlgfPXhXLfhV4zOR-AUqB", "width": 2268}], "place_id": "ChIJId4wE3-8cEgRhNXdFbcE-j4", "plus_code": {"compound_code": "F4C9+8C Birmingham, United Kingdom", "global_code": "9C4WF4C9+8C"}, "price_level": 1, "rating": 4.1, "reference": "ChIJId4wE3-8cEgRhNXdFbcE-j4", "scope": "GOOGLE", "types": ["bar", "restaurant", "food", "point_of_interest", "establishment"], "user_ratings_total": 802, "vicinity": "105 Ravenhurst St, Birmingham"}, {"business_status": "OPERATIONAL", "geometry": {"location": {"lat": 52.47773489999999, "lng": -1.910291}, "viewport": {"northeast": {"lat": 52.47916342989272, "lng": -1.909183420107277}, "southwest": {"lat": 52.47646377010728, "lng": -1.911883079892722}}}, "icon": "https://maps.gstatic.com/mapfiles/place_api/icons/v1/png_71/bar-71.png", "icon_background_color": "#FF9E67", "icon_mask_base_uri": "https://maps.gstatic.com/mapfiles/place_api/icons/v2/bar_pinlet", "name": "Walkabout - Birmingham", "opening_hours": {"open_now": true}, "photos": [{"height": 2988, "html_attributions": ["<a href=\"https://maps.google.com/maps/contrib/106936948954939649808\">Ken Coffman</a>"], "photo_reference": "AUc7tXVAxLO5KmQTaMMMOIuH6_qEM17JdKgM1Off9xOBFjMqRVDZFgI5Eu-G3_etXDq7bU4ukX8jlVVwtLpt2_mPl_ZRBWJ11eUu2ns9GNfgsQZc5xaYHsPIZGjZMXSqbpoqJfB0D34IlAsfqpHGNJBHkgv5_dgl-1WHMtxFWQ5A9pkU0Up6", "width": 5312}], "place_id": "ChIJu0QMQPS8cEgRAxhNamsEmu4", "plus_code": {"compound_code": "F3HQ+3V Birmingham, United Kingdom", "global_code": "9C4WF3HQ+3V"}, "price_level": 2, "rating": 4, "reference": "ChIJu0QMQPS8cEgRAxhNamsEmu4", "scope": "GOOGLE", "types": ["night_club", "bar", "restaurant", "food", "point_of_interest", "establishment"], "user_ratings_total": 1892, "vicinity": "Langley Buildings, Regency Wharf, Birmingham"}, {"business_status": "OPERATIONAL", "geometry": {"location": {"lat": 52.480804, "lng": -1.899986}, "viewport": {"northeast": {"lat": 52.48220542989272, "lng": -1.898504870107278}, "southwest": {"lat": 52.47950577010727, "lng": -1.901204529892722}}}, "icon": "https://maps.gstatic.com/mapfiles/place_api/icons/v1/png_71/bar-71.png", "icon_background_color": "#FF9E67", "icon_mask_base_uri": "https://maps.gstatic.com/mapfiles/place_api/icons/v2/bar_pinlet", "name": "The Old Joint Stock Pub & Theatre, Birmingham", "opening_hours": {"open_now": true}, "photos": [{"height": 1280, "html_attributions": ["<a href=\"https://maps.google.com/maps/contrib/107019393887739316514\">The Old Joint Stock</a>"], "photo_reference": "AUc7tXUyRLkzJKB46V22Rj1wcaubal3DtKuA29Fn1QrgLbspI0KYr6Ob68SvD5MXh7fWp3OycqYksKALDoHlFkgxIFErcDuPNWKLw_AQy9Fh4A2JoCngvArFI0NQ8o72Mm37YaqRQNURaXWWCeb-GJtbpLvVGjDlCNVuNThGR2u6rSVTadKf", "width": 1920}], "place_id": "ChIJtX9rIYy8cEgRqSOlmsDfv74", "plus_code": {"compound_code": "F4J2+82 Birmingham, United Kingdom", "global_code": "9C4WF4J2+82"}, "price_level": 2, "rating": 4.4, "reference": "ChIJtX9rIYy8cEgRqSOlmsDfv74", "scope": "GOOGLE", "types": ["bar", "restaurant", "food", "point_of_interest", "establishment"], "user_ratings_total": 4241, "vicinity": "4 Temple Row W, Birmingham"}, {"business_status": "OPERATIONAL", "geometry": {"location": {"lat": 52.4846034, "lng": -1.9142671}, "viewport": {"northeast": {"lat": 52.48598772989271, "lng": -1.912868220107277}, "southwest": {"lat": 52.48328807010727, "lng": -1.915567879892722}}}, "icon": "https://maps.gstatic.com/mapfiles/place_api/icons/v1/png_71/bar-71.png", "icon_background_color": "#FF9E67", "icon_mask_base_uri": "https://maps.gstatic.com/mapfiles/place_api/icons/v2/bar_pinlet", "name": "The Pig & Tail", "opening_hours": {"open_now": true}, "photos": [{"height": 5472, "html_attributions": ["<a href=\"https://maps.google.com/maps/contrib/102564111188704887135\">Drinkwater Digital</a>"], "photo_reference": "AUc7tXXoNM6ztMyhO317fIu9RnJGsSKBhveEEMKzRdv74Fj5X8iTp7WWWDc94jC8IVKMbtVmAmZxAxCRnj_QvZQvrrF-cD15f7yAgMGlZbs1DBrf4UE4HplZOBY3RXSonLk4qHKwG3qWys6QYywLwvTQmHCvz_Z93CmzfNk0qKRm2rBnNWDR", "width": 7296}], "place_id": "ChIJ403vJ-68cEgRa_RUeNXV9uw", "plus_code": {"compound_code": "F3MP+R7 Birmingham, United Kingdom", "global_code": "9C4WF3MP+R7"}, "price_level": 2, "rating": 4.5, "reference": "ChIJ403vJ-68cEgRa_RUeNXV9uw", "scope": "GOOGLE", "types": ["bar", "restaurant", "food", "point_of_interest", "establishment"], "user_ratings_total": 487, "vicinity": "12-13 Albion St, Birmingham"}, {"business_status": "OPERATIONAL", "geometry": {"location": {"lat": 52.4754531, "lng": -1.8871825}, "viewport": {"northeast": {"lat": 52.47675927989272, "lng": -1.885771020107278}, "southwest": {"lat": 52.47405962010728, "lng": -1.888470679892722}}}, "icon": "https://maps.gstatic.com/mapfiles/place_api/icons/v1/png_71/bar-71.png", "icon_background_color": "#FF9E67", "icon_mask_base_uri": "https://maps.gstatic.com/mapfiles/place_api/icons/v2/bar_pinlet", "name": "The Big Bulls Head", "opening_hours": {"open_now": true}, "photos": [{"height": 2268, "html_attributions": ["<a href=\"https://maps.google.com/maps/contrib/118307246235664635266\">Trond Fuhre</a>"], "photo_reference": "AUc7tXVfoWGFXVAHgiuMm0Rq85dWKXLanDizx0rMzqPBJhZNGThFMdaX8hyEKEZAByOPufvtvHXUEDAZoCOkYSU-dNvnuPOWfTKjg9bV4lAbq62JXFG-H4p9WsLu-umgOPlSG_ROYHsLnQg_FMD-FXg3Tj9E2IznF6RIZ1aW2Otw13cJI1n3", "width": 4032}], "place_id": "ChIJN1xLSIe8cEgReLTbzODZZX0", "plus_code": {"compound_code": "F4G7+54 Birmingham, United Kingdom", "global_code": "9C4WF4G7+54"}, "rating": 4.5, "reference": "ChIJN1xLSIe8cEgReLTbzODZZX0", "scope": "GOOGLE", "types": ["bar", "lodging", "restaurant", "food", "point_of_interest", "establishment"], "user_ratings_total": 634, "vicinity": "The Big Bulls Head, 75, Birmingham"}, {"business_status": "OPERATIONAL", "geometry": {"location": {"lat": 52.4819818, "lng": -1.9002615}, "viewport": {"northeast": {"lat": 52.48329192989273, "lng": -1.898860420107278}, "southwest": {"lat": 52.48059227010728, "lng": -1.901560079892722}}}, "icon": "https://maps.gstatic.com/mapfiles/place_api/icons/v1/png_71/bar-71.png", "icon_background_color": "#FF9E67", "icon_mask_base_uri": "https://maps.gstatic.com/mapfiles/place_api/icons/v2/bar_pinlet", "name": "The Roebuck, Birmingham", "opening_hours": {"open_now": true}, "photos": [{"height": 2498, "html_attributions": ["<a href=\"https://maps.google.com/maps/contrib/113624012666212783110\">A Google User</a>"], "photo_reference": "AUc7tXWVf6sAP9dCJZfqkMf76w_kZpRg055IjkYE5Lo36HbtpTH8CzZiC0utVXKxZgO1rTu5M_aytlp_rfhEjYiu4F8-mFvKIjS37uaAXZl7KB1GoLj2XykbarnXP6P2pjvBB-4bGsVjSvaNiO6UFL4kLvZNr4XYusm0buBhpJZL-9dQakJW", "width": 3748}], "place_id": "ChIJt9RG0428cEgRdCdWQArOiYc", "plus_code": {"compound_code": "F3JX+QV Birmingham, United Kingdom", "global_code": "9C4WF3JX+QV"}, "price_level": 2, "rating": 4.1, "reference": "ChIJt9RG0428cEgRdCdWQArOiYc", "scope": "GOOGLE", "types": ["bar", "restaurant", "food", "point_of_interest", "establishment"], "user_ratings_total": 578, "vicinity": "16 Church St, Birmingham"}, {"business_status": "OPERATIONAL", "geometry": {"location": {"lat": 52.4797681, "lng": -1.8994218}, "viewport": {"northeast": {"lat": 52.48110907989273, "lng": -1.898002320107278}, "southwest": {"lat": 52.47840942010728, "lng": -1.900701979892723}}}, "icon": "https://maps.gstatic.com/mapfiles/place_api/icons/v1/png_71/generic_business-71.png", "icon_background_color": "#13B5C7", "icon_mask_base_uri": "https://maps.gstatic.com/mapfiles/place_api/icons/v2/generic_pinlet", "name": "The Botanist Birmingham", "opening_hours": {"open_now": true}, "photos": [{"height": 1536, "html_attributions": ["<a href=\"https://maps.google.com/maps/contrib/101408349045771317939\">HELLO !!!</a>"], "photo_reference": "AUc7tXW_sW19UsAK_AvIuXLAM9tukCCETXBmyiQQp7oiT9bdJMzFepw35WMD579Hf6_zhQLX3QHnje_37WEt17zjjim3x-pAJjX1h-CaeOCZXiTpn5wlqC2h2CehVCwyGyDGsXm2Lq2Qip--s5mhetXZA5bQ3f9Y_MaRap2kX52n-qmamwY6", "width": 2048}], "place_id": "ChIJedLoVom8cEgRLy4WNsgNTQs", "plus_code": {"compound_code": "F4H2+W6 Birmingham, United Kingdom", "global_code": "9C4WF4H2+W6"}, "price_level": 2, "rating": 4.3, "reference": "ChIJedLoVom8cEgRLy4WNsgNTQs", "scope": "GOOGLE", "types": ["bar", "restaurant", "food", "point_of_interest", "establishment"], "user_ratings_total": 3515, "vicinity": "House 14, 16 Temple St, Birmingham"}, {"business_status": "OPERATIONAL", "geometry": {"location": {"lat": 52.4836203, "lng": -1.882947}, "viewport": {"northeast": {"lat": 52.48502577989272, "lng": -1.881460220107278}, "southwest": {"lat": 52.48232612010728, "lng": -1.884159879892723}}}, "icon": "https://maps.gstatic.com/mapfiles/place_api/icons/v1/png_71/bar-71.png", "icon_background_color": "#FF9E67", "icon_mask_base_uri": "https://maps.gstatic.com/mapfiles/place_api/icons/v2/bar_pinlet", "name": "Eagle & Ball", "opening_hours": {"open_now": true}, "photos": [{"height": 4000, "html_attributions": ["<a href=\"https://maps.google.com/maps/contrib/117006319168738225480\">Eagle &amp; Ball</a>"], "photo_reference": "AUc7tXWYLzAZM_7b6uhwdZWrihXgaZM1iLXfGfcy3X9TB1VGW3tvSBieEeuvMKkRgfOi1jNkS3RmfJFmMLs-8GyL0N3f616BvnJ07QBAw8MySAUu5_AoGTjey2kAfwIkW14KqkeHZqfsUD3OS-8whtjvHsmBNkKNeZvZepN5wfHveuUue9XO", "width": 6000}], "place_id": "ChIJPep-woK8cEgRZ-gm7wggdi4", "plus_code": {"compound_code": "F4M8+CR Birmingham, United Kingdom", "global_code": "9C4WF4M8+CR"}, "price_level": 1, "rating": 4.5, "reference": "ChIJPep-woK8cEgRZ-gm7wggdi4", "scope": "GOOGLE", "types": ["meal_takeaway", "bar", "restaurant", "food", "point_of_interest", "establishment"], "user_ratings_total": 329, "vicinity": "Eagle & Ball, Gopsal St, Birmingham"}, {"business_status": "OPERATIONAL", "geometry": {"location": {"lat": 52.4895045, "lng": -1.9080874}, "viewport": {"northeast": {"lat": 52.49081447989273, "lng": -1.906826570107278}, "southwest": {"lat": 52.48811482010728, "lng": -1.909526229892722}}}, "icon": "https://maps.gstatic.com/mapfiles/place_api/icons/v1/png_71/bar-71.png", "icon_background_color": "#FF9E67", "icon_mask_base_uri": "https://maps.gstatic.com/mapfiles/place_api/icons/v2/bar_pinlet", "name": "The Church Pub & Dining Room", "opening_hours": {"open_now": true}, "photos": [{"height": 3036, "html_attributions": ["<a href=\"https://maps.google.com/maps/contrib/102899040169834740455\">Graham L</a>"], "photo_reference": "AUc7tXWzEZ5mwWlomIGoFq0orkVEIryKBffOL7eyWdtsVey01czGZ7EpGYlH9rHu5WbsuArIH6iMdSM0n7fLiji24OEOLbNyJtAwz5o6I4hQV4TVYf0x1suusRIL6bHgS7nRKqeMTDv77OeTi96r_RDOya2RO9qZ1qNHLloWkcsQJE08NjUb", "width": 4048}], "place_id": "ChIJrSJGn-y8cEgRkvI-Kh4HaYE", "plus_code": {"compound_code": "F3QR+RQ Birmingham, United Kingdom", "global_code": "9C4WF3QR+RQ"}, "price_level": 2, "rating": 4.4, "reference": "ChIJrSJGn-y8cEgRkvI-Kh4HaYE", "scope": "GOOGLE", "types": ["bar", "restaurant", "food", "point_of_interest", "establishment"], "user_ratings_total": 704, "vicinity": "22 Great Hampton St, Birmingham"}, {"business_status": "OPERATIONAL", "geometry": {"location": {"lat": 52.4686416, "lng": -1.9225236}, "viewport": {"northeast": {"lat": 52.46995592989272, "lng": -1.921261620107278}, "southwest": {"lat": 52.46725627010728, "lng": -1.923961279892722}}}, "icon": "https://maps.gstatic.com/mapfiles/place_api/icons/v1/png_71/bar-71.png", "icon_background_color": "#FF9E67", "icon_mask_base_uri": "https://maps.gstatic.com/mapfiles/place_api/icons/v2/bar_pinlet", "name": "The High Field", "opening_hours": {"open_now": true}, "photos": [{"height": 3024, "html_attributions": ["<a href=\"https://maps.google.com/maps/contrib/111884497179277513738\">eveniment</a>"], "photo_reference": "AUc7tXVS4bIYP0lA-Z7ohyL_Yr9cpFTq4FAPh8N8BkRHm4QmgPAOV6UxZuqmxsX3cZqusl_vfoabg1dwwsnrkPAfcOOxKF-2pL7h8aNaqU2B5UhcrNreF9-1smS4SSOYzL2-Cy3lQRd1Rzjdxo2etWi7ggHJsKxJWuiTyEQ3fubkeEY-lZPv", "width": 4032}], "place_id": "ChIJ87kfiVaUcEgRDdlgpBVdeVI", "plus_code": {"compound_code": "F39H+F2 Birmingham, United Kingdom", "global_code": "9C4WF39H+F2"}, "price_level": 2, "rating": 4.4, "reference": "ChIJ87kfiVaUcEgRDdlgpBVdeVI", "scope": "GOOGLE", "types": ["bar", "restaurant", "food", "point_of_interest", "establishment"], "user_ratings_total": 1445, "vicinity": "22 Highfield Rd, Birmingham"}, {"business_status": "OPERATIONAL", "geometry": {"location": {"lat": 52.4744828, "lng": -1.8969581}, "viewport": {"northeast": {"lat": 52.47580082989271, "lng": -1.895664670107278}, "southwest": {"lat": 52.47310117010727, "lng": -1.898364329892723}}}, "icon": "https://maps.gstatic.com/mapfiles/place_api/icons/v1/png_71/bar-71.png", "icon_background_color": "#FF9E67", "icon_mask_base_uri": "https://maps.gstatic.com/mapfiles/place_api/icons/v2/bar_pinlet", "name": "The Sly Old Fox", "opening_hours": {"open_now": true}, "photos": [{"height": 3376, "html_attributions": ["<a href=\"https://maps.google.com/maps/contrib/117708893731268533191\">jaroslaw szypula</a>"], "photo_reference": "AUc7tXUdO5e6nXU-9dwG59YuMmhebzPv9N4uVpzXd8vVnZHj6dwqfyxkpiUDGNS8ZjhLyQwn7WLe_Agm5xwMWobjZfWRzcAK2xM3H9hxfklvUsyGyHUFiaQFeOGf2bCJlaO4Gy-Cw6yHmnKdUGHg6dXIApsPT_XOrqncRzPGXp_eXpWHAGfh", "width": 6000}], "place_id": "ChIJ2bfF64m8cEgR8FRncisxtMM", "plus_code": {"compound_code": "F4F3+Q6 Birmingham, United Kingdom", "global_code": "9C4WF4F3+Q6"}, "price_level": 2, "rating": 4.1, "reference": "ChIJ2bfF64m8cEgR8FRncisxtMM", "scope": "GOOGLE", "types": ["bar", "restaurant", "food", "point_of_interest", "establishment"], "user_ratings_total": 681, "vicinity": "54-56 Hurst St, Birmingham"}, {"business_status": "OPERATIONAL", "geometry": {"location": {"lat": 52.4798747, "lng": -1.9006719}, "viewport": {"northeast": {"lat": 52.48124912989272, "lng": -1.899145320107277}, "southwest": {"lat": 52.47854947010727, "lng": -1.901844979892722}}}, "icon": "https://maps.gstatic.com/mapfiles/place_api/icons/v1/png_71/restaurant-71.png", "icon_background_color": "#FF9E67", "icon_mask_base_uri": "https://maps.gstatic.com/mapfiles/place_api/icons/v2/restaurant_pinlet", "name": "The Lost & Found Birmingham", "opening_hours": {"open_now": true}, "photos": [{"height": 4032, "html_attributions": ["<a href=\"https://maps.google.com/maps/contrib/105636678955329779493\">A Google User</a>"], "photo_reference": "AUc7tXWyFT6N4gA-Vr7twb_Chejmo_mXZx0D6jRvR7wmkxY7CHcWJibPx-GfL9C27d7t3T2hOpjxk5MPE_DKkcQhUAmiy0cWcKI3Z3OaPWxXaSa-gpCH2O8xZDy3bzp_mV1HD3XygtTANp_K9mqeFlDkJslfSamxxyoS2C-zAfOggMvb-9Aa", "width": 3024}], "place_id": "ChIJM98WEYy8cEgR2mUM1duwg3A", "plus_code": {"compound_code": "F3HX+WP Birmingham, United Kingdom", "global_code": "9C4WF3HX+WP"}, "price_level": 2, "rating": 4.4, "reference": "ChIJM98WEYy8cEgR2mUM1duwg3A", "scope": "GOOGLE", "types": ["restaurant", "bar", "food", "point_of_interest", "establishment"], "user_ratings_total": 3582, "vicinity": "8 Bennetts Hill, Birmingham"}, {"business_status": "OPERATIONAL", "geometry": {"location": {"lat": 52.4771013, "lng": -1.9097908}, "viewport": {"northeast": {"lat": 52.47843347989272, "lng": -1.908471920107278}, "southwest": {"lat": 52.47573382010728, "lng": -1.911171579892722}}}, "icon": "https://maps.gstatic.com/mapfiles/place_api/icons/v1/png_71/bar-71.png", "icon_background_color": "#FF9E67", "icon_mask_base_uri": "https://maps.gstatic.com/mapfiles/place_api/icons/v2/bar_pinlet", "name": "Canalside Bar", "opening_hours": {"open_now": true}, "photos": [{"height": 3024, "html_attributions": ["<a href=\"https://maps.google.com/maps/contrib/109061505875613612522\">Craig LaCava</a>"], "photo_reference": "AUc7tXX2QMRrwp8dKQARj-4d0m5DIJzp76do-hb73Cu3zPtrtlmzsP5zgtUwgdSsUNnn-dX6gNtgyuipGx1ex8qmf5WMCdfE8fQQybjp4rPtkWKAE0Biz8pRIkU9AuoD0561nKkdddawXgaYJvi31XJoK-vklGiSjPsTsNAI-w0BxaJTUbo", "width": 4032}], "place_id": "ChIJBcZAT_S8cEgRB07oyiPfZ_U", "plus_code": {"compound_code": "F3GR+R3 Birmingham, United Kingdom", "global_code": "9C4WF3GR+R3"}, "price_level": 1, "rating": 4.2, "reference": "ChIJBcZAT_S8cEgRB07oyiPfZ_U", "scope": "GOOGLE", "types": ["bar", "restaurant", "food", "point_of_interest", "establishment"], "user_ratings_total": 777, "vicinity": "Gas St, Birmingham"}, {"business_status": "OPERATIONAL", "geometry": {"location": {"lat": 52.4819271, "lng": -1.8949585}, "viewport": {"northeast": {"lat": 52.48323772989272, "lng": -1.893547820107277}, "southwest": {"lat": 52.48053807010728, "lng": -1.896247479892722}}}, "icon": "https://maps.gstatic.com/mapfiles/place_api/icons/v1/png_71/bar-71.png", "icon_background_color": "#FF9E67", "icon_mask_base_uri": "https://maps.gstatic.com/mapfiles/place_api/icons/v2/bar_pinlet", "name": "The Square Peg - JD Wetherspoon", "opening_hours": {"open_now": true}, "photos": [{"height": 3464, "html_attributions": ["<a href=\"https://maps.google.com/maps/contrib/102564111188704887135\">Drinkwater Digital</a>"], "photo_reference": "AUc7tXVwI5X-L68uq5ZQZ2DXayp5jO-EJuKEHdG65fZZNotshObXA0-_nzbVa0lKOQYKeq6FEQ7F8SQYXt4zZYivVuXWSAtyvcPg23bPD3kxSh1Qrb6YLicy1otKkaSTW7rz_N3qN4jMsYg-TS4CF65qQfiGtPco1lYPiuwxmdZmDzuCKV7a", "width": 4618}], "place_id": "ChIJTQIHTYW8cEgR6tgnPff5BYQ", "plus_code": {"compound_code": "F4J3+QX Birmingham, United Kingdom", "global_code": "9C4WF4J3+QX"}, "price_level": 1, "rating": 3.9, "reference": "ChIJTQIHTYW8cEgR6tgnPff5BYQ", "scope": "GOOGLE", "types": ["bar", "restaurant", "food", "point_of_interest", "establishment"], "user_ratings_total": 7511, "vicinity": "115 Corporation St, Birmingham"}, {"business_status": "OPERATIONAL", "geometry": {"location": {"lat": 52.4765279, "lng": -1.9122347}, "viewport": {"northeast": {"lat": 52.47792847989273, "lng": -1.910974770107277}, "southwest": {"lat": 52.47522882010728, "lng": -1.913674429892722}}}, "icon": "https://maps.gstatic.com/mapfiles/place_api/icons/v1/png_71/bar-71.png", "icon_background_color": "#FF9E67", "icon_mask_base_uri": "https://maps.gstatic.com/mapfiles/place_api/icons/v2/bar_pinlet", "name": "Figure of Eight - JD Wetherspoon", "opening_hours": {"open_now": true}, "photos": [{"height": 2268, "html_attributions": ["<a href=\"https://maps.google.com/maps/contrib/111234110806336355474\">Cathy Evatt-Davey</a>"], "photo_reference": "AUc7tXWAmH6G2uIC6lE6oYm7ApZICj7b6J8Mvw-jY0dsIjdS3sRqdz2KdYM8uW-juX6DWhjb4P0BZZPPmUXInF-wB0y-ELVaCa9Dbk71VjIwC7D2IzupVVR4DU0PVTT1qL_Hnd1U_nQve2-YPEj1ySn4Arv2rch4QVzEBalxaAmHYrOqshLj", "width": 4032}], "place_id": "ChIJQQYah_a8cEgRgRsnGqM1FCs", "plus_code": {"compound_code": "F3GQ+J4 Birmingham, United Kingdom", "global_code": "9C4WF3GQ+J4"}, "price_level": 1, "rating": 4.1, "reference": "ChIJQQYah_a8cEgRgRsnGqM1FCs", "scope": "GOOGLE", "types": ["bar", "restaurant", "food", "point_of_interest", "establishment"], "user_ratings_total": 4113, "vicinity": "236-239 Broad St, Birmingham"}, {"business_status": "OPERATIONAL", "geometry": {"location": {"lat": 52.4803937, "lng": -1.8996182}, "viewport": {"northeast": {"lat": 52.48180407989273, "lng": -1.898292570107277}, "southwest": {"lat": 52.47910442010728, "lng": -1.900992229892722}}}, "icon": "https://maps.gstatic.com/mapfiles/place_api/icons/v1/png_71/bar-71.png", "icon_background_color": "#FF9E67", "icon_mask_base_uri": "https://maps.gstatic.com/mapfiles/place_api/icons/v2/bar_pinlet", "name": "Bar + Block Steakhouse Birmingham City Centre (Waterloo Street)", "opening_hours": {"open_now": true}, "photos": [{"height": 2048, "html_attributions": ["<a href=\"https://maps.google.com/maps/contrib/118033902889283197577\">Beefeater Bar and Block - Birmingham</a>"], "photo_reference": "AUc7tXVVebquGB4v7DVc6lQhScAt6SK8OSGB5d_clj7Z0eKjlVgDEjEss5PpuEfTD9y2FcrjSjjyABYE_tQRV7B8P9oEa07QmPtA44l__ci8zLqCjQ56OASBD-poJ3vDOgp5RCtZoNm9Ok34NJRPTBs18xamUbXqNszJ8AtPFj5qkqu9-7mG", "width": 3072}], "place_id": "ChIJH_XGH4y8cEgRrrFN_9lwr0U", "plus_code": {"compound_code": "F4J2+55 Birmingham, United Kingdom", "global_code": "9C4WF4J2+55"}, "price_level": 2, "rating": 4.1, "reference": "ChIJH_XGH4y8cEgRrrFN_9lwr0U", "scope": "GOOGLE", "types": ["bar", "restaurant", "food", "point_of_interest", "establishment"], "user_ratings_total": 1592, "vicinity": "3-6 Waterloo St, Birmingham"}, {"business_status": "OPERATIONAL", "geometry": {"location": {"lat": 52.4874135, "lng": -1.888198}, "viewport": {"northeast": {"lat": 52.48872617989272, "lng": -1.886694220107277}, "southwest": {"lat": 52.48602652010727, "lng": -1.889393879892722}}}, "icon": "https://maps.gstatic.com/mapfiles/place_api/icons/v1/png_71/bar-71.png", "icon_background_color": "#FF9E67", "icon_mask_base_uri": "https://maps.gstatic.com/mapfiles/place_api/icons/v2/bar_pinlet", "name": "Sacks Of Potatoes", "opening_hours": {"open_now": true}, "photos": [{"height": 3024, "html_attributions": ["<a href=\"https://maps.google.com/maps/contrib/103979693713929903423\">mateusz.jaskulski</a>"], "photo_reference": "AUc7tXXyfGXfnM5UcSzzjbjFV5aezWUwWXKYvpWBCgPh71xbZmZflsH3v48KictdG-uKy8eMIPJ5XSnB9GVh6cv8DSIbegB4AqpTtQ66zrRRcsHK40Xav7vxnMbVbOymoT344t0SsHe2ba_sbOziu6paZrhoiKbRqtfyiZz9D_jEXtj07Zzu", "width": 4032}], "place_id": "ChIJv_-3d5u8cEgRRVW6r0-FbWw", "plus_code": {"compound_code": "F4P6+XP Birmingham, United Kingdom", "global_code": "9C4WF4P6+XP"}, "price_level": 1, "rating": 4.3, "reference": "ChIJv_-3d5u8cEgRRVW6r0-FbWw", "scope": "GOOGLE", "types": ["bar", "restaurant", "food", "point_of_interest", "establishment"], "user_ratings_total": 1116, "vicinity": "10, Gosta Green, Birmingham"}, {"business_status": "OPERATIONAL", "geometry": {"location": {"lat": 52.4749638, "lng": -1.9061749}, "viewport": {"northeast": {"lat": 52.47630337989273, "lng": -1.904814470107277}, "southwest": {"lat": 52.47360372010728, "lng": -1.907514129892722}}}, "icon": "https://maps.gstatic.com/mapfiles/place_api/icons/v1/png_71/bar-71.png", "icon_background_color": "#FF9E67", "icon_mask_base_uri": "https://maps.gstatic.com/mapfiles/place_api/icons/v2/bar_pinlet", "name": "Gas Street Social", "opening_hours": {"open_now": true}, "photos": [{"height": 3648, "html_attributions": ["<a href=\"https://maps.google.com/maps/contrib/105985734225989863980\">Gas Street Social</a>"], "photo_reference": "AUc7tXXAfyJ6IfpsqG0QPg-YkoOr1-8HJLKWbBl47BXZ410B0RkwPZrYuqXibUSg1NCAn1RtIx3GXfvP7OfWbZF9cAZgW2dtR2Gs2LKHCrqO0goTbKBrmhbYkEd3BC1kCNlqSBBAeWWpMRKoZ3IHnYvAQogW8kY3ClauC9b3Hkvep6h91V_E", "width": 5472}], "place_id": "ChIJDbQY2oq8cEgR2taeyN_5FDc", "plus_code": {"compound_code": "F3FV+XG Birmingham, United Kingdom", "global_code": "9C4WF3FV+XG"}, "price_level": 2, "rating": 4.3, "reference": "ChIJDbQY2oq8cEgR2taeyN_5FDc", "scope": "GOOGLE", "types": ["bar", "restaurant", "food", "point_of_interest", "establishment"], "user_ratings_total": 1230, "vicinity": "166 - 168 Wharfside St, Mailbox"}, {"business_status": "OPERATIONAL", "geometry": {"location": {"lat": 52.4753079, "lng": -1.8809929}, "viewport": {"northeast": {"lat": 52.47655517989272, "lng": -1.879713970107278}, "southwest": {"lat": 52.47385552010728, "lng": -1.882413629892722}}}, "icon": "https://maps.gstatic.com/mapfiles/place_api/icons/v1/png_71/bar-71.png", "icon_background_color": "#FF9E67", "icon_mask_base_uri": "https://maps.gstatic.com/mapfiles/place_api/icons/v2/bar_pinlet", "name": "Luna Springs - Digbeth", "photos": [{"height": 1668, "html_attributions": ["<a href=\"https://maps.google.com/maps/contrib/117430380357067012729\">A Google User</a>"], "photo_reference": "AUc7tXUSAfZsQq2-ZuRxFT_G_lyf6KxuOuKpiJZsrmEXeKzenkWsSBc7GWFTWr_KLGS7JMDr80OZkXPAX528_9Gs8r2RP15GAyTHr1AZur39Raw86xsWOaTNcDvt_nmlLw5Oa_ufRZLkUlv-_GVnEb0kBMdpyrdlIsnS1hcn9YKmaEWa3uCn", "width": 2500}], "place_id": "ChIJRZG4n8e9cEgRz0G_eNunjhM", "plus_code": {"compound_code": "F4G9+4J Birmingham, United Kingdom", "global_code": "9C4WF4G9+4J"}, "rating": 4.6, "reference": "ChIJRZG4n8e9cEgRz0G_eNunjhM", "scope": "GOOGLE", "types": ["bar", "restaurant", "food", "point_of_interest", "establishment"], "user_ratings_total": 1627, "vicinity": "Digbeth Arena, Lower Trinity St, Deritend, Birmingham"}, {"business_status": "OPERATIONAL", "geometry": {"location": {"lat": 52.4847475, "lng": -1.901677}, "viewport": {"northeast": {"lat": 52.48609587989272, "lng": -1.900330120107278}, "southwest": {"lat": 52.48339622010727, "lng": -1.903029779892723}}}, "icon": "https://maps.gstatic.com/mapfiles/place_api/icons/v1/png_71/restaurant-71.png", "icon_background_color": "#FF9E67", "icon_mask_base_uri": "https://maps.gstatic.com/mapfiles/place_api/icons/v2/restaurant_pinlet", "name": "Indian Brewery Snowhill", "opening_hours": {"open_now": true}, "photos": [{"height": 2592, "html_attributions": ["<a href=\"https://maps.google.com/maps/contrib/112264106562937239806\">Manuel Baroja</a>"], "photo_reference": "AUc7tXXWOaT7FP3UKuEsaatrpMlWH_vxqJtgGkcFQbNqeLV8kbZqrptkuYfzwVBG3Fb3ZfkdMmTS1cVFuTFf7WKu-zXOgAfxYjU9X8s7RC2lEkpAUaxgOHYHRU7n8dYD57m5zdDWhQoKhuKS0gcC9hOLhzniavQCVh2XegobE6ih7UYnkhJp", "width": 4608}], "place_id": "ChIJJdgndJK8cEgR3prZw6GZLI8", "plus_code": {"compound_code": "F3MX+V8 Birmingham, United Kingdom", "global_code": "9C4WF3MX+V8"}, "price_level": 2, "rating": 4.5, "reference": "ChIJJdgndJK8cEgR3prZw6GZLI8", "scope": "GOOGLE", "types": ["restaurant", "bar", "food", "point_of_interest", "establishment"], "user_ratings_total": 2505, "vicinity": "Arch 15 & 16 Livery St, Birmingham"}, {"business_status": "OPERATIONAL", "geometry": {"location": {"lat": 52.4818558, "lng": -1.8991538}, "viewport": {"northeast": {"lat": 52.48316147989271, "lng": -1.897696270107277}, "southwest": {"lat": 52.48046182010727, "lng": -1.900395929892722}}}, "icon": "https://maps.gstatic.com/mapfiles/place_api/icons/v1/png_71/bar-71.png", "icon_background_color": "#FF9E67", "icon_mask_base_uri": "https://maps.gstatic.com/mapfiles/place_api/icons/v2/bar_pinlet", "name": "The Alchemist Colmore Row", "opening_hours": {"open_now": true}, "photos": [{"height": 2988, "html_attributions": ["<a href=\"https://maps.google.com/maps/contrib/102319213610902713051\">charlie Dool</a>"], "photo_reference": "AUc7tXVPsdI1SqD4e1iVhrzF5_VXi3DhtMDBtmTK4eqVU1Enn85wftAC4L1Z2RdLosC7V0aIqyNowmMqLOBYrQ_a1vjRcYf2s-RJsQYrZi2MmpaYOukjEmXUo5mn7EEkR-Hsakf-GOZc75fWWfF8WS9Cn8r6vxh7wTIpp9KkHpuQTJ5cvx6a", "width": 5312}], "place_id": "ChIJKf3tJYy8cEgRqsTrO0qRN8I", "plus_code": {"compound_code": "F4J2+P8 Birmingham, United Kingdom", "global_code": "9C4WF4J2+P8"}, "price_level": 3, "rating": 4.4, "reference": "ChIJKf3tJYy8cEgRqsTrO0qRN8I", "scope": "GOOGLE", "types": ["bar", "restaurant", "food", "point_of_interest", "establishment"], "user_ratings_total": 2893, "vicinity": "The Grand, Colmore Row, Birmingham"}, {"business_status": "OPERATIONAL", "geometry": {"location": {"lat": 52.4823945, "lng": -1.8990107}, "viewport": {"northeast": {"lat": 52.48374737989272, "lng": -1.897662220107277}, "southwest": {"lat": 52.48104772010728, "lng": -1.900361879892722}}}, "icon": "https://maps.gstatic.com/mapfiles/place_api/icons/v1/png_71/restaurant-71.png", "icon_background_color": "#FF9E67", "icon_mask_base_uri": "https://maps.gstatic.com/mapfiles/place_api/icons/v2/restaurant_pinlet", "name": "Primitivo", "opening_hours": {"open_now": true}, "photos": [{"height": 4032, "html_attributions": ["<a href=\"https://maps.google.com/maps/contrib/104382368366786691316\">Ronson Fung</a>"], "photo_reference": "AUc7tXV6xKnE6sQfZjs4wEM5mhp4vUeemdilq4_jbehtUCOsQhmQjVPX4EYjR3L4t42VB5rF7diUoPHMVbHNAt32th_VGfwX2NV3IsaRFSCh4blVBZ8OW1DM4u1bI6NK3twEjtwm-GUYov29NwbEkWpWGHpvUmMS5hhVCz_vbocJxxKA-dsu", "width": 3024}], "place_id": "ChIJAVxPLYy8cEgRj1EU-RKyEdY", "plus_code": {"compound_code": "F4J2+WC Birmingham, United Kingdom", "global_code": "9C4WF4J2+WC"}, "price_level": 2, "rating": 4.4, "reference": "ChIJAVxPLYy8cEgRj1EU-RKyEdY", "scope": "GOOGLE", "types": ["bar", "restaurant", "food", "point_of_interest", "establishment"], "user_ratings_total": 228, "vicinity": "10 Barwick St, Birmingham"}, {"business_status": "OPERATIONAL", "geometry": {"location": {"lat": 52.479838, "lng": -1.9016978}, "viewport": {"northeast": {"lat": 52.48121207989272, "lng": -1.900403820107278}, "southwest": {"lat": 52.47851242010728, "lng": -1.903103479892722}}}, "icon": "https://maps.gstatic.com/mapfiles/place_api/icons/v1/png_71/bar-71.png", "icon_background_color": "#FF9E67", "icon_mask_base_uri": "https://maps.gstatic.com/mapfiles/place_api/icons/v2/bar_pinlet", "name": "Sommar Birmingham", "opening_hours": {"open_now": true}, "photos": [{"height": 3072, "html_attributions": ["<a href=\"https://maps.google.com/maps/contrib/106816213866163938910\">Rich Vincent</a>"], "photo_reference": "AUc7tXV20x5EtMcOy1rjwBz-ckgztaPDotQ7t-yBoWpp53pxZZ-rX1G0JK78Qj49MUAgBezCVIJMcEXEJWQWhV620Ac4KRUGD9RDXbpu2fvmMtRR3GUVze5pR3aRSAvQw2JmKeusRyIba61NXf4HdZn-f1IQN1R946D5MdHu2w7mB7Mhs-am", "width": 4080}], "place_id": "ChIJoQe12sO9cEgRpZA5gm8eds4", "plus_code": {"compound_code": "F3HX+W8 Birmingham, United Kingdom", "global_code": "9C4WF3HX+W8"}, "rating": 4.4, "reference": "ChIJoQe12sO9cEgRpZA5gm8eds4", "scope": "GOOGLE", "types": ["bar", "restaurant", "food", "point_of_interest", "establishment"], "user_ratings_total": 105, "vicinity": "20 Waterloo St, Birmingham"}, {"business_status": "OPERATIONAL", "geometry": {"location": {"lat": 52.4770305, "lng": -1.9011426}, "viewport": {"northeast": {"lat": 52.47837107989272, "lng": -1.899869670107278}, "southwest": {"lat": 52.47567142010728, "lng": -1.902569329892722}}}, "icon": "https://maps.gstatic.com/mapfiles/place_api/icons/v1/png_71/cafe-71.png", "icon_background_color": "#FF9E67", "icon_mask_base_uri": "https://maps.gstatic.com/mapfiles/place_api/icons/v2/cafe_pinlet", "name": "Cherry Red's Cafe Bar", "opening_hours": {"open_now": true}, "photos": [{"height": 3024, "html_attributions": ["<a href=\"https://maps.google.com/maps/contrib/104875234974246804824\">win task</a>"], "photo_reference": "AUc7tXWpLMM6npzo7IWyw548HJaWj31I_d7C1KxtDfMOEgFuDz38-Umyo38_sLgyHLHWt4qmsAhsAzVjfV6lfB72fQIiWkfAFoy-tLHfMe_AaxXEnkNWdfDt_669groHk3Di5wkNU0ax22Q7So24rAoaB45WU9rp1eDnD4dk8SiOuYAkLSF9", "width": 4032}], "place_id": "ChIJY1HUtou8cEgR3b2aSqAF1Vg", "plus_code": {"compound_code": "F3GX+RG Birmingham, United Kingdom", "global_code": "9C4WF3GX+RG"}, "price_level": 2, "rating": 4.5, "reference": "ChIJY1HUtou8cEgR3b2aSqAF1Vg", "scope": "GOOGLE", "types": ["cafe", "bar", "liquor_store", "restaurant", "food", "store", "point_of_interest", "establishment"], "user_ratings_total": 2292, "vicinity": "88-92 John Bright St, Birmingham"}, {"business_status": "OPERATIONAL", "geometry": {"location": {"lat": 52.4858381, "lng": -1.9118945}, "viewport": {"northeast": {"lat": 52.48715527989272, "lng": -1.910524870107278}, "southwest": {"lat": 52.48445562010728, "lng": -1.913224529892722}}}, "icon": "https://maps.gstatic.com/mapfiles/place_api/icons/v1/png_71/bar-71.png", "icon_background_color": "#FF9E67", "icon_mask_base_uri": "https://maps.gstatic.com/mapfiles/place_api/icons/v2/bar_pinlet", "name": "The Button Factory", "opening_hours": {"open_now": true}, "photos": [{"height": 1080, "html_attributions": ["<a href=\"https://maps.google.com/maps/contrib/110704224134730054267\">Mich Medals</a>"], "photo_reference": "AUc7tXUKWdaXX8vmgaG1dYjlfdoaydrfv5jrk-3Q-d2ia_jUXrD9UIjMtKXggn1nGrqyj_SvetC7bSQx9qSDCBuYnuF2e2LC8L_1FURNfr-ZsKuW7lDN9Jdz2TiIVbe76-RsGBYdmZIGriSLvFj9QVFjb6C8RB8VLk2p0RcMugE8_L9y4MyE", "width": 1920}], "place_id": "ChIJgewx3e28cEgR3hRUm4d7IcI", "plus_code": {"compound_code": "F3PQ+86 Birmingham, United Kingdom", "global_code": "9C4WF3PQ+86"}, "price_level": 2, "rating": 4.1, "reference": "ChIJgewx3e28cEgR3hRUm4d7IcI", "scope": "GOOGLE", "types": ["bar", "restaurant", "food", "point_of_interest", "establishment"], "user_ratings_total": 1603, "vicinity": "25 Frederick St, Birmingham"}, {"business_status": "OPERATIONAL", "geometry": {"location": {"lat": 52.4776785, "lng": -1.9108074}, "viewport": {"northeast": {"lat": 52.47908992989272, "lng": -1.909468770107278}, "southwest": {"lat": 52.47639027010728, "lng": -1.912168429892723}}}, "icon": "https://maps.gstatic.com/mapfiles/place_api/icons/v1/png_71/bar-71.png", "icon_background_color": "#FF9E67", "icon_mask_base_uri": "https://maps.gstatic.com/mapfiles/place_api/icons/v2/bar_pinlet", "name": "O Bar", "opening_hours": {"open_now": true}, "photos": [{"height": 1366, "html_attributions": ["<a href=\"https://maps.google.com/maps/contrib/114108962745464810054\">Amo Taib</a>"], "photo_reference": "AUc7tXXKXoIeSnnWUvq7jdHbehrgXy20CKjkjGc0UBRNLfWAhw2Zv1vpICnL6c-vAVWQtO3nmbCgRxf3chixiL6LPYSCGYJscqCV5GUnJWJIU5j0om3Qez4OKbNPNgL3IRbHmxnBIxl3kwUsShRrb4vcZ7b-27JvB_aDDH_E1WFQHmfuzVJK", "width": 2048}], "place_id": "ChIJu0QMQPS8cEgR9d88ooBPe98", "plus_code": {"compound_code": "F3HQ+3M Birmingham, United Kingdom", "global_code": "9C4WF3HQ+3M"}, "price_level": 2, "rating": 3.8, "reference": "ChIJu0QMQPS8cEgR9d88ooBPe98", "scope": "GOOGLE", "types": ["night_club", "bar", "restaurant", "food", "point_of_interest", "establishment"], "user_ratings_total": 524, "vicinity": "264 Broad St, Birmingham"}, {"business_status": "OPERATIONAL", "geometry": {"location": {"lat": 52.47813499999999, "lng": -1.9100329}, "viewport": {"northeast": {"lat": 52.47951262989272, "lng": -1.908746820107278}, "southwest": {"lat": 52.47681297010728, "lng": -1.911446479892722}}}, "icon": "https://maps.gstatic.com/mapfiles/place_api/icons/v1/png_71/bar-71.png", "icon_background_color": "#FF9E67", "icon_mask_base_uri": "https://maps.gstatic.com/mapfiles/place_api/icons/v2/bar_pinlet", "name": "The Soloman Cutler - JD Wetherspoon", "opening_hours": {"open_now": true}, "photos": [{"height": 3024, "html_attributions": ["<a href=\"https://maps.google.com/maps/contrib/115124975482120649248\">Foremans UK</a>"], "photo_reference": "AUc7tXUOsHFL-MFqf0_p4Sue4PJu3xCLoUIPgQVtZCDvnGz6202RN6MYnwh8lWZGBav9jPL9iozdngrZ1cmuxqT95nNYMDHBA_7B4EtcVI3vKxZLhnUq7IDAMZBz1_em9rAAd_Pt48pC0GX9xCUUTw9So8Xv71eCZaGbSYLlnILaxnwUAxl7", "width": 4032}], "place_id": "ChIJu0QMQPS8cEgRsCQMRIKKDwQ", "plus_code": {"compound_code": "F3HQ+7X Birmingham, United Kingdom", "global_code": "9C4WF3HQ+7X"}, "price_level": 1, "rating": 4, "reference": "ChIJu0QMQPS8cEgRsCQMRIKKDwQ", "scope": "GOOGLE", "types": ["night_club", "bar", "restaurant", "food", "point_of_interest", "establishment"], "user_ratings_total": 3198, "vicinity": "5 Broad St, Birmingham"}, {"business_status": "OPERATIONAL", "geometry": {"location": {"lat": 52.4956062, "lng": -1.8860183}, "viewport": {"northeast": {"lat": 52.49698422989272, "lng": -1.884742370107278}, "southwest": {"lat": 52.49428457010728, "lng": -1.887442029892722}}}, "icon": "https://maps.gstatic.com/mapfiles/place_api/icons/v1/png_71/restaurant-71.png", "icon_background_color": "#FF9E67", "icon_mask_base_uri": "https://maps.gstatic.com/mapfiles/place_api/icons/v2/restaurant_pinlet", "name": "Christophers lounge", "opening_hours": {"open_now": true}, "photos": [{"height": 3315, "html_attributions": ["<a href=\"https://maps.google.com/maps/contrib/114715769926320324439\">A Google User</a>"], "photo_reference": "AUc7tXVpdnFxGWwf6b1hAsc0tRmVkL0eZdst5YwqvYHl8xryYQ5M6JSdFhJ7-AO5rgQyvVEt1xDvTeOyBwBpRIMlAYpfYnIP45R2UvIZR4YVEmxbPmzbXEDptsTnfVxVvE2nx-0ch9R7Zc_0ECjFljJBUq9P8xvymCgGuFxZGWBBATakOL-0", "width": 5892}], "place_id": "ChIJOxS6ja-9cEgRsusFr1Z1msw", "plus_code": {"compound_code": "F4W7+6H Birmingham, United Kingdom", "global_code": "9C4WF4W7+6H"}, "rating": 3.8, "reference": "ChIJOxS6ja-9cEgRsusFr1Z1msw", "scope": "GOOGLE", "types": ["bar", "restaurant", "food", "point_of_interest", "establishment"], "user_ratings_total": 313, "vicinity": "23 Aston Rd N, Birmingham"}, {"business_status": "OPERATIONAL", "geometry": {"location": {"lat": 52.4797423, "lng": -1.9004611}, "viewport": {"northeast": {"lat": 52.48110527989272, "lng": -1.899026520107278}, "southwest": {"lat": 52.47840562010727, "lng": -1.901726179892723}}}, "icon": "https://maps.gstatic.com/mapfiles/place_api/icons/v1/png_71/restaurant-71.png", "icon_background_color": "#FF9E67", "icon_mask_base_uri": "https://maps.gstatic.com/mapfiles/place_api/icons/v2/restaurant_pinlet", "name": "Bodega Cantina | Birmingham", "opening_hours": {"open_now": true}, "photos": [{"height": 3838, "html_attributions": ["<a href=\"https://maps.google.com/maps/contrib/112181862160039404642\">Bodega Bar &amp; Cantina</a>"], "photo_reference": "AUc7tXXqts8aatewUHBjGoAXlWswuLONflwWD-jT7em4U56mYbAcItZRU4msikg6bvIlYzz81FsfNGYc2yDvORipITLdfC69l9ueYcOlgOxVj3Ow9lDpfDjhxXFMV24wxuwGnleaifWVMAzBWk-eKsvYntv8uqGNLuRbED2nxIlpzQBQSa-W", "width": 5757}], "place_id": "ChIJtxTGD4y8cEgRLSaAW-co9G8", "plus_code": {"compound_code": "F3HX+VR Birmingham, United Kingdom", "global_code": "9C4WF3HX+VR"}, "price_level": 2, "rating": 4.3, "reference": "ChIJtxTGD4y8cEgRLSaAW-co9G8", "scope": "GOOGLE", "types": ["bar", "restaurant", "food", "point_of_interest", "establishment"], "user_ratings_total": 2605, "vicinity": "12 Bennetts Hill, Birmingham"}, {"business_status": "OPERATIONAL", "geometry": {"location": {"lat": 52.4776738, "lng": -1.9017563}, "viewport": {"northeast": {"lat": 52.47860712989272, "lng": -1.900670670107278}, "southwest": {"lat": 52.47590747010727, "lng": -1.903370329892722}}}, "icon": "https://maps.gstatic.com/mapfiles/place_api/icons/v1/png_71/restaurant-71.png", "icon_background_color": "#FF9E67", "icon_mask_base_uri": "https://maps.gstatic.com/mapfiles/place_api/icons/v2/restaurant_pinlet", "name": "The Birmingham Stable", "opening_hours": {"open_now": true}, "photos": [{"height": 1315, "html_attributions": ["<a href=\"https://maps.google.com/maps/contrib/104336958095694495179\">The Stable, Birmingham</a>"], "photo_reference": "AUc7tXWhFU7f3x-CDN8wUd02_1icGxCTvLo1GZ8-NHJMDrDq1n5R3tMCoAQgGKW3VbEI2bye1Pi-xjVMLFiV4D_TH136GhmsavqlgZ6y15bNtfmqPNhHN9p9Im8Ne8q20_axnhiRJJYfFjcK9cFnEpxKGLN7iaWVcbiQ00_shk9DqgX8UNVh", "width": 2048}], "place_id": "ChIJFxhqo4u8cEgRVqqIuemRKnw", "plus_code": {"compound_code": "F3HX+37 Birmingham, United Kingdom", "global_code": "9C4WF3HX+37"}, "price_level": 2, "rating": 4.3, "reference": "ChIJFxhqo4u8cEgRVqqIuemRKnw", "scope": "GOOGLE", "types": ["meal_takeaway", "bar", "restaurant", "food", "point_of_interest", "establishment"], "user_ratings_total": 1585, "vicinity": "1 Orion, 115 John Bright St, Birmingham"}, {"business_status": "OPERATIONAL", "geometry": {"location": {"lat": 52.476713, "lng": -1.8850654}, "viewport": {"northeast": {"lat": 52.47804197989272, "lng": -1.883656570107278}, "southwest": {"lat": 52.47534232010728, "lng": -1.886356229892722}}}, "icon": "https://maps.gstatic.com/mapfiles/place_api/icons/v1/png_71/bar-71.png", "icon_background_color": "#FF9E67", "icon_mask_base_uri": "https://maps.gstatic.com/mapfiles/place_api/icons/v2/bar_pinlet", "name": "Boho Beer Garden", "opening_hours": {"open_now": true}, "photos": [{"height": 683, "html_attributions": ["<a href=\"https://maps.google.com/maps/contrib/117236563742799728608\">A Google User</a>"], "photo_reference": "AUc7tXXnm5Iu3LBaDhuLC7S2fVpERIHTHoUQHpqcG_wtzOteLBYysGOedzXZWoTsrnPbPMCMBt9RgHQwpoZ4wUye0GZ7k9MQB0e5cV6TbAaZVmk01dCwQYoi7zQQejBYMggEw3G4y5ykLHqNQe7ypjFGRKQth6AlOBYlBWdDIBBStDKWEpDv", "width": 1024}], "place_id": "ChIJQZSQWFC9cEgRBHllhBtEzw8", "plus_code": {"compound_code": "F4G8+M3 Birmingham, United Kingdom", "global_code": "9C4WF4G8+M3"}, "rating": 3.9, "reference": "ChIJQZSQWFC9cEgRBHllhBtEzw8", "scope": "GOOGLE", "types": ["bar", "restaurant", "food", "point_of_interest", "establishment"], "user_ratings_total": 10, "vicinity": "Boho Gardens, 1 Rea Terrace, Deritend, Birmingham"}, {"business_status": "OPERATIONAL", "geometry": {"location": {"lat": 52.4751686, "lng": -1.9064474}, "viewport": {"northeast": {"lat": 52.47674947989271, "lng": -1.904958820107278}, "southwest": {"lat": 52.47404982010727, "lng": -1.907658479892723}}}, "icon": "https://maps.gstatic.com/mapfiles/place_api/icons/v1/png_71/restaurant-71.png", "icon_background_color": "#FF9E67", "icon_mask_base_uri": "https://maps.gstatic.com/mapfiles/place_api/icons/v2/restaurant_pinlet", "name": "Miller & Carter Mailbox", "opening_hours": {"open_now": true}, "photos": [{"height": 3024, "html_attributions": ["<a href=\"https://maps.google.com/maps/contrib/117266274832994459785\">kevin neiland</a>"], "photo_reference": "AUc7tXX__w3oZBgDmTiiZx6DCQhkvsHBEoNHy8FNP37CZ2JyFLosffSa-eJSzi7b7bbRYX3MwRIJIG8TidN_Bq5rjIs8w1UOH9JrIpuptzQvarI_uHo3T-5dsETRo3b4ZwPaA0vB9TV4YC2WYpzndjO2PpAUvy7eI0zttqEgchif6gSmXzg", "width": 4032}], "place_id": "ChIJB0uj0oq8cEgRu1Jlc7j4rc4", "plus_code": {"compound_code": "F3GV+3C Birmingham, United Kingdom", "global_code": "9C4WF3GV+3C"}, "price_level": 2, "rating": 4.4, "reference": "ChIJB0uj0oq8cEgRu1Jlc7j4rc4", "scope": "GOOGLE", "types": ["bar", "restaurant", "food", "point_of_interest", "establishment"], "user_ratings_total": 2450, "vicinity": "Mailbox, 178-180 Wharfside St, Birmingham"}, {"business_status": "OPERATIONAL", "geometry": {"location": {"lat": 52.48023689999999, "lng": -1.8992541}, "viewport": {"northeast": {"lat": 52.48159722989272, "lng": -1.897837020107278}, "southwest": {"lat": 52.47889757010728, "lng": -1.900536679892722}}}, "icon": "https://maps.gstatic.com/mapfiles/place_api/icons/v1/png_71/bar-71.png", "icon_background_color": "#FF9E67", "icon_mask_base_uri": "https://maps.gstatic.com/mapfiles/place_api/icons/v2/bar_pinlet", "name": "Revoluci\u00f3n de Cuba Birmingham", "opening_hours": {"open_now": true}, "photos": [{"height": 2988, "html_attributions": ["<a href=\"https://maps.google.com/maps/contrib/115957697177613269307\">Valeria Lara</a>"], "photo_reference": "AUc7tXUF96LipVb1AGY6sGf4pTdO9sCLpQ2CsJIeUTpGrR45oc_nxOT5Kb3dkAm7icvlEJ_poPnNDuqihOEegsznQexwn8MJ29mN7j5clJvv1MyRcscI39o2paoZ2XhJtXhqC4BvU8_HwNBQ23KRAMgxe5QdHCGnXjuF_SRG2FevHka5QNRk", "width": 5312}], "place_id": "ChIJyaQ7po68cEgRr08DT5PrMfM", "plus_code": {"compound_code": "F4J2+37 Birmingham, United Kingdom", "global_code": "9C4WF4J2+37"}, "price_level": 2, "rating": 4.3, "reference": "ChIJyaQ7po68cEgRr08DT5PrMfM", "scope": "GOOGLE", "types": ["bar", "night_club", "restaurant", "food", "point_of_interest", "establishment"], "user_ratings_total": 2139, "vicinity": "8 Temple St, Birmingham"}, {"business_status": "OPERATIONAL", "geometry": {"location": {"lat": 52.47996, "lng": -1.9001548}, "viewport": {"northeast": {"lat": 52.48127552989272, "lng": -1.898885770107278}, "southwest": {"lat": 52.47857587010728, "lng": -1.901585429892723}}}, "icon": "https://maps.gstatic.com/mapfiles/place_api/icons/v1/png_71/lodging-71.png", "icon_background_color": "#909CE1", "icon_mask_base_uri": "https://maps.gstatic.com/mapfiles/place_api/icons/v2/hotel_pinlet", "name": "J D Wetherspoon - The Briar Rose", "opening_hours": {"open_now": true}, "photos": [{"height": 3000, "html_attributions": ["<a href=\"https://maps.google.com/maps/contrib/111072270502207320130\">Howard Birchall</a>"], "photo_reference": "AUc7tXX6d_FSLsVZ3--FI7jKwZ5ANOavjiCsL8ZCn2TDRtlnP6b2uP8WaAhkWwLSofcpF176-GMOd-Br1HAIYAhydHsGvDCdEZHCzpDgT9mX84fRqViY7IAjA7wDqPiBP6KVC2qnIPCKW9KHid3MZNwRr_a1wyXX4aylqzBVeDnbSaKIvl6z", "width": 4000}], "place_id": "ChIJ5cWKD4y8cEgRAaoY0P2gzo8", "plus_code": {"compound_code": "F3HX+XW Birmingham, United Kingdom", "global_code": "9C4WF3HX+XW"}, "rating": 4, "reference": "ChIJ5cWKD4y8cEgRAaoY0P2gzo8", "scope": "GOOGLE", "types": ["lodging", "bar", "restaurant", "food", "point_of_interest", "establishment"], "user_ratings_total": 5567, "vicinity": "25 Bennetts Hill, Birmingham"}, {"business_status": "OPERATIONAL", "geometry": {"location": {"lat": 52.4791669, "lng": -1.9148299}, "viewport": {"northeast": {"lat": 52.48045862989272, "lng": -1.913909020107277}, "southwest": {"lat": 52.47775897010727, "lng": -1.916608679892722}}}, "icon": "https://maps.gstatic.com/mapfiles/place_api/icons/v1/png_71/generic_business-71.png", "icon_background_color": "#7B9EB0", "icon_mask_base_uri": "https://maps.gstatic.com/mapfiles/place_api/icons/v2/generic_pinlet", "name": "Sommar Brewery & Taproom", "opening_hours": {"open_now": true}, "photos": [{"height": 3024, "html_attributions": ["<a href=\"https://maps.google.com/maps/contrib/100747996094759060311\">suurimonster</a>"], "photo_reference": "AUc7tXVvN8CALu_rKQN3Y7JNkv8jMC-t6OE0ap9VOJGZkm51WLZ4jzEhtWsEc3EHv0ZPyR29AaqEpS7QtB24QQwcyddoRR2tk_K6rwMMxMHSYdJhSff1vL0UfjlOoEtscLi26SPGs0-4w4y2dW2wf_AKdgGGUmB7aXzN6Odf4wJ03s0WGpBt", "width": 4032}], "place_id": "ChIJk4Ykvyu9cEgRcgtn-hSHGqo", "plus_code": {"compound_code": "F3HP+M3 Birmingham, United Kingdom", "global_code": "9C4WF3HP+M3"}, "rating": 4.6, "reference": "ChIJk4Ykvyu9cEgRcgtn-hSHGqo", "scope": "GOOGLE", "types": ["meal_takeaway", "bar", "restaurant", "food", "point_of_interest", "establishment"], "user_ratings_total": 213, "vicinity": "Canalside Utilita Arena, Birmingham"}, {"business_status": "OPERATIONAL", "geometry": {"location": {"lat": 52.4871068, "lng": -1.9022763}, "viewport": {"northeast": {"lat": 52.48840267989272, "lng": -1.900874620107278}, "southwest": {"lat": 52.48570302010728, "lng": -1.903574279892722}}}, "icon": "https://maps.gstatic.com/mapfiles/place_api/icons/v1/png_71/restaurant-71.png", "icon_background_color": "#FF9E67", "icon_mask_base_uri": "https://maps.gstatic.com/mapfiles/place_api/icons/v2/restaurant_pinlet", "name": "Hen & Chickens", "opening_hours": {"open_now": true}, "photos": [{"height": 3024, "html_attributions": ["<a href=\"https://maps.google.com/maps/contrib/108978648858208949576\">David Clarke</a>"], "photo_reference": "AUc7tXWqSrGpv-93pDFqdWdN_ebLpx-aiLYY6ujw_zpv8rk-Iqt-d5Df2dh9drqJToS4WqcHkzyei94y1HnDZzTdbR17Sux8S_SdETcNCXwqIK8RZBs9_S8jjfd4PmGAHRkoALO-5ylwaOX54dJdMuyOPIfST1uUdbHG8E2OODDhrBj_Z36x", "width": 4032}], "place_id": "ChIJH0mXU5K8cEgR3vlRy-AQ9jE", "plus_code": {"compound_code": "F3PX+R3 Birmingham, United Kingdom", "global_code": "9C4WF3PX+R3"}, "price_level": 1, "rating": 4.4, "reference": "ChIJH0mXU5K8cEgR3vlRy-AQ9jE", "scope": "GOOGLE", "types": ["restaurant", "food", "point_of_interest", "establishment"], "user_ratings_total": 1498, "vicinity": "27 Constitution Hill, Birmingham"}, {"business_status": "OPERATIONAL", "geometry": {"location": {"lat": 52.4816608, "lng": -1.8911765}, "viewport": {"northeast": {"lat": 52.48292887989273, "lng": -1.889793870107278}, "southwest": {"lat": 52.48022922010728, "lng": -1.892493529892722}}}, "icon": "https://maps.gstatic.com/mapfiles/place_api/icons/v1/png_71/bar-71.png", "icon_background_color": "#FF9E67", "icon_mask_base_uri": "https://maps.gstatic.com/mapfiles/place_api/icons/v2/bar_pinlet", "name": "Bar + Block Steakhouse Birmingham (Exchange Square)", "opening_hours": {"open_now": true}, "photos": [{"height": 713, "html_attributions": ["<a href=\"https://maps.google.com/maps/contrib/112555787672199540387\">A Google User</a>"], "photo_reference": "AUc7tXXt7iKWZ84hgvpfjGmPHWFPcB37fg1u7qqvrIVdAWnAp-yKHOB-ilGZExQHps-JEd3hlxQ8bopRlVRfOgItPBePMTiuWelfYTedkPSv5Ug13ojn-ZrmIYNBDDQ62nZ0dkmO3BQkTLwqvq55bGkDie92tEpq22-FdsjMCcFWM8Gxupc7", "width": 1284}], "place_id": "ChIJ9_sLl3e9cEgRh6CmezEKH3s", "plus_code": {"compound_code": "F4J5+MG Birmingham, United Kingdom", "global_code": "9C4WF4J5+MG"}, "price_level": 2, "rating": 4.1, "reference": "ChIJ9_sLl3e9cEgRh6CmezEKH3s", "scope": "GOOGLE", "types": ["bar", "restaurant", "food", "point_of_interest", "establishment"], "user_ratings_total": 56, "vicinity": "5, Exchange Square, The Priory Queensway, Birmingham"}, {"business_status": "OPERATIONAL", "geometry": {"location": {"lat": 52.4752, "lng": -1.8835982}, "viewport": {"northeast": {"lat": 52.47659302989273, "lng": -1.882325070107278}, "southwest": {"lat": 52.47389337010728, "lng": -1.885024729892722}}}, "icon": "https://maps.gstatic.com/mapfiles/place_api/icons/v1/png_71/bar-71.png", "icon_background_color": "#FF9E67", "icon_mask_base_uri": "https://maps.gstatic.com/mapfiles/place_api/icons/v2/bar_pinlet", "name": "AutoBrew", "opening_hours": {"open_now": true}, "photos": [{"height": 461, "html_attributions": ["<a href=\"https://maps.google.com/maps/contrib/111222735091074032814\">A Google User</a>"], "photo_reference": "AUc7tXWai50wtAkreEgzYfXG6kw2kKKH3haIdeYjnETu0Y6Q4PIA2x-OcU4kQp18XUU5MaKSVXbTwhF1Y1n7TxQvz-GbQ_WKL89jFqNmlg3b1ODwYc63XH-trMtL_Ks8MfgC_MU0vfSsDLjXb8d7nL_laWDq6fOiVvcQ58TiuK7-ncqDCPba", "width": 615}], "place_id": "ChIJf6E7_Di9cEgRtUXE5FLqDOg", "plus_code": {"compound_code": "F4G8+3H Birmingham, United Kingdom", "global_code": "9C4WF4G8+3H"}, "rating": 4.8, "reference": "ChIJf6E7_Di9cEgRtUXE5FLqDOg", "scope": "GOOGLE", "types": ["bar", "cafe", "liquor_store", "restaurant", "food", "store", "point_of_interest", "establishment"], "user_ratings_total": 104, "vicinity": "The Custard Factory, 10-11, Greenhouse, Gibb St, Birmingham"}, {"business_status": "OPERATIONAL", "geometry": {"location": {"lat": 52.4821417, "lng": -1.9068679}, "viewport": {"northeast": {"lat": 52.48360562989273, "lng": -1.905572820107278}, "southwest": {"lat": 52.48090597010728, "lng": -1.908272479892723}}}, "icon": "https://maps.gstatic.com/mapfiles/place_api/icons/v1/png_71/bar-71.png", "icon_background_color": "#FF9E67", "icon_mask_base_uri": "https://maps.gstatic.com/mapfiles/place_api/icons/v2/bar_pinlet", "name": "Mitchells & Butlers", "opening_hours": {"open_now": false}, "photos": [{"height": 4032, "html_attributions": ["<a href=\"https://maps.google.com/maps/contrib/113880775872054926289\">Marek and\u011bl</a>"], "photo_reference": "AUc7tXUuz9rhV3VUfwOUSMKt0H9j9uNFOigLhusUCrxAVwz-NUiGq07L-B2GwQDtx3l1sYHLM7JiEu5ACoeuXTfqiNPLZc4ACkrDr16movJSEitsA3-fsTmqH341KtIAQfzGGFMJqo56BUOiRIp6PvHAyLcRfv_-RREE--xMmjlRTPTKkoZu", "width": 3024}], "place_id": "ChIJGwKO3vK8cEgRsPC0Jx_iwJg", "plus_code": {"compound_code": "F3JV+V7 Birmingham, United Kingdom", "global_code": "9C4WF3JV+V7"}, "rating": 3.8, "reference": "ChIJGwKO3vK8cEgRsPC0Jx_iwJg", "scope": "GOOGLE", "types": ["bar", "restaurant", "food", "point_of_interest", "establishment"], "user_ratings_total": 162, "vicinity": "27 Fleet St, Birmingham"}, {"business_status": "OPERATIONAL", "geometry": {"location": {"lat": 52.4823721, "lng": -1.9002751}, "viewport": {"northeast": {"lat": 52.48362862989273, "lng": -1.898851120107278}, "southwest": {"lat": 52.48092897010729, "lng": -1.901550779892723}}}, "icon": "https://maps.gstatic.com/mapfiles/place_api/icons/v1/png_71/lodging-71.png", "icon_background_color": "#909CE1", "icon_mask_base_uri": "https://maps.gstatic.com/mapfiles/place_api/icons/v2/hotel_pinlet", "name": "Hotel du Vin Birmingham", "opening_hours": {"open_now": true}, "photos": [{"height": 848, "html_attributions": ["<a href=\"https://maps.google.com/maps/contrib/117449434244555581688\">A Google User</a>"], "photo_reference": "AUc7tXUmdogUFxL5keinkggmhNS5SHUhuXOSueF6nT2DLNhbtpPzFMFyoMM95xbtslUEda5YObXNIcvEqDySigTn-0ZYFsUuU46XeTxEyEcsY4MWo0LFHyNOVBbUlo-LBi_9Y1deKVnDjhMxDC2oMA9ZmU68VxADzbnIOoG9WIiG5m9ebXlT", "width": 1059}], "place_id": "ChIJJw6Xf3S9cEgRly7fAu89Duk", "plus_code": {"compound_code": "F3JX+WV Birmingham, United Kingdom", "global_code": "9C4WF3JX+WV"}, "rating": 4.3, "reference": "ChIJJw6Xf3S9cEgRly7fAu89Duk", "scope": "GOOGLE", "types": ["lodging", "bar", "restaurant", "food", "point_of_interest", "establishment"], "user_ratings_total": 1503, "vicinity": "25 Church St, Birmingham"}, {"business_status": "OPERATIONAL", "geometry": {"location": {"lat": 52.4854584, "lng": -1.904542}, "viewport": {"northeast": {"lat": 52.48677077989272, "lng": -1.903243220107278}, "southwest": {"lat": 52.48407112010727, "lng": -1.905942879892722}}}, "icon": "https://maps.gstatic.com/mapfiles/place_api/icons/v1/png_71/restaurant-71.png", "icon_background_color": "#FF9E67", "icon_mask_base_uri": "https://maps.gstatic.com/mapfiles/place_api/icons/v2/restaurant_pinlet", "name": "Notty Bites Street Food", "opening_hours": {"open_now": true}, "photos": [{"height": 4032, "html_attributions": ["<a href=\"https://maps.google.com/maps/contrib/108978648858208949576\">David Clarke</a>"], "photo_reference": "AUc7tXVAA3Rs3K0g3_vE_a9hG8CnxYqOUZcLCVrCzIl8y8Yem_5J8RBDavtdLpYchju1-i9bmvUS1KYmRLayHFL-TgbG13cPRt87YjKq4vbzwnM080ajQRo-nDjbPDXQ0xrYevNqmeJ6zHMTKM1DZanxOEy8Mnii-_c8XG9mymXR9ANLOcLN", "width": 3024}], "place_id": "ChIJP_qXWPW9cEgRc0YKY_EpZN4", "plus_code": {"compound_code": "F3PW+55 Birmingham, United Kingdom", "global_code": "9C4WF3PW+55"}, "rating": 4.9, "reference": "ChIJP_qXWPW9cEgRc0YKY_EpZN4", "scope": "GOOGLE", "types": ["bar", "restaurant", "food", "point_of_interest", "establishment"], "user_ratings_total": 30, "vicinity": "Somewhere in Brum, 30 Mary Ann St, Birmingham"}, {"business_status": "OPERATIONAL", "geometry": {"location": {"lat": 52.4749955, "lng": -1.9065876}, "viewport": {"northeast": {"lat": 52.47625842989272, "lng": -1.905149470107278}, "southwest": {"lat": 52.47355877010728, "lng": -1.907849129892723}}}, "icon": "https://maps.gstatic.com/mapfiles/place_api/icons/v1/png_71/restaurant-71.png", "icon_background_color": "#FF9E67", "icon_mask_base_uri": "https://maps.gstatic.com/mapfiles/place_api/icons/v2/restaurant_pinlet", "name": "Marco Pierre White Steakhouse, Bar & Grill Birmingham", "opening_hours": {"open_now": true}, "photos": [{"height": 2736, "html_attributions": ["<a href=\"https://maps.google.com/maps/contrib/102679672472645376576\">Graham Robson</a>"], "photo_reference": "AUc7tXUVnI5CrZMsRDsKElTRAJryHQrZw6h8ycAMckdXrQxvFRJ3UtyMkKfFO80A4PIRpxBOezgNeCCj7aGS_mbXo4l4i1vLC9xg7h-H1P4U0b59tgApII2T_1-gNJRwEPFo9-2CCKt4oY2rvASnmBBuCo25Ipl5sPF2UAH6DG2UWCocvr8J", "width": 3648}], "place_id": "ChIJ_47PQfW8cEgRYqx2fkaQMyU", "plus_code": {"compound_code": "F3FV+X9 Birmingham, United Kingdom", "global_code": "9C4WF3FV+X9"}, "price_level": 3, "rating": 3.8, "reference": "ChIJ_47PQfW8cEgRYqx2fkaQMyU", "scope": "GOOGLE", "types": ["bar", "restaurant", "food", "point_of_interest", "establishment"], "user_ratings_total": 4604, "vicinity": "The Cube, 200 Wharfside St, Birmingham"}, {"business_status": "OPERATIONAL", "geometry": {"location": {"lat": 52.4958942, "lng": -1.913089}, "viewport": {"northeast": {"lat": 52.49722837989272, "lng": -1.911729820107278}, "southwest": {"lat": 52.49452872010728, "lng": -1.914429479892722}}}, "icon": "https://maps.gstatic.com/mapfiles/place_api/icons/v1/png_71/bar-71.png", "icon_background_color": "#FF9E67", "icon_mask_base_uri": "https://maps.gstatic.com/mapfiles/place_api/icons/v2/bar_pinlet", "name": "SKYE LOUNGE", "opening_hours": {"open_now": false}, "photos": [{"height": 4032, "html_attributions": ["<a href=\"https://maps.google.com/maps/contrib/110980684488387417089\">Senanayaka Bandara</a>"], "photo_reference": "AUc7tXWtf0JXP8rC3ejxPR8lo93lPYw9NcNrt9q89hGxVl2lzL9o6PGAcKNr6FuGYi0S2mhRmtYMDkSIFD1lzeaYjn8m2QjFJGetaxV2nTrnsPve7o0JqBaUKAImIZau_LsXfmAkhRIWvfDIKtMWKIzDXWp5-8lPJxIrM5EncVojHmq8fWn3", "width": 2268}], "place_id": "ChIJSYnMfD-9cEgR5ExxHzP_3r8", "plus_code": {"compound_code": "F3WP+9Q Birmingham, United Kingdom", "global_code": "9C4WF3WP+9Q"}, "rating": 0, "reference": "ChIJSYnMfD-9cEgR5ExxHzP_3r8", "scope": "GOOGLE", "types": ["bar", "restaurant", "food", "point_of_interest", "establishment"], "user_ratings_total": 0, "vicinity": "381 Farm St, Birmingham"}]