[{"business_status": "OPERATIONAL", "geometry": {"location": {"lat": 53.3383378, "lng": -6.5400161}, "viewport": {"northeast": {"lat": 53.33966232989273, "lng": -6.538691920107278}, "southwest": {"lat": 53.33696267010728, "lng": -6.541391579892721}}}, "icon": "https://maps.gstatic.com/mapfiles/place_api/icons/v1/png_71/bar-71.png", "icon_background_color": "#FF9E67", "icon_mask_base_uri": "https://maps.gstatic.com/mapfiles/place_api/icons/v2/bar_pinlet", "name": "The Village Inn Pub", "opening_hours": {"open_now": true}, "photos": [{"height": 3480, "html_attributions": ["<a href=\"https://maps.google.com/maps/contrib/107346264824012762787\">Wojciech Pikor</a>"], "photo_reference": "AUc7tXXjxU_jAPHzI84QVTdzZz3-fyuMtmezJiY-vULw5lo63twXeQLGLEkMuIHJaO9OvBA17BDKvVeOHnhsNCbRgo8UWepGfrqzXnnGmsWMlF-6yyvt0sVCY8lT2uq4GOrh1_pFiiloYvOo7MshlkWSi9IgYuAeMW_hUlrIrLalwk2BBPPq", "width": 4640}], "place_id": "ChIJV5H03gZxZ0gR5sKqNeQCTuI", "plus_code": {"compound_code": "8FQ5+8X Celbridge, County Kildare, Ireland", "global_code": "9C5M8FQ5+8X"}, "price_level": 2, "rating": 4.6, "reference": "ChIJV5H03gZxZ0gR5sKqNeQCTuI", "scope": "GOOGLE", "types": ["bar", "restaurant", "food", "point_of_interest", "establishment"], "user_ratings_total": 1069, "vicinity": "Main St, Celbridge"}, {"business_status": "OPERATIONAL", "geometry": {"location": {"lat": 53.3402136, "lng": -6.538260999999999}, "viewport": {"northeast": {"lat": 53.34155252989272, "lng": -6.536878770107277}, "southwest": {"lat": 53.33885287010727, "lng": -6.539578429892722}}}, "icon": "https://maps.gstatic.com/mapfiles/place_api/icons/v1/png_71/bar-71.png", "icon_background_color": "#FF9E67", "icon_mask_base_uri": "https://maps.gstatic.com/mapfiles/place_api/icons/v2/bar_pinlet", "name": "The Castletown Inn", "opening_hours": {"open_now": false}, "photos": [{"height": 3024, "html_attributions": ["<a href=\"https://maps.google.com/maps/contrib/100775893923172173412\">A Google User</a>"], "photo_reference": "AUc7tXXc0Ty0vPqFZaCer3LzoI1ybJ-wv3DCGL9W99JICcFbOjqp4I8hcktcizaYgkzFzef1v3rtCY0GNWqwpFmZWEcaIT8beZ5rL-g-EtuQSQm8AXX7Ko37RU1-TtL5k0yK6BYoAKtxGUkueRWnbxtdjZjHOBpRgT06_mfQK6ZD6C4Yu-tZ", "width": 4032}], "place_id": "ChIJRzwyhQdxZ0gRFwk49Lk12KM", "plus_code": {"compound_code": "8FR6+3M Celbridge, County Kildare, Ireland", "global_code": "9C5M8FR6+3M"}, "price_level": 2, "rating": 4.3, "reference": "ChIJRzwyhQdxZ0gRFwk49Lk12KM", "scope": "GOOGLE", "types": ["bar", "restaurant", "food", "point_of_interest", "establishment"], "user_ratings_total": 725, "vicinity": "Main St, Celbridge"}, {"business_status": "OPERATIONAL", "geometry": {"location": {"lat": 53.3379456, "lng": -6.5384221}, "viewport": {"northeast": {"lat": 53.33928302989272, "lng": -6.537050420107279}, "southwest": {"lat": 53.33658337010728, "lng": -6.539750079892724}}}, "icon": "https://maps.gstatic.com/mapfiles/place_api/icons/v1/png_71/bar-71.png", "icon_background_color": "#FF9E67", "icon_mask_base_uri": "https://maps.gstatic.com/mapfiles/place_api/icons/v2/bar_pinlet", "name": "The Abbey Lodge", "opening_hours": {"open_now": true}, "photos": [{"height": 2250, "html_attributions": ["<a href=\"https://maps.google.com/maps/contrib/116508378982989716607\">Br Uno</a>"], "photo_reference": "AUc7tXW-8lHAni62VU2mAGzmOydEi_ps9n7_Ere04K5CDjglhWIpjwzDD3z2A9rWN-ifKoY8qW4SqLNSAhSxyLAyXGU6LwuhFFQsOJ7-LMXMwRrLFVaMzFArvQwuwvBUc50WuI0nM24yQx72GItn-tB7E3ufTBCLpQKCERXz_r67WsHxRV21", "width": 4000}], "place_id": "ChIJV7uHqwlxZ0gRxFrUfpXmgeI", "plus_code": {"compound_code": "8FQ6+6J Celbridge, County Kildare, Ireland", "global_code": "9C5M8FQ6+6J"}, "price_level": 2, "rating": 4, "reference": "ChIJV7uHqwlxZ0gRxFrUfpXmgeI", "scope": "GOOGLE", "types": ["bar", "meal_takeaway", "restaurant", "food", "point_of_interest", "establishment"], "user_ratings_total": 463, "vicinity": "Dublin Rd, Donaghcumper, Celbridge"}, {"business_status": "OPERATIONAL", "geometry": {"location": {"lat": 53.3512695, "lng": -6.546585899999999}, "viewport": {"northeast": {"lat": 53.35275292989272, "lng": -6.544960020107277}, "southwest": {"lat": 53.35005327010727, "lng": -6.547659679892721}}}, "icon": "https://maps.gstatic.com/mapfiles/place_api/icons/v1/png_71/bar-71.png", "icon_background_color": "#FF9E67", "icon_mask_base_uri": "https://maps.gstatic.com/mapfiles/place_api/icons/v2/bar_pinlet", "name": "Mc Mahon\u2019s Bar and Eatery", "opening_hours": {"open_now": false}, "photos": [{"height": 3393, "html_attributions": ["<a href=\"https://maps.google.com/maps/contrib/101780638445705024910\">A Google User</a>"], "photo_reference": "AUc7tXUZD4s0_W7wgdOkExJ5bHfMG5dWctZwc0jnxzY6PgQvy8uoUEMO6VQj0ogP2EC6ST2cYAIiuuiYJLXIKyZEgPR9PzuOQXTzrLHSf2YIsl0fKdc3PdZ5UbpTvdUKq4mgf7iQ8Xc-G7aBBVzIiMMR0PCKc-mEdcSEsjdal8XOTqQFpOUR", "width": 5090}], "place_id": "ChIJ5fWCJV1xZ0gR8L3ElH4mOu4", "plus_code": {"compound_code": "9F23+G9 Celbridge, County Kildare, Ireland", "global_code": "9C5M9F23+G9"}, "price_level": 2, "rating": 4.3, "reference": "ChIJ5fWCJV1xZ0gR8L3ElH4mOu4", "scope": "GOOGLE", "types": ["bar", "restaurant", "food", "point_of_interest", "establishment"], "user_ratings_total": 661, "vicinity": "Maynooth Rd, Thornhill, Celbridge"}]