[{"business_status": "OPERATIONAL", "geometry": {"location": {"lat": 37.314367, "lng": -121.794219}, "viewport": {"northeast": {"lat": 37.31562777989271, "lng": -121.7928236201073}, "southwest": {"lat": 37.31292812010727, "lng": -121.7955232798927}}}, "icon": "https://maps.gstatic.com/mapfiles/place_api/icons/v1/png_71/restaurant-71.png", "icon_background_color": "#FF9E67", "icon_mask_base_uri": "https://maps.gstatic.com/mapfiles/place_api/icons/v2/restaurant_pinlet", "name": "Evergreen Inn & Pub", "opening_hours": {"open_now": false}, "photos": [{"height": 2988, "html_attributions": ["<a href=\"https://maps.google.com/maps/contrib/116233249836341046408\">Cindy Torrez</a>"], "photo_reference": "AUc7tXUgCDUZFMhj2cZRJOq4WaQ6x_-_EUBU6x1y_qnmJjCjHv0Zj39FPse33rS5qHroBRX1qxryX9Hl0Vp1kWKFVLvv7ALGFBiWQxvTrByokYWsNkgFvm4D1h4kRZVkHbkBV2mlM6OIoAp_OqYIs8sYtRQe7v9WtGpLEV92BhxN8hClu8My", "width": 3984}], "place_id": "ChIJu0OKC3QtjoAR-bbbgHNnb38", "plus_code": {"compound_code": "8674+P8 San Jose, California, USA", "global_code": "849W8674+P8"}, "price_level": 2, "rating": 4.4, "reference": "ChIJu0OKC3QtjoAR-bbbgHNnb38", "scope": "GOOGLE", "types": ["restaurant", "food", "point_of_interest", "establishment"], "user_ratings_total": 638, "vicinity": "3273 S White Rd, San Jose"}, {"business_status": "OPERATIONAL", "geometry": {"location": {"lat": 37.3154392, "lng": -121.7916452}, "viewport": {"northeast": {"lat": 37.31668542989272, "lng": -121.7902660701073}, "southwest": {"lat": 37.31398577010728, "lng": -121.7929657298927}}}, "icon": "https://maps.gstatic.com/mapfiles/place_api/icons/v1/png_71/restaurant-71.png", "icon_background_color": "#FF9E67", "icon_mask_base_uri": "https://maps.gstatic.com/mapfiles/place_api/icons/v2/restaurant_pinlet", "name": "Round Table Pizza", "opening_hours": {"open_now": true}, "photos": [{"height": 3024, "html_attributions": ["<a href=\"https://maps.google.com/maps/contrib/110462582113824621232\">George H Rocha</a>"], "photo_reference": "AUc7tXVw_wmGlbZwZb8tIwolksfLGpW0mjR-KovVPHMdQ93K9nk9zhn59rDsklCB2SlmXnK0MP-U35-zYWgcmXs6cwF1REFU9wkgxEuGJ8bILHeDVnD7apoK4tlC-XwDXGE9-rwfRsJGyPopys1Pe1AtRVnjfLU8uIddy_X6efPHKcLrASWD", "width": 4032}], "place_id": "ChIJhUzc6HMtjoARPNq-mx-DN-8", "plus_code": {"compound_code": "8685+58 San Jose, California, USA", "global_code": "849W8685+58"}, "price_level": 2, "rating": 3.6, "reference": "ChIJhUzc6HMtjoARPNq-mx-DN-8", "scope": "GOOGLE", "types": ["meal_delivery", "meal_takeaway", "restaurant", "food", "point_of_interest", "establishment"], "user_ratings_total": 242, "vicinity": "3212 S White Rd, San Jose"}, {"business_status": "OPERATIONAL", "geometry": {"location": {"lat": 37.3120344, "lng": -121.8098362}, "viewport": {"northeast": {"lat": 37.31354102989273, "lng": -121.8083817701073}, "southwest": {"lat": 37.31084137010728, "lng": -121.8110814298927}}}, "icon": "https://maps.gstatic.com/mapfiles/place_api/icons/v1/png_71/restaurant-71.png", "icon_background_color": "#FF9E67", "icon_mask_base_uri": "https://maps.gstatic.com/mapfiles/place_api/icons/v2/restaurant_pinlet", "name": "Mountain Mike's Pizza", "opening_hours": {"open_now": true}, "photos": [{"height": 1944, "html_attributions": ["<a href=\"https://maps.google.com/maps/contrib/106757021092508371734\">Lawrence Marwong</a>"], "photo_reference": "AUc7tXX8eu0s7vnBcTEIPE3w0xf-4manblnNN9BBo-WxmJxSSDu5aaCwGAIhoGCYn2U0Sl2lMKG6bak7x-ADzs-OW2a44Uuy9kHTZhgnTtiaZa7hBBTGiSF2I-anpGXt_RTG0YxEdq-8NvzVKgn1K8r0Uyb3MvLaNtnuDs5oCo0GmPeIG9Rq", "width": 2592}], "place_id": "ChIJ_0nCgH0tjoARqLlEbh4rPug", "plus_code": {"compound_code": "856R+R3 San Jose, California, USA", "global_code": "849W856R+R3"}, "price_level": 2, "rating": 3.7, "reference": "ChIJ_0nCgH0tjoARqLlEbh4rPug", "scope": "GOOGLE", "types": ["meal_delivery", "meal_takeaway", "restaurant", "food", "point_of_interest", "establishment"], "user_ratings_total": 184, "vicinity": "2938 Aborn Sq, San Jose"}, {"business_status": "OPERATIONAL", "geometry": {"location": {"lat": 37.311066, "lng": -121.807636}, "viewport": {"northeast": {"lat": 37.31219932989272, "lng": -121.8063542201073}, "southwest": {"lat": 37.30949967010728, "lng": -121.8090538798927}}}, "icon": "https://maps.gstatic.com/mapfiles/place_api/icons/v1/png_71/restaurant-71.png", "icon_background_color": "#FF9E67", "icon_mask_base_uri": "https://maps.gstatic.com/mapfiles/place_api/icons/v2/restaurant_pinlet", "name": "Red Lobster", "opening_hours": {"open_now": true}, "photos": [{"height": 3024, "html_attributions": ["<a href=\"https://maps.google.com/maps/contrib/101766765907249615956\">Larry Suen</a>"], "photo_reference": "AUc7tXU8-2S602TilAU3EJIsdsSVPTz1SjN9huQLG7gI90h49lLtbeHlUC3dTUOrD3GBHJK5GJ__XNkIF0MehKmdibPsxqQ_-raebHgebpmtc3U2mK44TNcAzdnPuMj4_1dDSABo9KoWFvSNAXyUCsOOyj2B1InZSNkfGzwvxL-3cs1qDTMI", "width": 4032}], "place_id": "ChIJn0-PgX4tjoARpmcLmaf2vj8", "plus_code": {"compound_code": "856R+CW San Jose, California, USA", "global_code": "849W856R+CW"}, "price_level": 2, "rating": 4.1, "reference": "ChIJn0-PgX4tjoARpmcLmaf2vj8", "scope": "GOOGLE", "types": ["restaurant", "food", "point_of_interest", "establishment"], "user_ratings_total": 1576, "vicinity": "RIGHT OFF THE CAPITAL EXPRESSWAY, 2040 Aborn Rd, San Jose"}, {"business_status": "OPERATIONAL", "geometry": {"location": {"lat": 37.3195168, "lng": -121.8236444}, "viewport": {"northeast": {"lat": 37.32088767989273, "lng": -121.8223058701073}, "southwest": {"lat": 37.31818802010729, "lng": -121.8250055298927}}}, "icon": "https://maps.gstatic.com/mapfiles/place_api/icons/v1/png_71/restaurant-71.png", "icon_background_color": "#FF9E67", "icon_mask_base_uri": "https://maps.gstatic.com/mapfiles/place_api/icons/v2/restaurant_pinlet", "name": "Pho 21", "opening_hours": {"open_now": true}, "photos": [{"height": 3024, "html_attributions": ["<a href=\"https://maps.google.com/maps/contrib/112828879679402860564\">A Google User</a>"], "photo_reference": "AUc7tXUGuw-xf-XkNIb9B723Wwug_x5jYOqjIOxx3x6IzjOuINGCi93Ddro42jBOiOGHw-Qyo0Rzw3cyib3ChVVUSIZCKTmW4YIgwubvVddsFVqIdIpa1NsOtX4veOSgGofnuM_Jkgg0mJm_T-XFLGHtpLCHKovu6FXnrv2AztBg3mmn99BI", "width": 4032}], "place_id": "ChIJsWad6pcyjoARN3m71HB87mA", "plus_code": {"compound_code": "859G+QH San Jose, California, USA", "global_code": "849W859G+QH"}, "price_level": 1, "rating": 4.2, "reference": "ChIJsWad6pcyjoARN3m71HB87mA", "scope": "GOOGLE", "types": ["restaurant", "food", "point_of_interest", "establishment"], "user_ratings_total": 392, "vicinity": "2569 S King Rd, San Jose"}, {"business_status": "OPERATIONAL", "geometry": {"location": {"lat": 37.279305, "lng": -121.83352}, "viewport": {"northeast": {"lat": 37.28058737989272, "lng": -121.8321389201073}, "southwest": {"lat": 37.27788772010728, "lng": -121.8348385798927}}}, "icon": "https://maps.gstatic.com/mapfiles/place_api/icons/v1/png_71/restaurant-71.png", "icon_background_color": "#FF9E67", "icon_mask_base_uri": "https://maps.gstatic.com/mapfiles/place_api/icons/v2/restaurant_pinlet", "name": "Mountain Mike's Pizza", "opening_hours": {"open_now": true}, "photos": [{"height": 2988, "html_attributions": ["<a href=\"https://maps.google.com/maps/contrib/111273669473898753070\">Jerry m</a>"], "photo_reference": "AUc7tXWQDE3cc9LNQF0SHErVx2YLh6sve1ZIIB9VA4hmfPe664GhlHN5KsrsQX8YSc1R-epuyUU9_kRZasuyPbfwIoKRi1lvByer6ELTe_2ayY68OKScpIvY0aFhuha8mIv5mRE9w_KiTTjZ0hn1ZBSPlEk3bOgR5vvnWV9gchC_oD7QpZHR", "width": 3984}], "place_id": "ChIJARvFjT8yjoARwCuhIEssy9I", "plus_code": {"compound_code": "75H8+PH San Jose, California, USA", "global_code": "849W75H8+PH"}, "price_level": 2, "rating": 4.2, "reference": "ChIJARvFjT8yjoARwCuhIEssy9I", "scope": "GOOGLE", "types": ["meal_delivery", "meal_takeaway", "restaurant", "food", "point_of_interest", "establishment"], "user_ratings_total": 253, "vicinity": "4116 Monterey Rd, San Jose"}, {"business_status": "OPERATIONAL", "geometry": {"location": {"lat": 37.3110151, "lng": -121.8090329}, "viewport": {"northeast": {"lat": 37.31225827989272, "lng": -121.8077441701073}, "southwest": {"lat": 37.30955862010727, "lng": -121.8104438298927}}}, "icon": "https://maps.gstatic.com/mapfiles/place_api/icons/v1/png_71/restaurant-71.png", "icon_background_color": "#FF9E67", "icon_mask_base_uri": "https://maps.gstatic.com/mapfiles/place_api/icons/v2/restaurant_pinlet", "name": "Wendy's", "opening_hours": {"open_now": true}, "photos": [{"height": 2448, "html_attributions": ["<a href=\"https://maps.google.com/maps/contrib/103757649549093663661\">Jr Rios</a>"], "photo_reference": "AUc7tXXps4HHIZ9aRFKZtF-RsSlhptANGO3TqnZXJhM2584wLh7pDosaOYbNCyK6055ITbWmDiOPdBJeD74JSwMezYTvfvfNaEH6CSHsB145eS5UReKd-bmg1V-2gOWXChMTZFw7X6uBMQ5E26E1Kg3LBzB8sKAvGZc5Y07yrOrXDX1pIIAS", "width": 3264}], "place_id": "ChIJNfL23H0tjoARI6V5ZF7Y3GA", "plus_code": {"compound_code": "856R+C9 San Jose, California, USA", "global_code": "849W856R+C9"}, "price_level": 1, "rating": 3.5, "reference": "ChIJNfL23H0tjoARI6V5ZF7Y3GA", "scope": "GOOGLE", "types": ["restaurant", "food", "point_of_interest", "establishment"], "user_ratings_total": 950, "vicinity": "1845 E Capitol Expy, San Jose"}, {"business_status": "OPERATIONAL", "geometry": {"location": {"lat": 37.2885064, "lng": -121.7817407}, "viewport": {"northeast": {"lat": 37.28990362989272, "lng": -121.7802873701073}, "southwest": {"lat": 37.28720397010728, "lng": -121.7829870298928}}}, "icon": "https://maps.gstatic.com/mapfiles/place_api/icons/v1/png_71/restaurant-71.png", "icon_background_color": "#FF9E67", "icon_mask_base_uri": "https://maps.gstatic.com/mapfiles/place_api/icons/v2/restaurant_pinlet", "name": "The Creek Eatery", "opening_hours": {"open_now": true}, "photos": [{"height": 3120, "html_attributions": ["<a href=\"https://maps.google.com/maps/contrib/116557975526006352716\">orland cast</a>"], "photo_reference": "AUc7tXWneqPpQT40W5MdLxsiFo6YVLGTpGs3CuI3XkaM7jNaT98GceUWcsoz-vyuahj9IsJ8BeKcLbVto57x5DEZ45wC1yjFdotAqboJy4bpre_RDxpvPT1zrOjoHsRdUnFtgT8ktEJE1FOxUFWUa-kuXAtFTDz3lI6S-5WFp5QY18pwDXBh", "width": 4160}], "place_id": "ChIJfw0sbsQtjoARZNnoareJ1qI", "plus_code": {"compound_code": "76Q9+C8 San Jose, California, USA", "global_code": "849W76Q9+C8"}, "price_level": 2, "rating": 4.4, "reference": "ChIJfw0sbsQtjoARZNnoareJ1qI", "scope": "GOOGLE", "types": ["restaurant", "food", "point_of_interest", "establishment"], "user_ratings_total": 324, "vicinity": "5623 Silver Creek Valley Rd, San Jose"}]