[{"business_status": "OPERATIONAL", "geometry": {"location": {"lat": 52.407995, "lng": -1.5158944}, "viewport": {"northeast": {"lat": 52.40944917989271, "lng": -1.514689570107278}, "southwest": {"lat": 52.40674952010727, "lng": -1.517389229892722}}}, "icon": "https://maps.gstatic.com/mapfiles/place_api/icons/v1/png_71/bar-71.png", "icon_background_color": "#FF9E67", "icon_mask_base_uri": "https://maps.gstatic.com/mapfiles/place_api/icons/v2/bar_pinlet", "name": "Town Crier", "opening_hours": {"open_now": true}, "photos": [{"height": 486, "html_attributions": ["<a href=\"https://maps.google.com/maps/contrib/111606250327094996573\">Kitty Brown</a>"], "photo_reference": "AUc7tXUJ5Hd2Svzs0l719MvexUCDrQzcdhANpSdpggBTX6MaA9qix0rnRgcCKQsvAhqF-J31yP-35VA7fgvHOyAEV-Y_Z8CFkkIr-1auPbBjGzAm61ZbhE7CuCVxtmmyjHiXArQ0MyvU47wLcIJkd38Ojw-1PEO-xAhzp7eLzwjbCz0mBTXm", "width": 718}], "place_id": "ChIJd0rpVqRLd0gRdDl6cOHMO_8", "plus_code": {"compound_code": "CF5M+5J Coventry, United Kingdom", "global_code": "9C4WCF5M+5J"}, "price_level": 2, "rating": 4.3, "reference": "ChIJd0rpVqRLd0gRdDl6cOHMO_8", "scope": "GOOGLE", "types": ["bar", "point_of_interest", "establishment"], "user_ratings_total": 1091, "vicinity": "Corporation St, Coventry"}, {"business_status": "OPERATIONAL", "geometry": {"location": {"lat": 52.4075595, "lng": -1.5269455}, "viewport": {"northeast": {"lat": 52.40889497989272, "lng": -1.525591220107278}, "southwest": {"lat": 52.40619532010728, "lng": -1.528290879892722}}}, "icon": "https://maps.gstatic.com/mapfiles/place_api/icons/v1/png_71/bar-71.png", "icon_background_color": "#FF9E67", "icon_mask_base_uri": "https://maps.gstatic.com/mapfiles/place_api/icons/v2/bar_pinlet", "name": "Broomfield Tavern", "opening_hours": {"open_now": true}, "photos": [{"height": 1836, "html_attributions": ["<a href=\"https://maps.google.com/maps/contrib/106144352914146564129\">A Google User</a>"], "photo_reference": "AUc7tXXfrsP8UQLLqqqEU1djiyLdE--8IcQgm53S6kAIqbfojapv1AxhvlGHwo_0JCaE561lw4eyibrb-j5k2wMr6B2uHR0uIw3U_lUXkwR1FzCPlzNNVUksENjMXvp_5XmboAGWv8v2-S9bCrqLP77WMEli3B2T7GkakkF1aMMei4tyZLKl", "width": 3264}], "place_id": "ChIJPeKfswlLd0gRUfxksX_h5xQ", "plus_code": {"compound_code": "CF5F+26 Coventry, United Kingdom", "global_code": "9C4WCF5F+26"}, "price_level": 1, "rating": 4.6, "reference": "ChIJPeKfswlLd0gRUfxksX_h5xQ", "scope": "GOOGLE", "types": ["bar", "point_of_interest", "establishment"], "user_ratings_total": 502, "vicinity": "14-16 Broomfield Pl, Coventry"}, {"business_status": "OPERATIONAL", "geometry": {"location": {"lat": 52.4077953, "lng": -1.5087035}, "viewport": {"northeast": {"lat": 52.40916627989272, "lng": -1.507380270107278}, "southwest": {"lat": 52.40646662010727, "lng": -1.510079929892722}}}, "icon": "https://maps.gstatic.com/mapfiles/place_api/icons/v1/png_71/bar-71.png", "icon_background_color": "#FF9E67", "icon_mask_base_uri": "https://maps.gstatic.com/mapfiles/place_api/icons/v2/bar_pinlet", "name": "Golden Cross", "opening_hours": {"open_now": true}, "photos": [{"height": 2736, "html_attributions": ["<a href=\"https://maps.google.com/maps/contrib/105530233408411014556\">Thomas M\u00fcthing</a>"], "photo_reference": "AUc7tXWEv0zjYkq_EVQ1y9IREHH26uWou8mif34U3UpBAJUMN1_XP2CaPx0Zbenp891NLYigrZ3OG4KOw5kf2KVcqEjrHFSVJYjwgTO8wTzIr2NcncHT1x2bFT2ms1nqsj7OUoDcKKablQwgtP_CJwjhkcbPiiwqwyTStIVNvSW1Fh8ADjzm", "width": 3648}], "place_id": "ChIJzSaXsrtLd0gRrD_j9ddGAp0", "plus_code": {"compound_code": "CF5R+4G Coventry, United Kingdom", "global_code": "9C4WCF5R+4G"}, "price_level": 2, "rating": 4.4, "reference": "ChIJzSaXsrtLd0gRrD_j9ddGAp0", "scope": "GOOGLE", "types": ["bar", "restaurant", "food", "point_of_interest", "establishment"], "user_ratings_total": 1139, "vicinity": "8 Hay Ln, Coventry"}, {"business_status": "OPERATIONAL", "geometry": {"location": {"lat": 52.40974509999999, "lng": -1.5152169}, "viewport": {"northeast": {"lat": 52.41113192989273, "lng": -1.513863620107278}, "southwest": {"lat": 52.40843227010728, "lng": -1.516563279892722}}}, "icon": "https://maps.gstatic.com/mapfiles/place_api/icons/v1/png_71/bar-71.png", "icon_background_color": "#FF9E67", "icon_mask_base_uri": "https://maps.gstatic.com/mapfiles/place_api/icons/v2/bar_pinlet", "name": "Town Wall Tavern", "opening_hours": {"open_now": true}, "photos": [{"height": 1836, "html_attributions": ["<a href=\"https://maps.google.com/maps/contrib/115682149767634275160\">Gordon Tunnicliffe</a>"], "photo_reference": "AUc7tXVt-uevWKj_HvS6cnwi-Gj4hBk4fbV_s5-v14U3DNTOnhvsY0xfhBZ-V4mDmQCrGiJLOdVEElTxFlk_Az05FjhLjmuwyQpW7lAo-viYXzbonmjx20_PhohPtRFeIPSa4tjpI01CvxKMMahGATbd3cSYmc1DeBvvd_RzVH07rq6n2x7A", "width": 3264}], "place_id": "ChIJC-1shKRLd0gRqeMCC-Qg--s", "plus_code": {"compound_code": "CF5M+VW Coventry, United Kingdom", "global_code": "9C4WCF5M+VW"}, "price_level": 2, "rating": 4.5, "reference": "ChIJC-1shKRLd0gRqeMCC-Qg--s", "scope": "GOOGLE", "types": ["bar", "point_of_interest", "establishment"], "user_ratings_total": 557, "vicinity": "Bond St, Coventry"}, {"business_status": "OPERATIONAL", "geometry": {"location": {"lat": 52.4066743, "lng": -1.504038}, "viewport": {"northeast": {"lat": 52.40807677989272, "lng": -1.502696670107278}, "southwest": {"lat": 52.40537712010728, "lng": -1.505396329892722}}}, "icon": "https://maps.gstatic.com/mapfiles/place_api/icons/v1/png_71/bar-71.png", "icon_background_color": "#FF9E67", "icon_mask_base_uri": "https://maps.gstatic.com/mapfiles/place_api/icons/v2/bar_pinlet", "name": "The Phoenix", "opening_hours": {"open_now": true}, "photos": [{"height": 3374, "html_attributions": ["<a href=\"https://maps.google.com/maps/contrib/103306212400008520933\">Kasia Wojtala</a>"], "photo_reference": "AUc7tXUkC_8SQoCZT4-1XvNVsLLtjdOhySnGryQDm-M2-XuS0eQvev7qT_SfpIQFPeXfyEAG_e9BL7nziTR13O9ssB02fDlkQzmAwO8FdY0DtIbVjVSsPklPToE0N_cfv4VnX_IEuDhxz1YggrSwrArQQZKyi6Ipcuh_8MswJqXZ9Ogp7Bo2", "width": 3024}], "place_id": "ChIJW02VSrhLd0gRu6et0yxOq6M", "plus_code": {"compound_code": "CF4W+M9 Coventry, United Kingdom", "global_code": "9C4WCF4W+M9"}, "price_level": 2, "rating": 4.3, "reference": "ChIJW02VSrhLd0gRu6et0yxOq6M", "scope": "GOOGLE", "types": ["bar", "point_of_interest", "establishment"], "user_ratings_total": 1943, "vicinity": "122 Gosford St, Coventry"}, {"business_status": "OPERATIONAL", "geometry": {"location": {"lat": 52.4082765, "lng": -1.517861}, "viewport": {"northeast": {"lat": 52.40962412989271, "lng": -1.516495870107278}, "southwest": {"lat": 52.40692447010727, "lng": -1.519195529892722}}}, "icon": "https://maps.gstatic.com/mapfiles/place_api/icons/v1/png_71/bar-71.png", "icon_background_color": "#FF9E67", "icon_mask_base_uri": "https://maps.gstatic.com/mapfiles/place_api/icons/v2/bar_pinlet", "name": "The Old Windmill", "opening_hours": {"open_now": true}, "photos": [{"height": 3024, "html_attributions": ["<a href=\"https://maps.google.com/maps/contrib/101238108137364616825\">Greg Gait</a>"], "photo_reference": "AUc7tXWAVTUXcEQEUUiXCE2ikl8Idg5oxHM_18lAGAR-uMfEnt1uMRp0RksfCHXNNgk2-xvAhuE1w7iGj5sC1jazPP9Mdim6BqkT1bfXACPWhKHZrNMJyDu2wf4ORr8VF2XEKqsf4gEwEhRieCccaDaVJRrw4bxVQ8fhve7LopvSbmvD_ImZ", "width": 4032}], "place_id": "ChIJk99KRqRLd0gRlJAtQ-GuZSM", "plus_code": {"compound_code": "CF5J+7V Coventry, United Kingdom", "global_code": "9C4WCF5J+7V"}, "price_level": 2, "rating": 4.7, "reference": "ChIJk99KRqRLd0gRlJAtQ-GuZSM", "scope": "GOOGLE", "types": ["bar", "point_of_interest", "establishment"], "user_ratings_total": 1262, "vicinity": "22 Spon St, Coventry"}, {"business_status": "OPERATIONAL", "geometry": {"location": {"lat": 52.3993371, "lng": -1.5318336}, "viewport": {"northeast": {"lat": 52.40064172989272, "lng": -1.530432820107278}, "southwest": {"lat": 52.39794207010728, "lng": -1.533132479892722}}}, "icon": "https://maps.gstatic.com/mapfiles/place_api/icons/v1/png_71/bar-71.png", "icon_background_color": "#FF9E67", "icon_mask_base_uri": "https://maps.gstatic.com/mapfiles/place_api/icons/v2/bar_pinlet", "name": "The Royal Oak", "opening_hours": {"open_now": true}, "photos": [{"height": 1836, "html_attributions": ["<a href=\"https://maps.google.com/maps/contrib/115682149767634275160\">Gordon Tunnicliffe</a>"], "photo_reference": "AUc7tXVWPShP_snaLOkAkHXiv24X2wTy1hRgQdbgbxxOUz-qO5igBAj5N7aFfjIu-4LqmxesQZK_hZLEG1rNNzteCVl-7s6t8tlSh8rmiS3BEu1_306V8bFYtoGqKWrAd1zxSZYr0kbc5F1ljp0Lvl1_h5sK11BpvtfEgxaNClDgkHCWDUVw", "width": 3264}], "place_id": "ChIJd1EU9gNLd0gRHXdHtMxj7UQ", "plus_code": {"compound_code": "9FX9+P7 Coventry, United Kingdom", "global_code": "9C4W9FX9+P7"}, "price_level": 2, "rating": 4.3, "reference": "ChIJd1EU9gNLd0gRHXdHtMxj7UQ", "scope": "GOOGLE", "types": ["bar", "point_of_interest", "establishment"], "user_ratings_total": 446, "vicinity": "22 Earlsdon St, Earlsdon, Coventry"}, {"business_status": "OPERATIONAL", "geometry": {"location": {"lat": 52.40722270000001, "lng": -1.5316499}, "viewport": {"northeast": {"lat": 52.40860462989272, "lng": -1.530350570107278}, "southwest": {"lat": 52.40590497010728, "lng": -1.533050229892722}}}, "icon": "https://maps.gstatic.com/mapfiles/place_api/icons/v1/png_71/bar-71.png", "icon_background_color": "#FF9E67", "icon_mask_base_uri": "https://maps.gstatic.com/mapfiles/place_api/icons/v2/bar_pinlet", "name": "Hearsall Inn", "opening_hours": {"open_now": true}, "photos": [{"height": 4032, "html_attributions": ["<a href=\"https://maps.google.com/maps/contrib/111788310804973456842\">Steve Sloan</a>"], "photo_reference": "AUc7tXXeHudfa2vXchxXBctmmsC85k0yantRviutHic2de_KiZiE0gOTJJ7NpN8O4CHR6UAi1mqnwxFga3NeAJdS4a-ljhC_HN-injPVUQDFatZKBF1AHu7fYb-4S4PTw4hr1NUzsgfgNjx5gmvt_6hEazNGdjuvAXInAc0qOW0fDiZ82w8-", "width": 3024}], "place_id": "ChIJKd_3GQ9Ld0gRBcALHmXTICc", "plus_code": {"compound_code": "CF49+V8 Coventry, United Kingdom", "global_code": "9C4WCF49+V8"}, "price_level": 1, "rating": 4.6, "reference": "ChIJKd_3GQ9Ld0gRBcALHmXTICc", "scope": "GOOGLE", "types": ["bar", "point_of_interest", "establishment"], "user_ratings_total": 374, "vicinity": "45 Craven St, Chapel Fields, Coventry"}, {"business_status": "OPERATIONAL", "geometry": {"location": {"lat": 52.4100489, "lng": -1.5171079}, "viewport": {"northeast": {"lat": 52.41136682989271, "lng": -1.515768970107278}, "southwest": {"lat": 52.40866717010727, "lng": -1.518468629892722}}}, "icon": "https://maps.gstatic.com/mapfiles/place_api/icons/v1/png_71/bar-71.png", "icon_background_color": "#FF9E67", "icon_mask_base_uri": "https://maps.gstatic.com/mapfiles/place_api/icons/v2/bar_pinlet", "name": "Gatehouse Tavern", "opening_hours": {"open_now": true}, "photos": [{"height": 1960, "html_attributions": ["<a href=\"https://maps.google.com/maps/contrib/114254492421538241603\">Dorin Danescu</a>"], "photo_reference": "AUc7tXXlK5Gei9QstBf8NzRo4S2OqqbUm9zTHNlFAHQjcgCj12qNruYzAqzhWx0xnXRSooxBekuwO25325svx4DyRyT2Mz7zPsngED6KWhqWBGXILqqckxWM-7fFbM4geuVypXnKlKy19ukp8ea0KTPes0qwmwcbkS7apl0BOUQc3IWTY4SF", "width": 4032}], "place_id": "ChIJtVCvyrtLd0gR5h9o7bmmGlU", "plus_code": {"compound_code": "CF6M+25 Coventry, United Kingdom", "global_code": "9C4WCF6M+25"}, "price_level": 2, "rating": 4.6, "reference": "ChIJtVCvyrtLd0gR5h9o7bmmGlU", "scope": "GOOGLE", "types": ["bar", "restaurant", "food", "point_of_interest", "establishment"], "user_ratings_total": 568, "vicinity": "44-46 Hill St, Coventry"}, {"business_status": "OPERATIONAL", "geometry": {"location": {"lat": 52.40477449999999, "lng": -1.5202053}, "viewport": {"northeast": {"lat": 52.40608067989272, "lng": -1.518841820107278}, "southwest": {"lat": 52.40338102010728, "lng": -1.521541479892722}}}, "icon": "https://maps.gstatic.com/mapfiles/place_api/icons/v1/png_71/bar-71.png", "icon_background_color": "#FF9E67", "icon_mask_base_uri": "https://maps.gstatic.com/mapfiles/place_api/icons/v2/bar_pinlet", "name": "Aardvark", "opening_hours": {"open_now": true}, "photos": [{"height": 2789, "html_attributions": ["<a href=\"https://maps.google.com/maps/contrib/103775784276787246930\">A Google User</a>"], "photo_reference": "AUc7tXVKIgfdhOjACmyYj4TiDDZ2-XGzSXvOi1thZHDaa4BV3y6Ew6ErcQJaWLjEfNrjZ_A8nxCxVeoCuVcEHKl5OAbzo-v6uOa91fKGtmRJJcj1VFBONdEsPYabC1-gpeBGBnELmXqgzGqEOFggcbTvwARzQO4weShSu1WWd6VJ8HmssykJ", "width": 3719}], "place_id": "ChIJWZkwnqhLd0gRdwkhJPSCrtI", "plus_code": {"compound_code": "CF3H+WW Coventry, United Kingdom", "global_code": "9C4WCF3H+WW"}, "price_level": 1, "rating": 4.1, "reference": "ChIJWZkwnqhLd0gRdwkhJPSCrtI", "scope": "GOOGLE", "types": ["bar", "point_of_interest", "establishment"], "user_ratings_total": 875, "vicinity": "2 Butts, Coventry"}, {"business_status": "OPERATIONAL", "geometry": {"location": {"lat": 52.4036222, "lng": -1.5263963}, "viewport": {"northeast": {"lat": 52.40502837989271, "lng": -1.525014120107278}, "southwest": {"lat": 52.40232872010727, "lng": -1.527713779892722}}}, "icon": "https://maps.gstatic.com/mapfiles/place_api/icons/v1/png_71/bar-71.png", "icon_background_color": "#FF9E67", "icon_mask_base_uri": "https://maps.gstatic.com/mapfiles/place_api/icons/v2/bar_pinlet", "name": "The New Albany Pub", "opening_hours": {"open_now": true}, "photos": [{"height": 3024, "html_attributions": ["<a href=\"https://maps.google.com/maps/contrib/107031386987024512888\">Lee Garratt</a>"], "photo_reference": "AUc7tXUcl6bsCzx06wog03lCIp3BUVRCurjZLrHmBZC85RMyIZD1GeIsUOXm8R2QULMURUokmkM6WLMOdbs4vwsuP32lP1MkoBQWuh-m06y_JW1EJUPL85g9YNUNJAlzYIq3D5Yt4LaHkcfoiIVRp1mIpaIaOUD06AsmZkhkt3RqjzXhzc8M", "width": 4032}], "place_id": "ChIJ58Cu3KRLd0gRw-gPbVZcCvM", "plus_code": {"compound_code": "CF3F+CC Coventry, United Kingdom", "global_code": "9C4WCF3F+CC"}, "rating": 4.3, "reference": "ChIJ58Cu3KRLd0gRw-gPbVZcCvM", "scope": "GOOGLE", "types": ["bar", "point_of_interest", "establishment"], "user_ratings_total": 321, "vicinity": "24 Albany Rd, Earlsdon, Coventry"}, {"business_status": "OPERATIONAL", "geometry": {"location": {"lat": 52.3941864, "lng": -1.4944013}, "viewport": {"northeast": {"lat": 52.39550867989271, "lng": -1.493216170107277}, "southwest": {"lat": 52.39280902010726, "lng": -1.495915829892722}}}, "icon": "https://maps.gstatic.com/mapfiles/place_api/icons/v1/png_71/bar-71.png", "icon_background_color": "#FF9E67", "icon_mask_base_uri": "https://maps.gstatic.com/mapfiles/place_api/icons/v2/bar_pinlet", "name": "The Royal Oak", "opening_hours": {"open_now": true}, "photos": [{"height": 4080, "html_attributions": ["<a href=\"https://maps.google.com/maps/contrib/100168180474207501943\">paul brown</a>"], "photo_reference": "AUc7tXWNs7rxZuk5heT5-Jxm2Sf___uy73lEN3TRG4vOl1dzIN3aiZM3eF5oaF7m4uZn6-gCTYL5FJoI3lDYfaXHAhWxmOvJcGuHdaV4iPII7HnBjleRjPZW6C_dJviqB2w73W3-UuWXi5_3QrMViTK4QJdC-RyXtTxtAF7pDr527-if-EC7", "width": 3060}], "place_id": "ChIJI0s8iJxJd0gRq-F_0G__nMg", "plus_code": {"compound_code": "9GV4+M6 Coventry, United Kingdom", "global_code": "9C4W9GV4+M6"}, "price_level": 2, "rating": 4.5, "reference": "ChIJI0s8iJxJd0gRq-F_0G__nMg", "scope": "GOOGLE", "types": ["bar", "restaurant", "food", "point_of_interest", "establishment"], "user_ratings_total": 273, "vicinity": "London Rd, Coventry"}, {"business_status": "OPERATIONAL", "geometry": {"location": {"lat": 52.4066503, "lng": -1.5086235}, "viewport": {"northeast": {"lat": 52.40797612989272, "lng": -1.507217820107278}, "southwest": {"lat": 52.40527647010728, "lng": -1.509917479892722}}}, "icon": "https://maps.gstatic.com/mapfiles/place_api/icons/v1/png_71/bar-71.png", "icon_background_color": "#FF9E67", "icon_mask_base_uri": "https://maps.gstatic.com/mapfiles/place_api/icons/v2/bar_pinlet", "name": "The Castle Grounds", "opening_hours": {"open_now": true}, "photos": [{"height": 3472, "html_attributions": ["<a href=\"https://maps.google.com/maps/contrib/104241058623911695841\">snezana pavlucika</a>"], "photo_reference": "AUc7tXWBulN3zHPOxHxo0MEGw09LPdrGdNMF7MNeaIuESPGQ7eKaO3Z0KeIwSgzbKEj6e5j1g8yRmX5JOHuSem2rdFQ8M3S5mSyV8kmWI6x2SBqR1FllmrtDTVM1uxXpL_ksCk6Hl-6-o4GTqwWydblrWp8i5Ep17Jpjbk3VfkF2leyRplxA", "width": 4624}], "place_id": "ChIJkYl9XrpLd0gRJSioTXuui4U", "plus_code": {"compound_code": "CF4R+MH Coventry, United Kingdom", "global_code": "9C4WCF4R+MH"}, "price_level": 2, "rating": 4.4, "reference": "ChIJkYl9XrpLd0gRJSioTXuui4U", "scope": "GOOGLE", "types": ["bar", "point_of_interest", "establishment"], "user_ratings_total": 1292, "vicinity": "7 Little Park St, Coventry"}, {"business_status": "OPERATIONAL", "geometry": {"location": {"lat": 52.3917905, "lng": -1.5141738}, "viewport": {"northeast": {"lat": 52.39315172989271, "lng": -1.512860570107278}, "southwest": {"lat": 52.39045207010727, "lng": -1.515560229892722}}}, "icon": "https://maps.gstatic.com/mapfiles/place_api/icons/v1/png_71/bar-71.png", "icon_background_color": "#FF9E67", "icon_mask_base_uri": "https://maps.gstatic.com/mapfiles/place_api/icons/v2/bar_pinlet", "name": "The Open Arms", "opening_hours": {"open_now": true}, "photos": [{"height": 1824, "html_attributions": ["<a href=\"https://maps.google.com/maps/contrib/115235269968977274064\">Nataraju CVV</a>"], "photo_reference": "AUc7tXVuwxnaemVNX70jhhqDUShs873B3mQumo9VgONC9mjihdIT0iMd0DxAvcA00MmkDJLTPUZCcG5nYo6at8IO60cP9nCtR-K5qDbz9hYTfWzHydnbjR-YyVAKRcU9PS92Wl1jNWzsVdZT8WJ49a2N8NJWBkFFTj3rudJuKSuXAUX_6pDf", "width": 4000}], "place_id": "ChIJIbDc_lJKd0gRS7mKGxXSnL4", "plus_code": {"compound_code": "9FRP+P8 Coventry, United Kingdom", "global_code": "9C4W9FRP+P8"}, "price_level": 2, "rating": 4.3, "reference": "ChIJIbDc_lJKd0gRS7mKGxXSnL4", "scope": "GOOGLE", "types": ["bar", "restaurant", "food", "point_of_interest", "establishment"], "user_ratings_total": 1019, "vicinity": "Daventry Rd, Coventry"}, {"business_status": "OPERATIONAL", "geometry": {"location": {"lat": 52.4080487, "lng": -1.4944888}, "viewport": {"northeast": {"lat": 52.40938017989273, "lng": -1.493131070107278}, "southwest": {"lat": 52.40668052010728, "lng": -1.495830729892722}}}, "icon": "https://maps.gstatic.com/mapfiles/place_api/icons/v1/png_71/bar-71.png", "icon_background_color": "#FF9E67", "icon_mask_base_uri": "https://maps.gstatic.com/mapfiles/place_api/icons/v2/bar_pinlet", "name": "Gosford Arms", "opening_hours": {"open_now": true}, "photos": [{"height": 2322, "html_attributions": ["<a href=\"https://maps.google.com/maps/contrib/110482650413295987748\">A Google User</a>"], "photo_reference": "AUc7tXV5OlKiFSL-SHLEH3EPMRixJhyogBKPaV87Nu5hfoWSQnSFz1EkrXFYB1o0lzFyJTKKSsL_7_2LkpCS7ngj0x5HtsfhG-zso0tmjagipSwbTeE-GH-f0p75AQTDRVRXUIb436EiNTDIGhNtcXxIGvWDhB4RLRuqiJRaeBvAb7J2hsj3", "width": 4128}], "place_id": "ChIJH74-hsZLd0gRgbJ822F5Ex4", "plus_code": {"compound_code": "CG54+65 Coventry, United Kingdom", "global_code": "9C4WCG54+65"}, "price_level": 1, "rating": 4.1, "reference": "ChIJH74-hsZLd0gRgbJ822F5Ex4", "scope": "GOOGLE", "types": ["bar", "point_of_interest", "establishment"], "user_ratings_total": 114, "vicinity": "65 Far Gosford St, Coventry"}, {"business_status": "OPERATIONAL", "geometry": {"location": {"lat": 52.4214699, "lng": -1.4932098}, "viewport": {"northeast": {"lat": 52.42281237989272, "lng": -1.492012320107278}, "southwest": {"lat": 52.42011272010728, "lng": -1.494711979892722}}}, "icon": "https://maps.gstatic.com/mapfiles/place_api/icons/v1/png_71/bar-71.png", "icon_background_color": "#FF9E67", "icon_mask_base_uri": "https://maps.gstatic.com/mapfiles/place_api/icons/v2/bar_pinlet", "name": "The Bricklayers Arms", "opening_hours": {"open_now": true}, "photos": [{"height": 960, "html_attributions": ["<a href=\"https://maps.google.com/maps/contrib/115881431410811987991\">Iron Bane</a>"], "photo_reference": "AUc7tXVvfOviAYFdkNCuYKw3oyuVfnXBGwiOO2EK_aaXve-yEwsZlIgsBdwZ1pOS7WFBna2uU9IERZX-0efe78qVJNiCGBDk1ALIMpX1kMyvTZsEOQ1l9b5qmS0JuavpV1DXO8HZtMnkb2Y18luf7vO-g2bJcvJFjKtA0HVAok1pula4Dt-Q", "width": 720}], "place_id": "ChIJqSW_s-5Ld0gRRnNMQUrFDM4", "plus_code": {"compound_code": "CGC4+HP Coventry, United Kingdom", "global_code": "9C4WCGC4+HP"}, "price_level": 1, "rating": 4.4, "reference": "ChIJqSW_s-5Ld0gRRnNMQUrFDM4", "scope": "GOOGLE", "types": ["bar", "point_of_interest", "establishment"], "user_ratings_total": 184, "vicinity": "26 Cromwell St, Coventry"}, {"business_status": "OPERATIONAL", "geometry": {"location": {"lat": 52.4065987, "lng": -1.5032041}, "viewport": {"northeast": {"lat": 52.40800967989273, "lng": -1.501815670107278}, "southwest": {"lat": 52.40531002010729, "lng": -1.504515329892722}}}, "icon": "https://maps.gstatic.com/mapfiles/place_api/icons/v1/png_71/bar-71.png", "icon_background_color": "#FF9E67", "icon_mask_base_uri": "https://maps.gstatic.com/mapfiles/place_api/icons/v2/bar_pinlet", "name": "Quids Inn Pub", "opening_hours": {"open_now": true}, "photos": [{"height": 1920, "html_attributions": ["<a href=\"https://maps.google.com/maps/contrib/108743042137409810621\">George Baker</a>"], "photo_reference": "AUc7tXWWbZtxP4Vfj7X3PKYIo1v6oIVaPYzIqqonzQf8kr1E4iETvvy4AeNgMNLA6-sqI96PFa15ZvVM5BZI1Ap-DCR3rCq191nTNjUn5UH9QBE3GPMGFJbUACW20H3lexpa6Vgt7pxlV7ks4CqowQ7ZUndFh9KWyp39w2NsmPx-h2GAt-vQ", "width": 1080}], "place_id": "ChIJJYU8tLlLd0gRv5CTo29qvug", "plus_code": {"compound_code": "CF4W+JP Coventry, United Kingdom", "global_code": "9C4WCF4W+JP"}, "price_level": 1, "rating": 4.1, "reference": "ChIJJYU8tLlLd0gRv5CTo29qvug", "scope": "GOOGLE", "types": ["bar", "point_of_interest", "establishment"], "user_ratings_total": 724, "vicinity": "117 Gosford St, Coventry"}, {"business_status": "OPERATIONAL", "geometry": {"location": {"lat": 52.40671529999999, "lng": -1.5330069}, "viewport": {"northeast": {"lat": 52.40805572989272, "lng": -1.531632020107278}, "southwest": {"lat": 52.40535607010727, "lng": -1.534331679892722}}}, "icon": "https://maps.gstatic.com/mapfiles/place_api/icons/v1/png_71/bar-71.png", "icon_background_color": "#FF9E67", "icon_mask_base_uri": "https://maps.gstatic.com/mapfiles/place_api/icons/v2/bar_pinlet", "name": "The Craven Arms", "opening_hours": {"open_now": true}, "photos": [{"height": 4032, "html_attributions": ["<a href=\"https://maps.google.com/maps/contrib/100228034291858483275\">A Google User</a>"], "photo_reference": "AUc7tXUiqBmnTcVmnphBHrtp7URM8NIWizGP2WvCqxIaX7oAaqHV28ZwMSmsbxpPjZGizU_fXVMucXZsiWz-zUR96xpx9FFPAnSJsc6GVVzr-BXrbRteXJnrj8cdzXlg2qHRpdlV4fhaJ575ZuetU6ISKiVjBV39XPca4u7nqw8J8NIoCiN3", "width": 3024}], "place_id": "ChIJuYMCGg9Ld0gRXKbS0Wa-tQ0", "plus_code": {"compound_code": "CF48+MQ Coventry, United Kingdom", "global_code": "9C4WCF48+MQ"}, "price_level": 2, "rating": 4.4, "reference": "ChIJuYMCGg9Ld0gRXKbS0Wa-tQ0", "scope": "GOOGLE", "types": ["bar", "point_of_interest", "establishment"], "user_ratings_total": 227, "vicinity": "58 Craven St, Coventry"}, {"business_status": "OPERATIONAL", "geometry": {"location": {"lat": 52.4145026, "lng": -1.5320868}, "viewport": {"northeast": {"lat": 52.41571682989272, "lng": -1.530866020107278}, "southwest": {"lat": 52.41301717010728, "lng": -1.533565679892722}}}, "icon": "https://maps.gstatic.com/mapfiles/place_api/icons/v1/png_71/bar-71.png", "icon_background_color": "#FF9E67", "icon_mask_base_uri": "https://maps.gstatic.com/mapfiles/place_api/icons/v2/bar_pinlet", "name": "The Holyhead", "opening_hours": {"open_now": true}, "photos": [{"height": 2268, "html_attributions": ["<a href=\"https://maps.google.com/maps/contrib/111068594236396037767\">Danutz Habarnuam</a>"], "photo_reference": "AUc7tXXR9koiGXQl9bLvnxKuiXhif1j1UaGxkqGzqcLS7IAy5QY9FVyjd7kCIrw-mZIFAECnb9wuo4kci-4gLCDJ-xaT-uHLe_p3W3tnSAi03UD65UJYZXaT9XbCZpEhucXBNL2gBAV4uVUQuxyH7Mfzdl_4qYpgxLzCe9Nr40eJ8nBKNtf8", "width": 4032}], "place_id": "ChIJ0-WM0QxLd0gRBZ8z0qhqXMQ", "plus_code": {"compound_code": "CF79+R5 Coventry, United Kingdom", "global_code": "9C4WCF79+R5"}, "price_level": 2, "rating": 4, "reference": "ChIJ0-WM0QxLd0gRBZ8z0qhqXMQ", "scope": "GOOGLE", "types": ["bar", "restaurant", "food", "point_of_interest", "establishment"], "user_ratings_total": 1488, "vicinity": "Holyhead Rd, Coventry"}, {"business_status": "OPERATIONAL", "geometry": {"location": {"lat": 52.40796599999999, "lng": -1.5308438}, "viewport": {"northeast": {"lat": 52.40933532989272, "lng": -1.529586270107278}, "southwest": {"lat": 52.40663567010727, "lng": -1.532285929892722}}}, "icon": "https://maps.gstatic.com/mapfiles/place_api/icons/v1/png_71/bar-71.png", "icon_background_color": "#FF9E67", "icon_mask_base_uri": "https://maps.gstatic.com/mapfiles/place_api/icons/v2/bar_pinlet", "name": "Craven Street Club", "opening_hours": {"open_now": true}, "photos": [{"height": 2048, "html_attributions": ["<a href=\"https://maps.google.com/maps/contrib/100666061791873776487\">A Google User</a>"], "photo_reference": "AUc7tXXrUc5U5ybSdZK1Ic-pZdQ3Htd17yh7j1JbsxtqGjSVbVGYqa1R_KleDiYX4p6-er4ZdshuS5ZWH_fiSHJuWIburaXbaTt1SFwVV1AKwBvPNGtSw2-2Agmotrlm46Bdq610bU-zqV1JEBIxPz80qAx37-QMjDOJSnAFMyw3S5d78PiU", "width": 1536}], "place_id": "ChIJtVCvyrtLd0gRX_yLMGEDVPI", "plus_code": {"compound_code": "CF59+5M Coventry, United Kingdom", "global_code": "9C4WCF59+5M"}, "rating": 4.5, "reference": "ChIJtVCvyrtLd0gRX_yLMGEDVPI", "scope": "GOOGLE", "types": ["bar", "restaurant", "food", "point_of_interest", "establishment"], "user_ratings_total": 92, "vicinity": "3-5 Craven St, Coventry"}, {"business_status": "OPERATIONAL", "geometry": {"location": {"lat": 52.4027714, "lng": -1.534047}, "viewport": {"northeast": {"lat": 52.40420497989272, "lng": -1.532633920107278}, "southwest": {"lat": 52.40150532010728, "lng": -1.535333579892722}}}, "icon": "https://maps.gstatic.com/mapfiles/place_api/icons/v1/png_71/bar-71.png", "icon_background_color": "#FF9E67", "icon_mask_base_uri": "https://maps.gstatic.com/mapfiles/place_api/icons/v2/bar_pinlet", "name": "The Old Clarence", "opening_hours": {"open_now": true}, "photos": [{"height": 2268, "html_attributions": ["<a href=\"https://maps.google.com/maps/contrib/102356753997055299935\">Jarrett Kinson</a>"], "photo_reference": "AUc7tXVQVZp5iwru4X3ASfX5uVbR0dC5_VZcbe1JtUyU8734LgpnRMNFgfSLRtESNjRdWG5NcwkQtc5Af4itPPqJJoVynCmEr3QaGan7RHbLyUCzG9kVk6-T3FEWxHbYAjda6_-F3Pv3CtGr7L03nWjQDkQm2FiQQ4wwDYZwv-kWBe8UNu15", "width": 4032}], "place_id": "ChIJuXs7CAVLd0gRQqCGhYpEdI4", "plus_code": {"compound_code": "CF38+49 Coventry, United Kingdom", "global_code": "9C4WCF38+49"}, "price_level": 1, "rating": 4.2, "reference": "ChIJuXs7CAVLd0gRQqCGhYpEdI4", "scope": "GOOGLE", "types": ["bar", "restaurant", "food", "point_of_interest", "establishment"], "user_ratings_total": 483, "vicinity": "Earlsdon Ave N, Coventry"}, {"business_status": "OPERATIONAL", "geometry": {"location": {"lat": 52.4067478, "lng": -1.5058788}, "viewport": {"northeast": {"lat": 52.40813662989272, "lng": -1.504532120107278}, "southwest": {"lat": 52.40543697010728, "lng": -1.507231779892722}}}, "icon": "https://maps.gstatic.com/mapfiles/place_api/icons/v1/png_71/bar-71.png", "icon_background_color": "#FF9E67", "icon_mask_base_uri": "https://maps.gstatic.com/mapfiles/place_api/icons/v2/bar_pinlet", "name": "Ivy House", "opening_hours": {"open_now": true}, "photos": [{"height": 1960, "html_attributions": ["<a href=\"https://maps.google.com/maps/contrib/107327100529062054847\">steve chandar</a>"], "photo_reference": "AUc7tXVnEKxTzsjCj8qKMy7bPcnzfj0r4ZR1G3O4JkLQYKvFILL0M2nz_ZHqouYh5coKrAk_ojlXaayFX9ANSwZTj3oedr76JUQCrk24zb4QSsgDJCbjl2QQJcCp3mbJn90awHHHI1B2HmsMpkj0IWk4dlvNLfPUBeUJiDI61hCGkj63fw2X", "width": 4032}], "place_id": "ChIJf2cYvrlLd0gR6RSZNfXsNmc", "plus_code": {"compound_code": "CF4V+MJ Coventry, United Kingdom", "global_code": "9C4WCF4V+MJ"}, "price_level": 2, "rating": 4.1, "reference": "ChIJf2cYvrlLd0gR6RSZNfXsNmc", "scope": "GOOGLE", "types": ["bar", "restaurant", "food", "point_of_interest", "establishment"], "user_ratings_total": 391, "vicinity": "44 Jordan Wl, Coventry"}, {"business_status": "OPERATIONAL", "geometry": {"location": {"lat": 52.407134, "lng": -1.5086148}, "viewport": {"northeast": {"lat": 52.40848422989272, "lng": -1.507174220107278}, "southwest": {"lat": 52.40578457010728, "lng": -1.509873879892722}}}, "icon": "https://maps.gstatic.com/mapfiles/place_api/icons/v1/png_71/bar-71.png", "icon_background_color": "#FF9E67", "icon_mask_base_uri": "https://maps.gstatic.com/mapfiles/place_api/icons/v2/bar_pinlet", "name": "The Earl of Mercia - JD Wetherspoon", "opening_hours": {"open_now": true}, "photos": [{"height": 3000, "html_attributions": ["<a href=\"https://maps.google.com/maps/contrib/100622780169582439741\">John Winterbottom</a>"], "photo_reference": "AUc7tXWk3XqNkFip2lLkSAT2oXAToVjcsb23CbYZJYGJLEENcMGOe01NCU_p-LwubeuagHTyntjRw7o5B2n_TcQQnnpuHWEPNx6W__69L_AX_w-T45_nCoL0OlJJaExAJVIiV6LWVmswHpIMyWVWwNljPY-pgilAYoJYi_w_xweYKrUkzx1E", "width": 4000}], "place_id": "ChIJZ-5KULpLd0gR9q2Pjmo08U0", "plus_code": {"compound_code": "CF4R+VH Coventry, United Kingdom", "global_code": "9C4WCF4R+VH"}, "price_level": 1, "rating": 4.2, "reference": "ChIJZ-5KULpLd0gR9q2Pjmo08U0", "scope": "GOOGLE", "types": ["bar", "restaurant", "food", "point_of_interest", "establishment"], "user_ratings_total": 2580, "vicinity": "18 High St, Coventry"}, {"business_status": "OPERATIONAL", "geometry": {"location": {"lat": 52.4080009, "lng": -1.5097477}, "viewport": {"northeast": {"lat": 52.40918792989272, "lng": -1.508656770107278}, "southwest": {"lat": 52.40648827010728, "lng": -1.511356429892722}}}, "icon": "https://maps.gstatic.com/mapfiles/place_api/icons/v1/png_71/restaurant-71.png", "icon_background_color": "#FF9E67", "icon_mask_base_uri": "https://maps.gstatic.com/mapfiles/place_api/icons/v2/restaurant_pinlet", "name": "The Botanist Bar & Restaurant Coventry", "opening_hours": {"open_now": true}, "photos": [{"height": 3024, "html_attributions": ["<a href=\"https://maps.google.com/maps/contrib/109545471524355181935\">Sai Grandhi</a>"], "photo_reference": "AUc7tXXO-aTKun0Y5DB-feSfzc5tZYpnIUDpPUlzO1Z53xMxYZ07Do6c5y_iDj-iQFPoKYlo6p1Ch6dv8q6bHBzXfG4X2yQ6CcjfAByHsWUm7BaewjDTIxoGqXMnePoF74bSGoS06ezjJdMYxYQn75uPLZJswFjNgrEf1JlP7fAut3iYGJB5", "width": 4032}], "place_id": "ChIJwzE_jbRLd0gRegDCNXhj1qs", "plus_code": {"compound_code": "CF5R+64 Coventry, United Kingdom", "global_code": "9C4WCF5R+64"}, "price_level": 2, "rating": 4.2, "reference": "ChIJwzE_jbRLd0gRegDCNXhj1qs", "scope": "GOOGLE", "types": ["restaurant", "cafe", "bar", "store", "food", "point_of_interest", "establishment"], "user_ratings_total": 2362, "vicinity": "Unit 4, Cathedral Lanes Shopping Centre, Broadgate, Coventry"}, {"business_status": "OPERATIONAL", "geometry": {"location": {"lat": 52.40781, "lng": -1.5335552}, "viewport": {"northeast": {"lat": 52.40916837989273, "lng": -1.532138620107278}, "southwest": {"lat": 52.40646872010728, "lng": -1.534838279892722}}}, "icon": "https://maps.gstatic.com/mapfiles/place_api/icons/v1/png_71/bar-71.png", "icon_background_color": "#FF9E67", "icon_mask_base_uri": "https://maps.gstatic.com/mapfiles/place_api/icons/v2/bar_pinlet", "name": "The Nursery Tavern", "opening_hours": {"open_now": true}, "photos": [{"height": 2268, "html_attributions": ["<a href=\"https://maps.google.com/maps/contrib/116397172921561777926\">Steve bell</a>"], "photo_reference": "AUc7tXX_Tms6yjc2gMAtF0yJUsT3UCrBpfgg8_Yeqpu0LcZ265k0t-q2Wvg9ZrHLD_jwFHqwRhpEPkF8HjUkdvqoajjmMWIy-ebV97t1ccKYaTJjHmiR7xh3aqrV8SuB3l6qRpciNkU7f_LeX2WDxEC1_VLMVxKQS1vmCzLoHvuqQ0yD3eBJ", "width": 4032}], "place_id": "ChIJfeQm-w5Ld0gR0lc4hk-nna8", "plus_code": {"compound_code": "CF58+4H Coventry, United Kingdom", "global_code": "9C4WCF58+4H"}, "price_level": 1, "rating": 4.2, "reference": "ChIJfeQm-w5Ld0gR0lc4hk-nna8", "scope": "GOOGLE", "types": ["bar", "restaurant", "food", "point_of_interest", "establishment"], "user_ratings_total": 194, "vicinity": "38-39 Lord St, Chapel Fields, Coventry"}, {"business_status": "OPERATIONAL", "geometry": {"location": {"lat": 52.4098567, "lng": -1.5167367}, "viewport": {"northeast": {"lat": 52.41119497989273, "lng": -1.515376270107278}, "southwest": {"lat": 52.40849532010728, "lng": -1.518075929892722}}}, "icon": "https://maps.gstatic.com/mapfiles/place_api/icons/v1/png_71/bar-71.png", "icon_background_color": "#FF9E67", "icon_mask_base_uri": "https://maps.gstatic.com/mapfiles/place_api/icons/v2/bar_pinlet", "name": "The Artisan Bar and Grill", "opening_hours": {"open_now": true}, "photos": [{"height": 2446, "html_attributions": ["<a href=\"https://maps.google.com/maps/contrib/117005929897392704185\">A Google User</a>"], "photo_reference": "AUc7tXWI4A8U9t4WrmwVCtqz817LxHg_AfHK8CGn1_I7nbstm9fnWk9B_7CcV8FuAU6ro1sXSetQssfxRGYCMlPcZOYdrWZeqaWoCvNnY496t0zR9U2ZeR9fgx4YAMoxe_4Xa1kA-ZEd2IXmpPxTa4s44rNTFw-dwLIudGJEoiIYJKKaO4Ci", "width": 3712}], "place_id": "ChIJVxfOdqRLd0gRs-XKvJA1WIg", "plus_code": {"compound_code": "CF5M+X8 Coventry, UK", "global_code": "9C4WCF5M+X8"}, "price_level": 2, "rating": 4.5, "reference": "ChIJVxfOdqRLd0gRs-XKvJA1WIg", "scope": "GOOGLE", "types": ["bar", "restaurant", "food", "point_of_interest", "establishment"], "user_ratings_total": 554, "vicinity": "Ryley St, Coventry"}, {"business_status": "OPERATIONAL", "geometry": {"location": {"lat": 52.4053871, "lng": -1.5102938}, "viewport": {"northeast": {"lat": 52.40675107989273, "lng": -1.509053620107278}, "southwest": {"lat": 52.40405142010729, "lng": -1.511753279892722}}}, "icon": "https://maps.gstatic.com/mapfiles/place_api/icons/v1/png_71/bar-71.png", "icon_background_color": "#FF9E67", "icon_mask_base_uri": "https://maps.gstatic.com/mapfiles/place_api/icons/v2/bar_pinlet", "name": "The Squirrel", "opening_hours": {"open_now": true}, "photos": [{"height": 4096, "html_attributions": ["<a href=\"https://maps.google.com/maps/contrib/109051777811539173477\">Darren Brierley</a>"], "photo_reference": "AUc7tXVCBbVPIXVCQi6Y3WhG_R031XqgAJL5ysydROHOUoJAWw8Of786sgFbC4HHqXS3Eu7kw3jaMcnQmCpXYjDb2VgQib9jERxQrcxQUWAajBNwFNlbCn33Dv9xCuWbS8LESLj2WDg5NR9MlzWUDOvt7rOy_tEOFFZRffzvo7GMFmNK0sLU", "width": 3072}], "place_id": "ChIJez55k7pLd0gRrTadbt-nId8", "plus_code": {"compound_code": "CF4Q+5V Coventry, United Kingdom", "global_code": "9C4WCF4Q+5V"}, "rating": 4.2, "reference": "ChIJez55k7pLd0gRrTadbt-nId8", "scope": "GOOGLE", "types": ["bar", "lodging", "restaurant", "food", "point_of_interest", "establishment"], "user_ratings_total": 473, "vicinity": "1 Greyfriars Ln, Coventry"}, {"business_status": "OPERATIONAL", "geometry": {"location": {"lat": 52.3991588, "lng": -1.5334951}, "viewport": {"northeast": {"lat": 52.40053957989272, "lng": -1.532191170107278}, "southwest": {"lat": 52.39783992010728, "lng": -1.534890829892722}}}, "icon": "https://maps.gstatic.com/mapfiles/place_api/icons/v1/png_71/bar-71.png", "icon_background_color": "#FF9E67", "icon_mask_base_uri": "https://maps.gstatic.com/mapfiles/place_api/icons/v2/bar_pinlet", "name": "Cottage, Earlsdon", "opening_hours": {"open_now": true}, "photos": [{"height": 1667, "html_attributions": ["<a href=\"https://maps.google.com/maps/contrib/112648402441465530898\">A Google User</a>"], "photo_reference": "AUc7tXWqu9Q1xtrB7M1tNuAVg1UKMnKN_sv-FifK7uNsmCVW2Darw-DsSeggIsS8I-qiVc-x-fFjUDshp5sJBpAFFfT1jUSKnkvJVx1HNiuDXdLiQ01WlWkcanAw__HaK5lkA7chMkueD0KbYDOCkMvtXUkpqqm0AVASZMrmvKb7FvSPU1Mm", "width": 2500}], "place_id": "ChIJsW2P9YRLd0gR-9EniIroj7E", "plus_code": {"compound_code": "9FX8+MJ Coventry, United Kingdom", "global_code": "9C4W9FX8+MJ"}, "price_level": 2, "rating": 4.4, "reference": "ChIJsW2P9YRLd0gR-9EniIroj7E", "scope": "GOOGLE", "types": ["bar", "restaurant", "food", "point_of_interest", "establishment"], "user_ratings_total": 375, "vicinity": "22 Warwick St, Earlsdon, Coventry"}, {"business_status": "OPERATIONAL", "geometry": {"location": {"lat": 52.4086914, "lng": -1.539071}, "viewport": {"northeast": {"lat": 52.40999597989271, "lng": -1.537767420107278}, "southwest": {"lat": 52.40729632010727, "lng": -1.540467079892722}}}, "icon": "https://maps.gstatic.com/mapfiles/place_api/icons/v1/png_71/bar-71.png", "icon_background_color": "#FF9E67", "icon_mask_base_uri": "https://maps.gstatic.com/mapfiles/place_api/icons/v2/bar_pinlet", "name": "The Maudslay", "opening_hours": {"open_now": true}, "photos": [{"height": 3000, "html_attributions": ["<a href=\"https://maps.google.com/maps/contrib/107494633247687151198\">Ian Jarrett</a>"], "photo_reference": "AUc7tXUGK8y72g7rUbBejh92BELL56j-_oouqCfkcLsD82lj-4EPMIyXZBmeOk9WX3GIDpQtWlUJhcG_QxKlIIJpUj1gPUDTOjMRXk64TXxXms7QecWEwNYrs0ozG_5TKMf2n1a0k0CTLA9DOs26VXZxRObp0gScrVPemlRmJYkntNRczjCm", "width": 4000}], "place_id": "ChIJ-eznlBFLd0gRXY5kqbfxC-k", "plus_code": {"compound_code": "CF56+F9 Coventry, United Kingdom", "global_code": "9C4WCF56+F9"}, "price_level": 1, "rating": 4.2, "reference": "ChIJ-eznlBFLd0gRXY5kqbfxC-k", "scope": "GOOGLE", "types": ["bar", "restaurant", "food", "point_of_interest", "establishment"], "user_ratings_total": 758, "vicinity": "190 Allesley Old Rd, Coventry"}, {"business_status": "OPERATIONAL", "geometry": {"location": {"lat": 52.40906620000001, "lng": -1.5094665}, "viewport": {"northeast": {"lat": 52.41044892989272, "lng": -1.508164620107278}, "southwest": {"lat": 52.40774927010728, "lng": -1.510864279892722}}}, "icon": "https://maps.gstatic.com/mapfiles/place_api/icons/v1/png_71/bar-71.png", "icon_background_color": "#FF9E67", "icon_mask_base_uri": "https://maps.gstatic.com/mapfiles/place_api/icons/v2/bar_pinlet", "name": "The Flying Standard - JD Wetherspoon", "opening_hours": {"open_now": true}, "photos": [{"height": 3024, "html_attributions": ["<a href=\"https://maps.google.com/maps/contrib/103231101703598172314\">avaneesh joshi</a>"], "photo_reference": "AUc7tXW-v_AJGItWo-Npl2Sl-kDQCR_MAXM-Ljro3HbL9ybOKsCy-JAQ15EFa8VgJPnoWORAmEDKOB9YwKGEFo3cnPyEpYwr7YM88nF5IqNsBo6Ln4yMs0IJ1iPRnpCeUDZdoAZ-A0GHLsKbeCYU2g09oGQMXlghX7na7OE9u-kymtkHL4wZ", "width": 4032}], "place_id": "ChIJjYUYnrtLd0gRG8fSshnKsis", "plus_code": {"compound_code": "CF5R+J6 Coventry, United Kingdom", "global_code": "9C4WCF5R+J6"}, "price_level": 1, "rating": 4.1, "reference": "ChIJjYUYnrtLd0gRG8fSshnKsis", "scope": "GOOGLE", "types": ["bar", "restaurant", "food", "point_of_interest", "establishment"], "user_ratings_total": 3448, "vicinity": "2-10 Trinity St, Coventry"}, {"business_status": "OPERATIONAL", "geometry": {"location": {"lat": 52.4150259, "lng": -1.523727}, "viewport": {"northeast": {"lat": 52.41632647989272, "lng": -1.522197920107278}, "southwest": {"lat": 52.41362682010728, "lng": -1.524897579892722}}}, "icon": "https://maps.gstatic.com/mapfiles/place_api/icons/v1/png_71/bar-71.png", "icon_background_color": "#FF9E67", "icon_mask_base_uri": "https://maps.gstatic.com/mapfiles/place_api/icons/v2/bar_pinlet", "name": "The Coundon Hotel", "opening_hours": {"open_now": true}, "photos": [{"height": 2250, "html_attributions": ["<a href=\"https://maps.google.com/maps/contrib/111628351343341322679\">loud groovy</a>"], "photo_reference": "AUc7tXUZgV_uj-ylVxj_vsXB8v3ifG6vgMAm6KKQFQRqQ9uxQBLyirZ4bMdDBFDrSPtn1WIgck7mKIPAQj0ynXiOBE9z411U4BQUs2bBHho5Gzwzp6hEfqle0d3BLkym9NaaQVmbEEMzZKBRM28nDEybVHLZkihUQf2WHHAcfVWjP_jjOVPc", "width": 4000}], "place_id": "ChIJs8p8IqBLd0gR4TPdEHBn6h8", "plus_code": {"compound_code": "CF8G+2G Coventry, United Kingdom", "global_code": "9C4WCF8G+2G"}, "price_level": 1, "rating": 4.4, "reference": "ChIJs8p8IqBLd0gR4TPdEHBn6h8", "scope": "GOOGLE", "types": ["bar", "restaurant", "food", "point_of_interest", "establishment"], "user_ratings_total": 502, "vicinity": "Barker's Butts Ln, Coventry"}, {"business_status": "OPERATIONAL", "geometry": {"location": {"lat": 52.4082752, "lng": -1.5307241}, "viewport": {"northeast": {"lat": 52.40969762989272, "lng": -1.529395770107278}, "southwest": {"lat": 52.40699797010728, "lng": -1.532095429892722}}}, "icon": "https://maps.gstatic.com/mapfiles/place_api/icons/v1/png_71/bar-71.png", "icon_background_color": "#FF9E67", "icon_mask_base_uri": "https://maps.gstatic.com/mapfiles/place_api/icons/v2/bar_pinlet", "name": "The Four Provinces Ltd", "opening_hours": {"open_now": true}, "photos": [{"height": 683, "html_attributions": ["<a href=\"https://maps.google.com/maps/contrib/104054811820442636510\">T T G Inns</a>"], "photo_reference": "AUc7tXVG2notxnkeFW9f9XWlRRMfcC9-nNRjs9_7Z4oZsHPQ9RKXYn1s5g5EjEtNpLeDbcgoF03dUEqO3eeZ-SlXxJ2RNt_d_IvGlww_KIw_2OqIxJJgbTVeg-XjwTryTK1XbU6pFPi6puQDqtlTAe_L80rMy6t7CdIZhDuw0OVi66quNY5p", "width": 1024}], "place_id": "ChIJ--VyxQ5Ld0gROr2edixREFI", "plus_code": {"compound_code": "CF59+8P Coventry, United Kingdom", "global_code": "9C4WCF59+8P"}, "price_level": 2, "rating": 4.4, "reference": "ChIJ--VyxQ5Ld0gROr2edixREFI", "scope": "GOOGLE", "types": ["bar", "restaurant", "food", "point_of_interest", "establishment"], "user_ratings_total": 364, "vicinity": "19 Allesley Old Rd, Coventry"}, {"business_status": "OPERATIONAL", "geometry": {"location": {"lat": 52.40576129999999, "lng": -1.5115445}, "viewport": {"northeast": {"lat": 52.40698127989273, "lng": -1.510288820107277}, "southwest": {"lat": 52.40428162010728, "lng": -1.512988479892722}}}, "icon": "https://maps.gstatic.com/mapfiles/place_api/icons/v1/png_71/bar-71.png", "icon_background_color": "#FF9E67", "icon_mask_base_uri": "https://maps.gstatic.com/mapfiles/place_api/icons/v2/bar_pinlet", "name": "Dhillons Brewery Spire Bar", "opening_hours": {"open_now": true}, "photos": [{"height": 943, "html_attributions": ["<a href=\"https://maps.google.com/maps/contrib/118032889874225177837\">A Google User</a>"], "photo_reference": "AUc7tXUPm5nJquh8EO8fiYRYBCUs8yvST-e2Vr2lKZIrlSUhhr_7qcidx6haH9qnbl2InkjYTJ-_s8t7kv1XRMWHhUizFcXSUT08-01mFKbBBIjTBSVtv_l189z1Ba0DPyHZRoFWo45M168_mjN2trmnXtWUAVH13VE6NqRgMhXs-l0WFOpc", "width": 1417}], "place_id": "ChIJEQ8U3iFLd0gRl5Dvg7HTRZI", "plus_code": {"compound_code": "CF4Q+89 Coventry, United Kingdom", "global_code": "9C4WCF4Q+89"}, "price_level": 2, "rating": 4.4, "reference": "ChIJEQ8U3iFLd0gRl5Dvg7HTRZI", "scope": "GOOGLE", "types": ["bar", "restaurant", "food", "point_of_interest", "establishment"], "user_ratings_total": 387, "vicinity": "Spire, Christchurch, New Union St, Coventry"}, {"business_status": "OPERATIONAL", "geometry": {"location": {"lat": 52.4080163, "lng": -1.5087754}, "viewport": {"northeast": {"lat": 52.40936057989272, "lng": -1.507277220107278}, "southwest": {"lat": 52.40666092010728, "lng": -1.509976879892722}}}, "icon": "https://maps.gstatic.com/mapfiles/place_api/icons/v1/png_71/bar-71.png", "icon_background_color": "#FF9E67", "icon_mask_base_uri": "https://maps.gstatic.com/mapfiles/place_api/icons/v2/bar_pinlet", "name": "Slug & Lettuce - Coventry", "opening_hours": {"open_now": true}, "photos": [{"height": 450, "html_attributions": ["<a href=\"https://maps.google.com/maps/contrib/114221838944557975215\">The Establishment</a>"], "photo_reference": "AUc7tXU6RBXWUY4E1hAJF1y8DNpiHrqHxj5JbQ_sDBZqtl2xvThCpVe7Fx6AsQ8Xyzh1dfuQ8bekx7e1Xlpc32uRn6_fnmF4P1-VKJqAz6hzKZewKQicF8HJgdsAtsL-WSv2z2R0TnNEwZnvIkQifNrulpAZHP7zW4B_GbfC-nWrW_G64jy9", "width": 900}], "place_id": "ChIJG64CsrtLd0gRydFt2RUQLOE", "plus_code": {"compound_code": "CF5R+6F Coventry, United Kingdom", "global_code": "9C4WCF5R+6F"}, "price_level": 2, "rating": 4.4, "reference": "ChIJG64CsrtLd0gRydFt2RUQLOE", "scope": "GOOGLE", "types": ["bar", "restaurant", "food", "point_of_interest", "establishment"], "user_ratings_total": 3006, "vicinity": "The Old, County Hall, Bayley Ln, Coventry"}, {"business_status": "OPERATIONAL", "geometry": {"location": {"lat": 52.4043337, "lng": -1.5150853}, "viewport": {"northeast": {"lat": 52.40577502989272, "lng": -1.513829170107278}, "southwest": {"lat": 52.40307537010727, "lng": -1.516528829892722}}}, "icon": "https://maps.gstatic.com/mapfiles/place_api/icons/v1/png_71/bar-71.png", "icon_background_color": "#FF9E67", "icon_mask_base_uri": "https://maps.gstatic.com/mapfiles/place_api/icons/v2/bar_pinlet", "name": "The Lazy Monkey Bar & Kitchen", "opening_hours": {"open_now": true}, "photos": [{"height": 3840, "html_attributions": ["<a href=\"https://maps.google.com/maps/contrib/104692928958544009098\">A Google User</a>"], "photo_reference": "AUc7tXXc90VcanDwxrGbPIQDAmkjExKfH7HujSgGnY8WkHLYfPBn9PBkb06lb32S8uY8X2CvFPWW8AayYP2Piy-EZDOsf0JfNdrA2z8IvACzq7AfoV07Ak6NZz6xDq5Lr48Tb42Jh61uixnnyyelDdaeJOJaEwrrMaGRPCt56gDU47CKThHK", "width": 5760}], "place_id": "ChIJDXsT-lZLd0gR1lZnHAPB9Gg", "plus_code": {"compound_code": "CF3M+PX Coventry, United Kingdom", "global_code": "9C4WCF3M+PX"}, "rating": 4.4, "reference": "ChIJDXsT-lZLd0gR1lZnHAPB9Gg", "scope": "GOOGLE", "types": ["bar", "restaurant", "food", "point_of_interest", "establishment"], "user_ratings_total": 190, "vicinity": "26 Warwick Row, Coventry"}, {"business_status": "OPERATIONAL", "geometry": {"location": {"lat": 52.4078781, "lng": -1.5098926}, "viewport": {"northeast": {"lat": 52.40910947989272, "lng": -1.508529870107278}, "southwest": {"lat": 52.40640982010727, "lng": -1.511229529892722}}}, "icon": "https://maps.gstatic.com/mapfiles/place_api/icons/v1/png_71/restaurant-71.png", "icon_background_color": "#FF9E67", "icon_mask_base_uri": "https://maps.gstatic.com/mapfiles/place_api/icons/v2/restaurant_pinlet", "name": "Cosy Club", "opening_hours": {"open_now": true}, "photos": [{"height": 4218, "html_attributions": ["<a href=\"https://maps.google.com/maps/contrib/102108515477434387829\">Cosy Club</a>"], "photo_reference": "AUc7tXW5o0eew59uOlcw1vy9KqV7RsGHc0bRblzkamSimA5YUA7X2kt3XlPuJvnao3qdbSd8PP-gLgtOk4Rwf-RQ3TnrlmiQbBNbgwNuP36Roq8KHtKSv_SapH4K4bjLZZmWn6GR-6EPHY61JPt25GpCQkzJkqMkXdsqHnBsv_r1ZM6_FMo", "width": 5905}], "place_id": "ChIJe-FXBrtLd0gRRjXszIQF544", "plus_code": {"compound_code": "CF5R+52 Coventry, United Kingdom", "global_code": "9C4WCF5R+52"}, "price_level": 2, "rating": 4.4, "reference": "ChIJe-FXBrtLd0gRRjXszIQF544", "scope": "GOOGLE", "types": ["restaurant", "bar", "food", "point_of_interest", "establishment"], "user_ratings_total": 2076, "vicinity": "Cathedral Lanes Shopping Centre, Coventry"}, {"business_status": "OPERATIONAL", "geometry": {"location": {"lat": 52.4183378, "lng": -1.5085925}, "viewport": {"northeast": {"lat": 52.41954867989272, "lng": -1.507277770107278}, "southwest": {"lat": 52.41684902010727, "lng": -1.509977429892722}}}, "icon": "https://maps.gstatic.com/mapfiles/place_api/icons/v1/png_71/bar-71.png", "icon_background_color": "#FF9E67", "icon_mask_base_uri": "https://maps.gstatic.com/mapfiles/place_api/icons/v2/bar_pinlet", "name": "Final Score Sports & Burger Bar", "opening_hours": {"open_now": true}, "photos": [{"height": 3072, "html_attributions": ["<a href=\"https://maps.google.com/maps/contrib/101242428557628829944\">Bhavesh Thaker</a>"], "photo_reference": "AUc7tXVhXQP-VVyFWbVgphJYXxp7FCtR2QCHayPcoB3uuXwNwwkE4GAYEUm7nCCZALOGCqX7ow_F68X2NIJIwL4sVyM0RXufPVym4qGSCrhBkew0NVMCNBij0vDMOQZmSwA1RGKGNchO92xmiuPMFqwwO_L8ogMOWebxQnVISDbJSZGzUxWG", "width": 3899}], "place_id": "ChIJSa6_NF1Ld0gRku0YJkLJ2p4", "plus_code": {"compound_code": "CF9R+8H Coventry, United Kingdom", "global_code": "9C4WCF9R+8H"}, "rating": 4.6, "reference": "ChIJSa6_NF1Ld0gRku0YJkLJ2p4", "scope": "GOOGLE", "types": ["bar", "store", "restaurant", "food", "point_of_interest", "establishment"], "user_ratings_total": 16, "vicinity": "141-143 Foleshill Rd, Coventry"}, {"business_status": "OPERATIONAL", "geometry": {"location": {"lat": 52.4081303, "lng": -1.5086693}, "viewport": {"northeast": {"lat": 52.40942602989271, "lng": -1.507223470107278}, "southwest": {"lat": 52.40672637010727, "lng": -1.509923129892722}}}, "icon": "https://maps.gstatic.com/mapfiles/place_api/icons/v1/png_71/restaurant-71.png", "icon_background_color": "#FF9E67", "icon_mask_base_uri": "https://maps.gstatic.com/mapfiles/place_api/icons/v2/restaurant_pinlet", "name": "Turtle Bay Coventry", "opening_hours": {"open_now": true}, "photos": [{"height": 2791, "html_attributions": ["<a href=\"https://maps.google.com/maps/contrib/100827196321300050310\">Mark Chater</a>"], "photo_reference": "AUc7tXWUArTEKFn2rrxVYEC6fKH71Q-KpqXZeOpV7inUaxBUoQilntWb1JHv4P0GhUFIY51wvKkIiZBXyFB0nwQD3pW_GBw8NEJ2XRMLBc6PLhJJ8X4kjH0OVVUXbt4wgzAgxiM1cuJJ0FV7HPnEyIeBZH_eiSVq_3v9_X1oyWapTOU0HBft", "width": 3721}], "place_id": "ChIJQ5CyQb9Ld0gRNqpB-Bw9jHk", "plus_code": {"compound_code": "CF5R+7G Coventry, United Kingdom", "global_code": "9C4WCF5R+7G"}, "price_level": 2, "rating": 4.8, "reference": "ChIJQ5CyQb9Ld0gRNqpB-Bw9jHk", "scope": "GOOGLE", "types": ["bar", "restaurant", "food", "point_of_interest", "establishment"], "user_ratings_total": 4902, "vicinity": "Unit 9, Cathedral Lanes Shopping Centre, Coventry"}, {"business_status": "OPERATIONAL", "geometry": {"location": {"lat": 52.41028069999999, "lng": -1.5145774}, "viewport": {"northeast": {"lat": 52.41169497989272, "lng": -1.513153520107278}, "southwest": {"lat": 52.40899532010727, "lng": -1.515853179892722}}}, "icon": "https://maps.gstatic.com/mapfiles/place_api/icons/v1/png_71/restaurant-71.png", "icon_background_color": "#FF9E67", "icon_mask_base_uri": "https://maps.gstatic.com/mapfiles/place_api/icons/v2/restaurant_pinlet", "name": "Bella Italia - Coventry", "opening_hours": {"open_now": true}, "photos": [{"height": 3464, "html_attributions": ["<a href=\"https://maps.google.com/maps/contrib/117645428321795588174\">Samuel Leung</a>"], "photo_reference": "AUc7tXWnqDKCLjB1PuiE2bPHhfBulGMLwXj6zFX0cFswmPRyaF4TIS2gntOwHKVhfjd7eVJMKWk9xdgs9PCA9gVFnHEbgt-QKddARTDa0WnDEtIEwBLB0n56V9-zEzk0vppiC0MFyQPFvyZ0ONB7bySuuN_N7BM5OOdFA-rFaA-xwrq3cGUt", "width": 4618}], "place_id": "ChIJm2N0YaNLd0gRlsLyAxTZH3o", "plus_code": {"compound_code": "CF6P+45 Coventry, United Kingdom", "global_code": "9C4WCF6P+45"}, "price_level": 2, "rating": 3.9, "reference": "ChIJm2N0YaNLd0gRlsLyAxTZH3o", "scope": "GOOGLE", "types": ["restaurant", "night_club", "bar", "food", "point_of_interest", "establishment"], "user_ratings_total": 1527, "vicinity": "Unit 1 4, Belgrade Plaza, Upper Well St, Coventry"}]